[{"category":"anti-social-behaviour","location_type":"Force","location":{"latitude":"52.497882","street":{"id":1645820,"name":"On or near Canberra Gardens"},"longitude":"-1.761329"},"context":"","outcome_status":null,"persistent_id":"","id":129206143,"location_subtype":"","month":"2025-06"},{"category":"anti-social-behaviour","location_type":"Force","location":{"latitude":"52.483289","street":{"id":1645299,"name":"On or near Cliffe Drive"},"longitude":"-1.778857"},"context":"","outcome_status":null,"persistent_id":"","id":129206088,"location_subtype":"","month":"2025-06"},{"category":"anti-social-behaviour","location_type":"Force","location":{"latitude":"52.498040","street":{"id":1644514,"name":"On or near Haxby Avenue"},"longitude":"-1.793072"},"context":"","outcome_status":null,"persistent_id":"","id":129206063,"location_subtype":"","month":"2025-06"},{"category":"anti-social-behaviour","location_type":"Force","location":{"latitude":"52.491734","street":{"id":1645666,"name":"On or near Lillington Grove"},"longitude":"-1.766664"},"context":"","outcome_status":null,"persistent_id":"","id":129206450,"location_subtype":"","month":"2025-06"},{"category":"anti-social-behaviour","location_type":"Force","location":{"latitude":"52.489368","street":{"id":1644174,"name":"On or near Jacamar Avenue"},"longitude":"-1.799872"},"context":"","outcome_status":null,"persistent_id":"","id":129204659,"location_subtype":"","month":"2025-06"},{"category":"anti-social-behaviour","location_type":"Force","location":{"latitude":"52.488904","street":{"id":1644648,"name":"On or near Hollington Crescent"},"longitude":"-1.791553"},"context":"","outcome_status":null,"persistent_id":"","id":129203885,"location_subtype":"","month":"2025-06"},{"category":"anti-social-behaviour","location_type":"Force","location":{"latitude":"52.496270","street":{"id":1645313,"name":"On or near Pear Tree Road"},"longitude":"-1.778733"},"context":"","outcome_status":null,"persistent_id":"","id":129203952,"location_subtype":"","month":"2025-06"},{"category":"anti-social-behaviour","location_type":"Force","location":{"latitude":"52.490849","street":{"id":1645518,"name":"On or near Parking Area"},"longitude":"-1.769128"},"context":"","outcome_status":null,"persistent_id":"","id":129204039,"location_subtype":"","month":"2025-06"},{"category":"anti-social-behaviour","location_type":"Force","location":{"latitude":"52.501560","street":{"id":1645519,"name":"On or near Parking Area"},"longitude":"-1.771341"},"context":"","outcome_status":null,"persistent_id":"","id":129204172,"location_subtype":"","month":"2025-06"},{"category":"anti-social-behaviour","location_type":"Force","location":{"latitude":"52.508202","street":{"id":1645196,"name":"On or near Whittleford Grove"},"longitude":"-1.779572"},"context":"","outcome_status":null,"persistent_id":"","id":129204402,"location_subtype":"","month":"2025-06"},{"category":"anti-social-behaviour","location_type":"Force","location":{"latitude":"52.501668","street":{"id":1644171,"name":"On or near Robertson Knoll"},"longitude":"-1.800921"},"context":"","outcome_status":null,"persistent_id":"","id":129204404,"location_subtype":"","month":"2025-06"},{"category":"anti-social-behaviour","location_type":"Force","location":{"latitude":"52.503842","street":{"id":1644152,"name":"On or near Pilson Close"},"longitude":"-1.800425"},"context":"","outcome_status":null,"persistent_id":"","id":129204481,"location_subtype":"","month":"2025-06"},{"category":"anti-social-behaviour","location_type":"Force","location":{"latitude":"52.503291","street":{"id":1645319,"name":"On or near Cedar Avenue"},"longitude":"-1.778507"},"context":"","outcome_status":null,"persistent_id":"","id":129205098,"location_subtype":"","month":"2025-06"},{"category":"anti-social-behaviour","location_type":"Force","location":{"latitude":"52.488554","street":{"id":1644358,"name":"On or near Plowden Road"},"longitude":"-1.797004"},"context":"","outcome_status":null,"persistent_id":"","id":129205124,"location_subtype":"","month":"2025-06"},{"category":"anti-social-behaviour","location_type":"Force","location":{"latitude":"52.495010","street":{"id":1645338,"name":"On or near Supermarket"},"longitude":"-1.777532"},"context":"","outcome_status":null,"persistent_id":"","id":129205270,"location_subtype":"","month":"2025-06"},{"category":"anti-social-behaviour","location_type":"Force","location":{"latitude":"52.488980","street":{"id":1644246,"name":"On or near Lyme Green Road"},"longitude":"-1.798961"},"context":"","outcome_status":null,"persistent_id":"","id":129206362,"location_subtype":"","month":"2025-06"},{"category":"anti-social-behaviour","location_type":"Force","location":{"latitude":"52.489815","street":{"id":1644802,"name":"On or near Howden Place"},"longitude":"-1.788088"},"context":"","outcome_status":null,"persistent_id":"","id":129205484,"location_subtype":"","month":"2025-06"},{"category":"anti-social-behaviour","location_type":"Force","location":{"latitude":"52.501668","street":{"id":1644171,"name":"On or near Robertson Knoll"},"longitude":"-1.800921"},"context":"","outcome_status":null,"persistent_id":"","id":129205949,"location_subtype":"","month":"2025-06"},{"category":"bicycle-theft","location_type":"Force","location":{"latitude":"52.497975","street":{"id":1644646,"name":"On or near Buckland End"},"longitude":"-1.791820"},"context":"","outcome_status":{"category":"Unable to prosecute suspect","date":"2025-06"},"persistent_id":"2f62eafe48b261345ef69cf92b7ab8f59a8864df124859adb010235eb2c13e99","id":129183261,"location_subtype":"","month":"2025-06"},{"category":"burglary","location_type":"Force","location":{"latitude":"52.501560","street":{"id":1645519,"name":"On or near Parking Area"},"longitude":"-1.771341"},"context":"","outcome_status":{"category":"Unable to prosecute suspect","date":"2025-06"},"persistent_id":"525b7c300edc7111b328ec95ee8948c683b23fa0262b58d161e3d3fe9d8717e2","id":129196568,"location_subtype":"","month":"2025-06"},{"category":"burglary","location_type":"Force","location":{"latitude":"52.496701","street":{"id":1644793,"name":"On or near Brook Meadow Road"},"longitude":"-1.787849"},"context":"","outcome_status":{"category":"Local resolution","date":"2025-07"},"persistent_id":"382eedeca6b0b0f8758df3f366da3d9e7acfec1f92bbb3ced6bd7223e5789aa4","id":129187309,"location_subtype":"","month":"2025-06"},{"category":"burglary","location_type":"Force","location":{"latitude":"52.493652","street":{"id":1645489,"name":"On or near Packington Avenue"},"longitude":"-1.772752"},"context":"","outcome_status":{"category":"Investigation complete; no suspect identified","date":"2025-06"},"persistent_id":"7e6c1ac3151e96b57570c9033413d35c49731b564ff609b887cf3a08fa730c8a","id":129194976,"location_subtype":"","month":"2025-06"},{"category":"burglary","location_type":"Force","location":{"latitude":"52.498953","street":{"id":1644058,"name":"On or near Orkney Avenue"},"longitude":"-1.800992"},"context":"","outcome_status":{"category":"Investigation complete; no suspect identified","date":"2025-07"},"persistent_id":"baddc3b0ad4ffaf2f5e5dba2def00976af72a213c7e7f22209998e29693cbf6f","id":129202935,"location_subtype":"","month":"2025-06"},{"category":"burglary","location_type":"Force","location":{"latitude":"52.491336","street":{"id":1644683,"name":"On or near The Fensway"},"longitude":"-1.789362"},"context":"","outcome_status":{"category":"Investigation complete; no suspect identified","date":"2025-06"},"persistent_id":"4b6191878a0475958e20bddd3603e61f7ab802d6de5ed0617a08784ed7ad3728","id":129189835,"location_subtype":"","month":"2025-06"},{"category":"burglary","location_type":"Force","location":{"latitude":"52.490566","street":{"id":1644312,"name":"On or near Lathom Grove"},"longitude":"-1.795934"},"context":"","outcome_status":{"category":"Unable to prosecute suspect","date":"2025-06"},"persistent_id":"aa7082f2ada30ff2b0f08023aa3b34ed2a6302f9d11730eaaa76f1fa4054b541","id":129203701,"location_subtype":"","month":"2025-06"},{"category":"burglary","location_type":"Force","location":{"latitude":"52.498548","street":{"id":1644706,"name":"On or near Heath Way"},"longitude":"-1.790536"},"context":"","outcome_status":{"category":"Investigation complete; no suspect identified","date":"2025-06"},"persistent_id":"d035640df097f7e9318e1d6421a8899a5da4400085eea200183d4ab569265b35","id":129203078,"location_subtype":"","month":"2025-06"},{"category":"burglary","location_type":"Force","location":{"latitude":"52.485802","street":{"id":1644376,"name":"On or near Kirkham Grove"},"longitude":"-1.796472"},"context":"","outcome_status":{"category":"Investigation complete; no suspect identified","date":"2025-07"},"persistent_id":"a1815d6dc2244b86f7c2aa04b4b98573718a0c56b098a99543f56a01b6526b7e","id":129199802,"location_subtype":"","month":"2025-06"},{"category":"burglary","location_type":"Force","location":{"latitude":"52.499424","street":{"id":1645847,"name":"On or near Hall Hays Road"},"longitude":"-1.759347"},"context":"","outcome_status":{"category":"Investigation complete; no suspect identified","date":"2025-07"},"persistent_id":"cf4404e4f463e102745e1658888e596b1bb1b011f5e458fc7417bdb1d4006eab","id":129200291,"location_subtype":"","month":"2025-06"},{"category":"burglary","location_type":"Force","location":{"latitude":"52.500806","street":{"id":1645779,"name":"On or near Petrol Station"},"longitude":"-1.762462"},"context":"","outcome_status":{"category":"Investigation complete; no suspect identified","date":"2025-07"},"persistent_id":"a240ddd67211385d89950ecc205a7d725b7759f71e55f1e3cd2b8348463ad31a","id":129178559,"location_subtype":"","month":"2025-06"},{"category":"burglary","location_type":"Force","location":{"latitude":"52.493784","street":{"id":1645370,"name":"On or near Cole Way"},"longitude":"-1.775962"},"context":"","outcome_status":{"category":"Investigation complete; no suspect identified","date":"2025-06"},"persistent_id":"b7c0e4bea92e7fdd2e03c88fd6466a720a040462f89e504762cb86e1661d82c3","id":129199453,"location_subtype":"","month":"2025-06"},{"category":"burglary","location_type":"Force","location":{"latitude":"52.491734","street":{"id":1645666,"name":"On or near Lillington Grove"},"longitude":"-1.766664"},"context":"","outcome_status":{"category":"Investigation complete; no suspect identified","date":"2025-06"},"persistent_id":"b98cd41a76f0627f08b30213d009aa6662117f3a31231ab045a6cde09ea3bddc","id":129203468,"location_subtype":"","month":"2025-06"},{"category":"burglary","location_type":"Force","location":{"latitude":"52.486499","street":{"id":1644483,"name":"On or near Beswick Grove"},"longitude":"-1.793847"},"context":"","outcome_status":{"category":"Court result unavailable","date":"2026-01"},"persistent_id":"8d59a72d07aec5b6bde1f5bf227bda1c74ee6a36653d37841cde2007a6e32236","id":129179885,"location_subtype":"","month":"2025-06"},{"category":"burglary","location_type":"Force","location":{"latitude":"52.497925","street":{"id":1645818,"name":"On or near Freemantle Drive"},"longitude":"-1.760489"},"context":"","outcome_status":{"category":"Unable to prosecute suspect","date":"2025-06"},"persistent_id":"04be7a7fcf2290b534b2d8fdd0a74582c425035307653e2c4574ffdf81a09c8e","id":129196375,"location_subtype":"","month":"2025-06"},{"category":"burglary","location_type":"Force","location":{"latitude":"52.488350","street":{"id":1644275,"name":"On or near Penkridge Grove"},"longitude":"-1.798640"},"context":"","outcome_status":{"category":"Investigation complete; no suspect identified","date":"2025-07"},"persistent_id":"4766be542e4ee8a21dc687700cc023deffd928baec62b7fc821ae0c22ea82fc4","id":129180137,"location_subtype":"","month":"2025-06"},{"category":"burglary","location_type":"Force","location":{"latitude":"52.498928","street":{"id":1645484,"name":"On or near Timberley Croft"},"longitude":"-1.772430"},"context":"","outcome_status":{"category":"Investigation complete; no suspect identified","date":"2025-07"},"persistent_id":"f641520e3aa0244d7373d5752d90ad74fd1dcebad1a21604b7299f42bff64113","id":129192450,"location_subtype":"","month":"2025-06"},{"category":"burglary","location_type":"Force","location":{"latitude":"52.501094","street":{"id":1644245,"name":"On or near Ashville Avenue"},"longitude":"-1.796328"},"context":"","outcome_status":{"category":"Investigation complete; no suspect identified","date":"2025-08"},"persistent_id":"9c2d60ad41768180f7ac702b70069f31035dc93e0994982b641b4b4c8bacdcc2","id":129182119,"location_subtype":"","month":"2025-06"},{"category":"burglary","location_type":"Force","location":{"latitude":"52.500806","street":{"id":1645779,"name":"On or near Petrol Station"},"longitude":"-1.762462"},"context":"","outcome_status":{"category":"Investigation complete; no suspect identified","date":"2025-07"},"persistent_id":"51dd368d08f67ac97b7fef7539c5385a6f469af3aaa79fcdcc6422521060f458","id":129191257,"location_subtype":"","month":"2025-06"},{"category":"burglary","location_type":"Force","location":{"latitude":"52.496443","street":{"id":1644977,"name":"On or near Lingfield Gardens"},"longitude":"-1.784565"},"context":"","outcome_status":{"category":"Investigation complete; no suspect identified","date":"2025-06"},"persistent_id":"06233435fed665f1ab9e34da88927ec0b9fc62bc0018ffa74db8f841e1a15e2a","id":129189765,"location_subtype":"","month":"2025-06"},{"category":"burglary","location_type":"Force","location":{"latitude":"52.500806","street":{"id":1645779,"name":"On or near Petrol Station"},"longitude":"-1.762462"},"context":"","outcome_status":{"category":"Investigation complete; no suspect identified","date":"2025-07"},"persistent_id":"68cccb1e1814256facae44f79a98391ce1c29900f7a1b4907812a45e39c74d56","id":129188787,"location_subtype":"","month":"2025-06"},{"category":"criminal-damage-arson","location_type":"Force","location":{"latitude":"52.485674","street":{"id":1644731,"name":"On or near Kempe Road"},"longitude":"-1.790376"},"context":"","outcome_status":{"category":"Local resolution","date":"2025-10"},"persistent_id":"8425ec1be4b536e009b6a1e6a0dee8e8bd7b748659ec74503762ebdf6cb6ae33","id":129181979,"location_subtype":"","month":"2025-06"},{"category":"criminal-damage-arson","location_type":"Force","location":{"latitude":"52.485211","street":{"id":1645347,"name":"On or near Teddesley Grove"},"longitude":"-1.777861"},"context":"","outcome_status":{"category":"Investigation complete; no suspect identified","date":"2025-06"},"persistent_id":"1dad01f97ee763a90b3e65fcc993c7b0c3c82866936bad0f57782f11c073c65c","id":129185296,"location_subtype":"","month":"2025-06"},{"category":"criminal-damage-arson","location_type":"Force","location":{"latitude":"52.493981","street":{"id":1645241,"name":"On or near Wincrest Way"},"longitude":"-1.780188"},"context":"","outcome_status":{"category":"Status update unavailable","date":"2025-10"},"persistent_id":"edae7be86e189b4001eb986adcbcb36a644622d36c4c069cc5be3e43a96b9bb5","id":128941482,"location_subtype":"","month":"2025-06"},{"category":"criminal-damage-arson","location_type":"Force","location":{"latitude":"52.503185","street":{"id":1645455,"name":"On or near Bridgeman Croft"},"longitude":"-1.774471"},"context":"","outcome_status":{"category":"Investigation complete; no suspect identified","date":"2025-07"},"persistent_id":"05e2c34584a673417dec22a6c6bbc21adf8d9c86135e3320dd1b241e7c3471fa","id":129183778,"location_subtype":"","month":"2025-06"},{"category":"criminal-damage-arson","location_type":"Force","location":{"latitude":"52.499893","street":{"id":1645101,"name":"On or near School Lane"},"longitude":"-1.783179"},"context":"","outcome_status":{"category":"Investigation complete; no suspect identified","date":"2025-06"},"persistent_id":"a8e164efbf9d9a9d8b99c62470bf0480f05921057565a2e83c649f208a2689b6","id":129191558,"location_subtype":"","month":"2025-06"},{"category":"criminal-damage-arson","location_type":"Force","location":{"latitude":"52.486499","street":{"id":1644483,"name":"On or near Beswick Grove"},"longitude":"-1.793847"},"context":"","outcome_status":{"category":"Investigation complete; no suspect identified","date":"2025-06"},"persistent_id":"f7a9b698be525a4c7933730b5ee913eb99bdc6cf70391e48d23a0862a24c90bc","id":129199489,"location_subtype":"","month":"2025-06"},{"category":"criminal-damage-arson","location_type":"Force","location":{"latitude":"52.499534","street":{"id":1645071,"name":"On or near Ravenall Close"},"longitude":"-1.783637"},"context":"","outcome_status":{"category":"Unable to prosecute suspect","date":"2025-06"},"persistent_id":"c794b1f54dac4b5d501a0d3974b5a79442837c7a2328fb7cd657e00d3298fe3f","id":129189609,"location_subtype":"","month":"2025-06"},{"category":"criminal-damage-arson","location_type":"Force","location":{"latitude":"52.491177","street":{"id":1645351,"name":"On or near Walsham Croft"},"longitude":"-1.776152"},"context":"","outcome_status":{"category":"Investigation complete; no suspect identified","date":"2025-09"},"persistent_id":"b6783cf972a45ba06aaca0ba2105023cbb9e1d2725a6ab50ad64c2a674b5ffc5","id":129182906,"location_subtype":"","month":"2025-06"},{"category":"criminal-damage-arson","location_type":"Force","location":{"latitude":"52.505942","street":{"id":1645490,"name":"On or near B4118"},"longitude":"-1.773072"},"context":"","outcome_status":{"category":"Investigation complete; no suspect identified","date":"2025-07"},"persistent_id":"8799c7a1931697ea2019e4167ad1f2aa3dc9eb0dd5021fe8b8accf615ca066d9","id":129182115,"location_subtype":"","month":"2025-06"},{"category":"criminal-damage-arson","location_type":"Force","location":{"latitude":"52.498548","street":{"id":1644706,"name":"On or near Heath Way"},"longitude":"-1.790536"},"context":"","outcome_status":{"category":"Investigation complete; no suspect identified","date":"2025-07"},"persistent_id":"7a445b6ffda4f37e45de80f0bcb6e2fb0b74fde035c75ac028f85353e034d44c","id":129179324,"location_subtype":"","month":"2025-06"},{"category":"criminal-damage-arson","location_type":"Force","location":{"latitude":"52.495619","street":{"id":1645764,"name":"On or near Budbrooke Grove"},"longitude":"-1.762902"},"context":"","outcome_status":{"category":"Awaiting court outcome","date":"2025-08"},"persistent_id":"635ba361f2c1021d5b26dc0e442e0e0e4a2a178ce5e76dfe8b70d4de5ff96300","id":129197281,"location_subtype":"","month":"2025-06"},{"category":"criminal-damage-arson","location_type":"Force","location":{"latitude":"52.494156","street":{"id":1645741,"name":"On or near School Drive"},"longitude":"-1.763603"},"context":"","outcome_status":{"category":"Unable to prosecute suspect","date":"2025-08"},"persistent_id":"17ef64fdd6b185e2db9642ab1e0c736b8dea6c39320e798a6ea48c1f2c2fcbed","id":129195977,"location_subtype":"","month":"2025-06"},{"category":"criminal-damage-arson","location_type":"Force","location":{"latitude":"52.498548","street":{"id":1644706,"name":"On or near Heath Way"},"longitude":"-1.790536"},"context":"","outcome_status":{"category":"Investigation complete; no suspect identified","date":"2025-06"},"persistent_id":"15a022cb531d87fdf448a374cafa84f71a548df43908fdba0b1e7983d8629e89","id":129197004,"location_subtype":"","month":"2025-06"},{"category":"criminal-damage-arson","location_type":"Force","location":{"latitude":"52.506798","street":{"id":1645273,"name":"On or near Castle Crescent"},"longitude":"-1.779167"},"context":"","outcome_status":{"category":"Court result unavailable","date":"2025-12"},"persistent_id":"cd229c1544e53ac44fefc8f1003a3befb27c85716b78c4af37a3035d207f69b8","id":129187665,"location_subtype":"","month":"2025-06"},{"category":"criminal-damage-arson","location_type":"Force","location":{"latitude":"52.501702","street":{"id":1644181,"name":"On or near The Hennalls"},"longitude":"-1.799625"},"context":"","outcome_status":{"category":"Unable to prosecute suspect","date":"2025-06"},"persistent_id":"40626fa46dc5e370107394b25c710e885a2a578ffbebc721bb01919393b74066","id":129195301,"location_subtype":"","month":"2025-06"},{"category":"criminal-damage-arson","location_type":"Force","location":{"latitude":"52.499534","street":{"id":1645071,"name":"On or near Ravenall Close"},"longitude":"-1.783637"},"context":"","outcome_status":{"category":"Investigation complete; no suspect identified","date":"2025-06"},"persistent_id":"1ed95d0c4a324acc09e2f948c68ba7ff32c08f0a1d90cd373c659146c5875817","id":129189540,"location_subtype":"","month":"2025-06"},{"category":"criminal-damage-arson","location_type":"Force","location":{"latitude":"52.486499","street":{"id":1644483,"name":"On or near Beswick Grove"},"longitude":"-1.793847"},"context":"","outcome_status":{"category":"Unable to prosecute suspect","date":"2025-08"},"persistent_id":"e3457d74ad2ba366f3dcbc111f12168f3ff128d2eab3200ff313cc089c9bd18e","id":129179981,"location_subtype":"","month":"2025-06"},{"category":"criminal-damage-arson","location_type":"Force","location":{"latitude":"52.501094","street":{"id":1644245,"name":"On or near Ashville Avenue"},"longitude":"-1.796328"},"context":"","outcome_status":{"category":"Investigation complete; no suspect identified","date":"2025-07"},"persistent_id":"e44f283963874022cfb4e7ddd3783ff9d3b5fe74eaf4088730812a94adf532a0","id":129196334,"location_subtype":"","month":"2025-06"},{"category":"criminal-damage-arson","location_type":"Force","location":{"latitude":"52.505942","street":{"id":1645490,"name":"On or near B4118"},"longitude":"-1.773072"},"context":"","outcome_status":{"category":"Investigation complete; no suspect identified","date":"2025-07"},"persistent_id":"a00321f4adf04892a0edadf5383de122a884d4dece870cf7896f1e284256ca52","id":129180083,"location_subtype":"","month":"2025-06"},{"category":"criminal-damage-arson","location_type":"Force","location":{"latitude":"52.490849","street":{"id":1645518,"name":"On or near Parking Area"},"longitude":"-1.769128"},"context":"","outcome_status":{"category":"Investigation complete; no suspect identified","date":"2025-06"},"persistent_id":"775f18f572d4543920aedd5c84b825ed68c4a709e088d5d157f39bcdc054356b","id":129184906,"location_subtype":"","month":"2025-06"},{"category":"criminal-damage-arson","location_type":"Force","location":{"latitude":"52.488360","street":{"id":1644794,"name":"On or near Easthope Road"},"longitude":"-1.788846"},"context":"","outcome_status":{"category":"Investigation complete; no suspect identified","date":"2025-06"},"persistent_id":"73b5021f06e5ea1abc8d2b1e618a12cfd2eaf5dda6526795e789335c93c0d8bb","id":129202773,"location_subtype":"","month":"2025-06"},{"category":"criminal-damage-arson","location_type":"Force","location":{"latitude":"52.498180","street":{"id":1645674,"name":"On or near Enford Close"},"longitude":"-1.766527"},"context":"","outcome_status":{"category":"Unable to prosecute suspect","date":"2025-07"},"persistent_id":"14f73fd65c33fa5ed02cc51dc78a465613da72e308245b20a4b7376e7a937620","id":129186823,"location_subtype":"","month":"2025-06"},{"category":"criminal-damage-arson","location_type":"Force","location":{"latitude":"52.498238","street":{"id":1645590,"name":"On or near Alderpits Road"},"longitude":"-1.768604"},"context":"","outcome_status":{"category":"Investigation complete; no suspect identified","date":"2025-11"},"persistent_id":"e8f5ce39522843ee12c77f39535d8e6dce3e39f5423ca9bbc324f1b03a31d76d","id":129191944,"location_subtype":"","month":"2025-06"},{"category":"criminal-damage-arson","location_type":"Force","location":{"latitude":"52.496206","street":{"id":1645132,"name":"On or near Woodstile"},"longitude":"-1.782843"},"context":"","outcome_status":{"category":"Local resolution","date":"2025-07"},"persistent_id":"86aca78c43aeafb7963b09a38316f1a4ac0074ac5c350ea98efd03c1645946b8","id":129202377,"location_subtype":"","month":"2025-06"},{"category":"criminal-damage-arson","location_type":"Force","location":{"latitude":"52.483881","street":{"id":1644561,"name":"On or near South Roundhay"},"longitude":"-1.793108"},"context":"","outcome_status":{"category":"Unable to prosecute suspect","date":"2025-09"},"persistent_id":"81532f9ccc55b2592099d46aad2e96a07a73318b606dc86e33771154aed0d232","id":129185867,"location_subtype":"","month":"2025-06"},{"category":"criminal-damage-arson","location_type":"Force","location":{"latitude":"52.485787","street":{"id":1645328,"name":"On or near Fordfield Road"},"longitude":"-1.777888"},"context":"","outcome_status":{"category":"Investigation complete; no suspect identified","date":"2025-06"},"persistent_id":"47d5140604baffdaa0f3dfa25c1ba35609c11ea6bb3757b3ef0866c357fdb66d","id":129182575,"location_subtype":"","month":"2025-06"},{"category":"criminal-damage-arson","location_type":"Force","location":{"latitude":"52.500025","street":{"id":1645769,"name":"On or near Supermarket"},"longitude":"-1.763188"},"context":"","outcome_status":{"category":"Investigation complete; no suspect identified","date":"2025-07"},"persistent_id":"b39340196b1078e06be2e170857d0301f68e8aa6a2d6cf237530d723707630a0","id":129185668,"location_subtype":"","month":"2025-06"},{"category":"criminal-damage-arson","location_type":"Force","location":{"latitude":"52.483289","street":{"id":1645299,"name":"On or near Cliffe Drive"},"longitude":"-1.778857"},"context":"","outcome_status":{"category":"Investigation complete; no suspect identified","date":"2025-06"},"persistent_id":"14b9971a98b77f8a9c143660258ae4e4f8f843dad7f37c21d1651b7d74fd1069","id":129203648,"location_subtype":"","month":"2025-06"},{"category":"criminal-damage-arson","location_type":"Force","location":{"latitude":"52.497210","street":{"id":1645671,"name":"On or near Longshaw Grove"},"longitude":"-1.766974"},"context":"","outcome_status":{"category":"Investigation complete; no suspect identified","date":"2025-07"},"persistent_id":"3ea551cc86bee4cd8730dbef89853e2895c917a1261a061fa801cc2caf71cb5b","id":129185562,"location_subtype":"","month":"2025-06"},{"category":"criminal-damage-arson","location_type":"Force","location":{"latitude":"52.496395","street":{"id":1643875,"name":"On or near Rymond Road"},"longitude":"-1.803567"},"context":"","outcome_status":{"category":"Unable to prosecute suspect","date":"2025-07"},"persistent_id":"66e072752a987f8f88f99bcc635adc1705c5a6245259abafcf260dc9e62555f3","id":129177987,"location_subtype":"","month":"2025-06"},{"category":"criminal-damage-arson","location_type":"Force","location":{"latitude":"52.496395","street":{"id":1643875,"name":"On or near Rymond Road"},"longitude":"-1.803567"},"context":"","outcome_status":{"category":"Unable to prosecute suspect","date":"2025-08"},"persistent_id":"d3f962f52b9ad94124676cd5bec99f22be14ce1c03d9e421944d8d52cdbff6da","id":129177989,"location_subtype":"","month":"2025-06"},{"category":"criminal-damage-arson","location_type":"Force","location":{"latitude":"52.497684","street":{"id":1645021,"name":"On or near Polesworth Grove"},"longitude":"-1.784928"},"context":"","outcome_status":{"category":"Unable to prosecute suspect","date":"2025-09"},"persistent_id":"67197b4d89889e292361b8b68fb93c8dc7f7f59f2c7699953c3ed613aebf2eba","id":129201163,"location_subtype":"","month":"2025-06"},{"category":"criminal-damage-arson","location_type":"Force","location":{"latitude":"52.497089","street":{"id":1644237,"name":"On or near Bucklands End Lane"},"longitude":"-1.798924"},"context":"","outcome_status":{"category":"Court result unavailable","date":"2026-01"},"persistent_id":"f4a7a7cfa3696f75b70d239d9d30b3f74829b6ed075be5a0934e4d142591151a","id":129184353,"location_subtype":"","month":"2025-06"},{"category":"drugs","location_type":"Force","location":{"latitude":"52.497397","street":{"id":1645813,"name":"On or near Ayres Close"},"longitude":"-1.761626"},"context":"","outcome_status":{"category":"Local resolution","date":"2025-06"},"persistent_id":"617af449dfcd3727303677b8d03dbdb5c5b8842a218361654152972539540c7a","id":129198695,"location_subtype":"","month":"2025-06"},{"category":"drugs","location_type":"Force","location":{"latitude":"52.490036","street":{"id":1644114,"name":"On or near Colyns Grove"},"longitude":"-1.801474"},"context":"","outcome_status":{"category":"Court result unavailable","date":"2025-12"},"persistent_id":"40839bd0cfa535ca0dd0837807decd2702597d436e8c15171dab63787dce8e11","id":129203705,"location_subtype":"","month":"2025-06"},{"category":"drugs","location_type":"Force","location":{"latitude":"52.484641","street":{"id":1644836,"name":"On or near Dewhurst Croft"},"longitude":"-1.785845"},"context":"","outcome_status":{"category":"Unable to prosecute suspect","date":"2025-10"},"persistent_id":"3decfc1b083beffe58ebfc00af6570b53b2a229423d3b7170d3964df0ee9f55b","id":129193712,"location_subtype":"","month":"2025-06"},{"category":"drugs","location_type":"Force","location":{"latitude":"52.487535","street":{"id":1644704,"name":"On or near Peplow Road"},"longitude":"-1.790249"},"context":"","outcome_status":{"category":"Investigation complete; no suspect identified","date":"2025-09"},"persistent_id":"3bc49cf4b711ff8f646b0aa7b2b54dcb47d165e77c9d846c985021911432e5ac","id":129197898,"location_subtype":"","month":"2025-06"},{"category":"drugs","location_type":"Force","location":{"latitude":"52.485069","street":{"id":1644801,"name":"On or near Shelley Croft"},"longitude":"-1.788656"},"context":"","outcome_status":{"category":"Unable to prosecute suspect","date":"2025-09"},"persistent_id":"955e89b060fcfe84b9d613f09293078606cb67ddab06246b8373c3e0c8d6b328","id":129186678,"location_subtype":"","month":"2025-06"},{"category":"drugs","location_type":"Force","location":{"latitude":"52.506210","street":{"id":1644261,"name":"On or near Newport Road"},"longitude":"-1.797173"},"context":"","outcome_status":{"category":"Unable to prosecute suspect","date":"2025-08"},"persistent_id":"fc54a06616c8fa141081302c06c064dd598545b2b6ab2d205748d19e274bb3c3","id":129196417,"location_subtype":"","month":"2025-06"},{"category":"other-theft","location_type":"Force","location":{"latitude":"52.483325","street":{"id":1644764,"name":"On or near Felton Croft"},"longitude":"-1.788767"},"context":"","outcome_status":{"category":"Investigation complete; no suspect identified","date":"2025-06"},"persistent_id":"9172eac4b6938f5e9c45108b9733886506a02c8630332f3aeb036f1035762154","id":129198515,"location_subtype":"","month":"2025-06"},{"category":"other-theft","location_type":"Force","location":{"latitude":"52.496395","street":{"id":1643875,"name":"On or near Rymond Road"},"longitude":"-1.803567"},"context":"","outcome_status":{"category":"Unable to prosecute suspect","date":"2025-07"},"persistent_id":"8356a6c7735133c0343c5f4ee0b74c1814a08f78300ff8c824a1cf476a31913c","id":129187253,"location_subtype":"","month":"2025-06"},{"category":"other-theft","location_type":"Force","location":{"latitude":"52.489173","street":{"id":1644088,"name":"On or near The Riddings"},"longitude":"-1.801787"},"context":"","outcome_status":{"category":"Local resolution","date":"2025-07"},"persistent_id":"e7195f400321aad993a78f08a0339b5ef8bfc0fd5217a2afd179ef017389eb12","id":129186407,"location_subtype":"","month":"2025-06"},{"category":"other-theft","location_type":"Force","location":{"latitude":"52.500025","street":{"id":1645769,"name":"On or near Supermarket"},"longitude":"-1.763188"},"context":"","outcome_status":{"category":"Investigation complete; no suspect identified","date":"2025-07"},"persistent_id":"9a8ab1ace3a7a63c936cce7c74358d8dee7738b5d9139683dccb3ce13d4c0cba","id":129191924,"location_subtype":"","month":"2025-06"},{"category":"other-theft","location_type":"Force","location":{"latitude":"52.501560","street":{"id":1645519,"name":"On or near Parking Area"},"longitude":"-1.771341"},"context":"","outcome_status":{"category":"Unable to prosecute suspect","date":"2025-09"},"persistent_id":"7b2f8f1900b457ae6fdcdf3b5d160c96d3b4400249e6894d17c3821e8f2bc065","id":129191933,"location_subtype":"","month":"2025-06"},{"category":"other-theft","location_type":"Force","location":{"latitude":"52.502202","street":{"id":1644233,"name":"On or near Petrol Station"},"longitude":"-1.798061"},"context":"","outcome_status":{"category":"Unable to prosecute suspect","date":"2025-06"},"persistent_id":"e116208ca1a719186997604897fe3b835475e873cd187cb9b6505dcbf19c9ade","id":129194636,"location_subtype":"","month":"2025-06"},{"category":"other-theft","location_type":"Force","location":{"latitude":"52.491127","street":{"id":1645276,"name":"On or near Tanglewood Close"},"longitude":"-1.778347"},"context":"","outcome_status":{"category":"Investigation complete; no suspect identified","date":"2025-08"},"persistent_id":"56f10384f1b53d0d7103b56466fd537d403e688a4644de2145ea069cc0aee787","id":129181055,"location_subtype":"","month":"2025-06"},{"category":"other-theft","location_type":"Force","location":{"latitude":"52.500620","street":{"id":1645859,"name":"On or near Chestnut Court"},"longitude":"-1.759517"},"context":"","outcome_status":{"category":"Investigation complete; no suspect identified","date":"2025-06"},"persistent_id":"43e20d1775680a85e519d2731654b5534c5003643fa50df9905b464adf78bceb","id":129183793,"location_subtype":"","month":"2025-06"},{"category":"other-theft","location_type":"Force","location":{"latitude":"52.501560","street":{"id":1645519,"name":"On or near Parking Area"},"longitude":"-1.771341"},"context":"","outcome_status":{"category":"Unable to prosecute suspect","date":"2025-07"},"persistent_id":"de3d2486ea7c40c7a2f0b9df2e49481be09f3c10b76aa2e61fb9e3ff1ecdf73c","id":129181577,"location_subtype":"","month":"2025-06"},{"category":"other-theft","location_type":"Force","location":{"latitude":"52.502911","street":{"id":1645117,"name":"On or near The Green"},"longitude":"-1.782088"},"context":"","outcome_status":{"category":"Investigation complete; no suspect identified","date":"2025-08"},"persistent_id":"85fbb54dcd79891c299561c95c2814ae469b0645b7c3d421c52099a307d644e5","id":129191294,"location_subtype":"","month":"2025-06"},{"category":"other-theft","location_type":"Force","location":{"latitude":"52.489090","street":{"id":1644728,"name":"On or near Hedgley Grove"},"longitude":"-1.790021"},"context":"","outcome_status":{"category":"Unable to prosecute suspect","date":"2025-08"},"persistent_id":"4c1fb8f8a0f8b4018e2d688149da37a7843994dbcaa370c0a4c50c75422bb405","id":129180927,"location_subtype":"","month":"2025-06"},{"category":"other-theft","location_type":"Force","location":{"latitude":"52.486499","street":{"id":1644483,"name":"On or near Beswick Grove"},"longitude":"-1.793847"},"context":"","outcome_status":{"category":"Unable to prosecute suspect","date":"2025-09"},"persistent_id":"5461fcc4629ebfc57f336a2b8a65c6fb2ac5d507b9731d59d4b8acbebd0f59a7","id":129192439,"location_subtype":"","month":"2025-06"},{"category":"possession-of-weapons","location_type":"Force","location":{"latitude":"52.501668","street":{"id":1644171,"name":"On or near Robertson Knoll"},"longitude":"-1.800921"},"context":"","outcome_status":{"category":"Court result unavailable","date":"2026-01"},"persistent_id":"8bb9f4c1e689000b366351bb7cd4f8431ca7fabfbc78e66dda0e91d2aa290d23","id":129188636,"location_subtype":"","month":"2025-06"},{"category":"possession-of-weapons","location_type":"Force","location":{"latitude":"52.497971","street":{"id":1644664,"name":"On or near Hartshill Road"},"longitude":"-1.789330"},"context":"","outcome_status":{"category":"Unable to prosecute suspect","date":"2025-09"},"persistent_id":"26371c8a9c76b7e3499fb1c96b4ae17f40e65ebc6ece594e6dbc953270d72bb9","id":129190307,"location_subtype":"","month":"2025-06"},{"category":"possession-of-weapons","location_type":"Force","location":{"latitude":"52.492138","street":{"id":1644299,"name":"On or near Parking Area"},"longitude":"-1.795559"},"context":"","outcome_status":{"category":"Investigation complete; no suspect identified","date":"2025-10"},"persistent_id":"49fc5983370a8ada532156f33ecc8876fdc81b14fb4e2c95c035aea721472f2a","id":129184092,"location_subtype":"","month":"2025-06"},{"category":"public-order","location_type":"Force","location":{"latitude":"52.503185","street":{"id":1645455,"name":"On or near Bridgeman Croft"},"longitude":"-1.774471"},"context":"","outcome_status":{"category":"Unable to prosecute suspect","date":"2025-06"},"persistent_id":"328012949faf7e398c2ed078ab1476fe1b74e315ee34ee5c1471250152fd1b44","id":129189549,"location_subtype":"","month":"2025-06"},{"category":"public-order","location_type":"Force","location":{"latitude":"52.494379","street":{"id":1645354,"name":"On or near Ownall Road"},"longitude":"-1.777034"},"context":"","outcome_status":{"category":"Unable to prosecute suspect","date":"2025-09"},"persistent_id":"5593689db870beec9906c488825c6073d3944ab1a7cab874baf849de5d8674ff","id":129183738,"location_subtype":"","month":"2025-06"},{"category":"public-order","location_type":"Force","location":{"latitude":"52.500025","street":{"id":1645769,"name":"On or near Supermarket"},"longitude":"-1.763188"},"context":"","outcome_status":{"category":"Unable to prosecute suspect","date":"2025-06"},"persistent_id":"9a89554bffea6f8fc939b3cc6ef6d0d84e1802d63077a2e6d411f3b919fff3b7","id":129185629,"location_subtype":"","month":"2025-06"},{"category":"public-order","location_type":"Force","location":{"latitude":"52.495010","street":{"id":1645338,"name":"On or near Supermarket"},"longitude":"-1.777532"},"context":"","outcome_status":{"category":"Investigation complete; no suspect identified","date":"2025-07"},"persistent_id":"633c91079046dc903e36d33b95e603cd3d2e76d8b739ddb91124b0fe48257b65","id":129188400,"location_subtype":"","month":"2025-06"},{"category":"public-order","location_type":"Force","location":{"latitude":"52.503015","street":{"id":1644202,"name":"On or near Hillcross Walk"},"longitude":"-1.800075"},"context":"","outcome_status":{"category":"Unable to prosecute suspect","date":"2025-07"},"persistent_id":"45b7f56a51571a7215689820b29c1dbbfffee3b577c9cd19be6229a54307cd14","id":129184137,"location_subtype":"","month":"2025-06"},{"category":"public-order","location_type":"Force","location":{"latitude":"52.492775","street":{"id":1645256,"name":"On or near Tyebeams"},"longitude":"-1.779811"},"context":"","outcome_status":{"category":"Unable to prosecute suspect","date":"2025-06"},"persistent_id":"c04797531829b9ee273973246ab346373a22a7080ef774084dc63d472dc55f4e","id":129189037,"location_subtype":"","month":"2025-06"},{"category":"public-order","location_type":"Force","location":{"latitude":"52.499284","street":{"id":1645544,"name":"On or near Ryton Grove"},"longitude":"-1.770233"},"context":"","outcome_status":{"category":"Unable to prosecute suspect","date":"2025-07"},"persistent_id":"8856d55c978890faf867f6a461e901949eeb95e2a3c177119f0ef51073382b8e","id":129179048,"location_subtype":"","month":"2025-06"},{"category":"public-order","location_type":"Force","location":{"latitude":"52.495010","street":{"id":1645338,"name":"On or near Supermarket"},"longitude":"-1.777532"},"context":"","outcome_status":{"category":"Unable to prosecute suspect","date":"2025-06"},"persistent_id":"cebc263791b0c033c1a450d38a4ad346b90d9f216e600be6120d1c3490472bc9","id":129186286,"location_subtype":"","month":"2025-06"},{"category":"public-order","location_type":"Force","location":{"latitude":"52.483493","street":{"id":1644840,"name":"On or near Eddish Road"},"longitude":"-1.787161"},"context":"","outcome_status":{"category":"Offender given a caution","date":"2025-08"},"persistent_id":"f201569be43ec772212342f32dd1984effb417201b330e75584bd8e6e3aa791b","id":129188407,"location_subtype":"","month":"2025-06"},{"category":"public-order","location_type":"Force","location":{"latitude":"52.498953","street":{"id":1644058,"name":"On or near Orkney Avenue"},"longitude":"-1.800992"},"context":"","outcome_status":{"category":"Unable to prosecute suspect","date":"2025-06"},"persistent_id":"70db90b3479751dbc8d5a8cbe6758d0454aa261d72011ee06734423042fc3ad5","id":129201734,"location_subtype":"","month":"2025-06"},{"category":"public-order","location_type":"Force","location":{"latitude":"52.500025","street":{"id":1645769,"name":"On or near Supermarket"},"longitude":"-1.763188"},"context":"","outcome_status":{"category":"Unable to prosecute suspect","date":"2025-06"},"persistent_id":"717091ac74a3b09cced032bc86a0f565f18d08869b5f81a6e3d6346330f40d98","id":129199503,"location_subtype":"","month":"2025-06"},{"category":"public-order","location_type":"Force","location":{"latitude":"52.508799","street":{"id":1645371,"name":"On or near Parking Area"},"longitude":"-1.777064"},"context":"","outcome_status":{"category":"Unable to prosecute suspect","date":"2025-06"},"persistent_id":"7ad44f4166d91bfab889f91ab577d8849a363afbc43ee83f6bdbc9084dd9247c","id":129197458,"location_subtype":"","month":"2025-06"},{"category":"public-order","location_type":"Force","location":{"latitude":"52.498548","street":{"id":1644706,"name":"On or near Heath Way"},"longitude":"-1.790536"},"context":"","outcome_status":{"category":"Unable to prosecute suspect","date":"2025-06"},"persistent_id":"868a8001a972cbef9a7169c9e24083d31a955dc0605d4fedb0ed93797945f469","id":129202515,"location_subtype":"","month":"2025-06"},{"category":"public-order","location_type":"Force","location":{"latitude":"52.498953","street":{"id":1644058,"name":"On or near Orkney Avenue"},"longitude":"-1.800992"},"context":"","outcome_status":{"category":"Investigation complete; no suspect identified","date":"2025-06"},"persistent_id":"a09ed14c7bfc2ddc1d7ebe1e47509a164d50193db5ae8b69c9484e15596fd817","id":129193661,"location_subtype":"","month":"2025-06"},{"category":"public-order","location_type":"Force","location":{"latitude":"52.483493","street":{"id":1644840,"name":"On or near Eddish Road"},"longitude":"-1.787161"},"context":"","outcome_status":{"category":"Unable to prosecute suspect","date":"2025-11"},"persistent_id":"be1f156078c99aa1e1252843728625ff3018d9ab56fe7f6d618685d56d0cc028","id":129194615,"location_subtype":"","month":"2025-06"},{"category":"public-order","location_type":"Force","location":{"latitude":"52.501668","street":{"id":1644171,"name":"On or near Robertson Knoll"},"longitude":"-1.800921"},"context":"","outcome_status":{"category":"Unable to prosecute suspect","date":"2025-06"},"persistent_id":"6139746713076ed640f4776d2ea69c8f1f07e3ce5f652028c4564794b689e010","id":129193653,"location_subtype":"","month":"2025-06"},{"category":"public-order","location_type":"Force","location":{"latitude":"52.497396","street":{"id":1645427,"name":"On or near Turnley Road"},"longitude":"-1.774957"},"context":"","outcome_status":{"category":"Investigation complete; no suspect identified","date":"2025-07"},"persistent_id":"7e9ad3e785bcd0f43a44be2c46d17377e99db1d913a87c36034c142f6d722e13","id":129182273,"location_subtype":"","month":"2025-06"},{"category":"public-order","location_type":"Force","location":{"latitude":"52.495010","street":{"id":1645338,"name":"On or near Supermarket"},"longitude":"-1.777532"},"context":"","outcome_status":{"category":"Awaiting court outcome","date":"2025-09"},"persistent_id":"3d1af1441e4066414df3065a9c6fb796e9a1ce468d09e7d2a721faa19b950aa5","id":129195652,"location_subtype":"","month":"2025-06"},{"category":"public-order","location_type":"Force","location":{"latitude":"52.502919","street":{"id":1644478,"name":"On or near Broomdene Avenue"},"longitude":"-1.791517"},"context":"","outcome_status":{"category":"Unable to prosecute suspect","date":"2025-10"},"persistent_id":"a0e74a2200f10bea5119ff7a7609f479a98c8da688cf8d5852d8d4762f606b1d","id":129183702,"location_subtype":"","month":"2025-06"},{"category":"public-order","location_type":"Force","location":{"latitude":"52.497971","street":{"id":1644664,"name":"On or near Hartshill Road"},"longitude":"-1.789330"},"context":"","outcome_status":{"category":"Unable to prosecute suspect","date":"2025-10"},"persistent_id":"18c0f3e65f6cc80c08734db9d605f2ceb42c4dc19d0b5c3185fcdd37fec4ccd7","id":129190318,"location_subtype":"","month":"2025-06"},{"category":"public-order","location_type":"Force","location":{"latitude":"52.483289","street":{"id":1645299,"name":"On or near Cliffe Drive"},"longitude":"-1.778857"},"context":"","outcome_status":{"category":"Unable to prosecute suspect","date":"2025-06"},"persistent_id":"57a405c1072b45ed3d5732c5b24cd5dc63edfa01f6f5c7e083db40d9b3913af4","id":129200776,"location_subtype":"","month":"2025-06"},{"category":"robbery","location_type":"Force","location":{"latitude":"52.501668","street":{"id":1644171,"name":"On or near Robertson Knoll"},"longitude":"-1.800921"},"context":"","outcome_status":{"category":"Unable to prosecute suspect","date":"2025-06"},"persistent_id":"282fd4a3b5100767fd292f7f40e6c7e194f814fde0ffb2e704459ae1b58d6260","id":129191375,"location_subtype":"","month":"2025-06"},{"category":"robbery","location_type":"Force","location":{"latitude":"52.486930","street":{"id":1645323,"name":"On or near Mill View"},"longitude":"-1.778589"},"context":"","outcome_status":{"category":"Investigation complete; no suspect identified","date":"2025-11"},"persistent_id":"1617b459729ca4f6e3ab4fe0d2b72720b117eabfa4dbd9f80b3a91d0601b9084","id":129183281,"location_subtype":"","month":"2025-06"},{"category":"robbery","location_type":"Force","location":{"latitude":"52.501560","street":{"id":1645519,"name":"On or near Parking Area"},"longitude":"-1.771341"},"context":"","outcome_status":{"category":"Investigation complete; no suspect identified","date":"2025-06"},"persistent_id":"5e6eb0a8256d551492cf519b0212dcae03845fdeba6b30b3d7d79a933a9f13c6","id":129189287,"location_subtype":"","month":"2025-06"},{"category":"robbery","location_type":"Force","location":{"latitude":"52.497666","street":{"id":1645516,"name":"On or near Bradley Road"},"longitude":"-1.770477"},"context":"","outcome_status":{"category":"Investigation complete; no suspect identified","date":"2025-07"},"persistent_id":"ec9253f72a3dc3c578e88e455df5816d0a98313f7c1595f98ec191cce9d8eb19","id":129179806,"location_subtype":"","month":"2025-06"},{"category":"robbery","location_type":"Force","location":{"latitude":"52.506728","street":{"id":1644724,"name":"On or near Rectory Lane"},"longitude":"-1.789790"},"context":"","outcome_status":{"category":"Investigation complete; no suspect identified","date":"2025-07"},"persistent_id":"48c002329f6639b35404ffb2f1befea91a55c93285a29344a650f08cf4743caf","id":129196833,"location_subtype":"","month":"2025-06"},{"category":"robbery","location_type":"Force","location":{"latitude":"52.486058","street":{"id":1644761,"name":"On or near Kitt's Green Road"},"longitude":"-1.788828"},"context":"","outcome_status":{"category":"Offender given a caution","date":"2025-11"},"persistent_id":"0b3aa08cc83bff7d93e97fc2a34ca112906b0e3acb12361bf20d989a860a5602","id":129197010,"location_subtype":"","month":"2025-06"},{"category":"robbery","location_type":"Force","location":{"latitude":"52.497089","street":{"id":1644237,"name":"On or near Bucklands End Lane"},"longitude":"-1.798924"},"context":"","outcome_status":{"category":"Court result unavailable","date":"2025-12"},"persistent_id":"33e6cf0010f642567921e5074b8ae3776cacfaf4e7c7f1cbb4c1b65ade528b62","id":129197913,"location_subtype":"","month":"2025-06"},{"category":"robbery","location_type":"Force","location":{"latitude":"52.495593","street":{"id":1644632,"name":"On or near Woodbury Close"},"longitude":"-1.791949"},"context":"","outcome_status":{"category":"Unable to prosecute suspect","date":"2025-07"},"persistent_id":"a8586a56b6cdc2cd359a9b48a0f0e99c3fde34cf0aede8801043b907c7fe7896","id":129198141,"location_subtype":"","month":"2025-06"},{"category":"robbery","location_type":"Force","location":{"latitude":"52.495416","street":{"id":1645082,"name":"On or near Cherry Lea"},"longitude":"-1.783525"},"context":"","outcome_status":{"category":"Unable to prosecute suspect","date":"2025-07"},"persistent_id":"11cc8ff2e1025eac25110786bbf71f279e4ca94c8817096439b5c024e8f72731","id":129191468,"location_subtype":"","month":"2025-06"},{"category":"robbery","location_type":"Force","location":{"latitude":"52.497713","street":{"id":1645337,"name":"On or near Hawcroft Grove"},"longitude":"-1.776178"},"context":"","outcome_status":{"category":"Investigation complete; no suspect identified","date":"2025-06"},"persistent_id":"c0ca40579d715949e0a665527340e364e150ea7a9f60fb5ff93e0df5139f470d","id":129182360,"location_subtype":"","month":"2025-06"},{"category":"robbery","location_type":"Force","location":{"latitude":"52.493652","street":{"id":1645489,"name":"On or near Packington Avenue"},"longitude":"-1.772752"},"context":"","outcome_status":{"category":"Investigation complete; no suspect identified","date":"2025-06"},"persistent_id":"0c43b20de8dd375675acf153196c91985cafb0183ba00a02d11c7ee00020b3e7","id":129180574,"location_subtype":"","month":"2025-06"},{"category":"robbery","location_type":"Force","location":{"latitude":"52.493475","street":{"id":1645471,"name":"On or near The Shardway"},"longitude":"-1.774108"},"context":"","outcome_status":{"category":"Investigation complete; no suspect identified","date":"2025-06"},"persistent_id":"528968bb3ca6b9e99603813359222c6276daf593d0c11226f020480057879a69","id":129193228,"location_subtype":"","month":"2025-06"},{"category":"robbery","location_type":"Force","location":{"latitude":"52.506210","street":{"id":1644261,"name":"On or near Newport Road"},"longitude":"-1.797173"},"context":"","outcome_status":{"category":"Investigation complete; no suspect identified","date":"2025-06"},"persistent_id":"ed35fe67994bcf452baa68563bd211a50823a0b56ec4230a8cf7d34bc23d7b57","id":129200477,"location_subtype":"","month":"2025-06"},{"category":"robbery","location_type":"Force","location":{"latitude":"52.500025","street":{"id":1645769,"name":"On or near Supermarket"},"longitude":"-1.763188"},"context":"","outcome_status":{"category":"Investigation complete; no suspect identified","date":"2025-06"},"persistent_id":"69405c77db05a8a7a72b42cc4e1222a78b84508962333242262a7f73399a5bde","id":129201371,"location_subtype":"","month":"2025-06"},{"category":"robbery","location_type":"Force","location":{"latitude":"52.506728","street":{"id":1644724,"name":"On or near Rectory Lane"},"longitude":"-1.789790"},"context":"","outcome_status":{"category":"Investigation complete; no suspect identified","date":"2025-06"},"persistent_id":"2e3eddaedd991bc685f9f42693081b7d12a48058453c677980d1d11f01a0a780","id":129198410,"location_subtype":"","month":"2025-06"},{"category":"shoplifting","location_type":"Force","location":{"latitude":"52.496695","street":{"id":1644145,"name":"On or near Fowey Road"},"longitude":"-1.800413"},"context":"","outcome_status":{"category":"Court result unavailable","date":"2025-12"},"persistent_id":"589726c4207311503cab217841baa29ef35f6900156695a153adad396b4b8f2d","id":129202508,"location_subtype":"","month":"2025-06"},{"category":"shoplifting","location_type":"Force","location":{"latitude":"52.500025","street":{"id":1645769,"name":"On or near Supermarket"},"longitude":"-1.763188"},"context":"","outcome_status":{"category":"Unable to prosecute suspect","date":"2025-07"},"persistent_id":"0bfd9dae8c9f2c3a9c5731971c24c1b302c9138ae260b0826d5e52087afe00bd","id":129193440,"location_subtype":"","month":"2025-06"},{"category":"shoplifting","location_type":"Force","location":{"latitude":"52.500806","street":{"id":1645779,"name":"On or near Petrol Station"},"longitude":"-1.762462"},"context":"","outcome_status":{"category":"Investigation complete; no suspect identified","date":"2025-06"},"persistent_id":"6adbd8440b3fd80cc92202103931d34ccef46ca2d201bfe6d289f9c227e41ea5","id":129199303,"location_subtype":"","month":"2025-06"},{"category":"shoplifting","location_type":"Force","location":{"latitude":"52.496695","street":{"id":1644145,"name":"On or near Fowey Road"},"longitude":"-1.800413"},"context":"","outcome_status":{"category":"Investigation complete; no suspect identified","date":"2025-09"},"persistent_id":"9c877a078cf57b7e2f1d993ccb4101c9731376f90c53243f699df775b2bc84ce","id":129178835,"location_subtype":"","month":"2025-06"},{"category":"shoplifting","location_type":"Force","location":{"latitude":"52.498548","street":{"id":1644706,"name":"On or near Heath Way"},"longitude":"-1.790536"},"context":"","outcome_status":{"category":"Unable to prosecute suspect","date":"2025-07"},"persistent_id":"32c80a0544e4ea045c4f72411410d48b130675a64f9ff5c2806a9fb6754f845f","id":129184801,"location_subtype":"","month":"2025-06"},{"category":"shoplifting","location_type":"Force","location":{"latitude":"52.500025","street":{"id":1645769,"name":"On or near Supermarket"},"longitude":"-1.763188"},"context":"","outcome_status":{"category":"Unable to prosecute suspect","date":"2025-06"},"persistent_id":"1126af8e17fc73adce55da782baddea241bef6061b8ae4bb9cd9982f5e80e3cb","id":129193695,"location_subtype":"","month":"2025-06"},{"category":"shoplifting","location_type":"Force","location":{"latitude":"52.500436","street":{"id":1645808,"name":"On or near Supermarket"},"longitude":"-1.762007"},"context":"","outcome_status":{"category":"Investigation complete; no suspect identified","date":"2025-08"},"persistent_id":"558da4d683c883ebe15ee7bdf9c966096fff6873855a548a9fd3df26a439bb39","id":129193734,"location_subtype":"","month":"2025-06"},{"category":"shoplifting","location_type":"Force","location":{"latitude":"52.496695","street":{"id":1644145,"name":"On or near Fowey Road"},"longitude":"-1.800413"},"context":"","outcome_status":{"category":"Unable to prosecute suspect","date":"2025-07"},"persistent_id":"3cb1f7ea2821a050615848c3a44d9f25b31311ff3ea38ad4d4e2916f0184bb7f","id":129198512,"location_subtype":"","month":"2025-06"},{"category":"shoplifting","location_type":"Force","location":{"latitude":"52.500025","street":{"id":1645769,"name":"On or near Supermarket"},"longitude":"-1.763188"},"context":"","outcome_status":{"category":"Investigation complete; no suspect identified","date":"2025-06"},"persistent_id":"94fffcafe288a302a86a1d3a1a90aafaf200c23fa9fd33dc660060c3ce9a64a4","id":129200963,"location_subtype":"","month":"2025-06"},{"category":"shoplifting","location_type":"Force","location":{"latitude":"52.496695","street":{"id":1644145,"name":"On or near Fowey Road"},"longitude":"-1.800413"},"context":"","outcome_status":{"category":"Court result unavailable","date":"2025-12"},"persistent_id":"defc0647ef9404308509c406669f2b008a2b1ab10368e67c9a6b31bc584874e7","id":129201386,"location_subtype":"","month":"2025-06"},{"category":"shoplifting","location_type":"Force","location":{"latitude":"52.500025","street":{"id":1645769,"name":"On or near Supermarket"},"longitude":"-1.763188"},"context":"","outcome_status":{"category":"Investigation complete; no suspect identified","date":"2025-06"},"persistent_id":"9c892bbef805ae0b6429a2f4e569ab7f8b18c47f535aca141a15de7b906e1a59","id":129201665,"location_subtype":"","month":"2025-06"},{"category":"shoplifting","location_type":"Force","location":{"latitude":"52.489735","street":{"id":1644517,"name":"On or near Glebe Farm Road"},"longitude":"-1.793906"},"context":"","outcome_status":{"category":"Investigation complete; no suspect identified","date":"2025-08"},"persistent_id":"47f7ddc777556e7bde2cf1aa9cb1a3d81f530ca87cdc2c810511e99e02fe268e","id":129178646,"location_subtype":"","month":"2025-06"},{"category":"shoplifting","location_type":"Force","location":{"latitude":"52.500025","street":{"id":1645769,"name":"On or near Supermarket"},"longitude":"-1.763188"},"context":"","outcome_status":{"category":"Unable to prosecute suspect","date":"2025-07"},"persistent_id":"404f0fa00248d789dd52058765fe3eb80df57efa35063179af1e73eb77cba1be","id":129178801,"location_subtype":"","month":"2025-06"},{"category":"shoplifting","location_type":"Force","location":{"latitude":"52.500025","street":{"id":1645769,"name":"On or near Supermarket"},"longitude":"-1.763188"},"context":"","outcome_status":{"category":"Unable to prosecute suspect","date":"2025-07"},"persistent_id":"f39839741ee64129b61f750929a05f11a32f85648684520a3d42f69c19a8034c","id":129180220,"location_subtype":"","month":"2025-06"},{"category":"shoplifting","location_type":"Force","location":{"latitude":"52.501560","street":{"id":1645519,"name":"On or near Parking Area"},"longitude":"-1.771341"},"context":"","outcome_status":{"category":"Unable to prosecute suspect","date":"2025-06"},"persistent_id":"689d8061e93b2e59faac933b63972316d3806fe25b342685dc91224a57f45649","id":129181982,"location_subtype":"","month":"2025-06"},{"category":"shoplifting","location_type":"Force","location":{"latitude":"52.495010","street":{"id":1645338,"name":"On or near Supermarket"},"longitude":"-1.777532"},"context":"","outcome_status":{"category":"Unable to prosecute suspect","date":"2025-09"},"persistent_id":"ffa22e621c7dc5a0a77587595cfc6ae73c387290cd4f03a51e47cd92cff358fc","id":129182781,"location_subtype":"","month":"2025-06"},{"category":"shoplifting","location_type":"Force","location":{"latitude":"52.500025","street":{"id":1645769,"name":"On or near Supermarket"},"longitude":"-1.763188"},"context":"","outcome_status":{"category":"Unable to prosecute suspect","date":"2025-07"},"persistent_id":"ddf6b6c3af8b1b823d03ace56903b28d1ff88f52bb247b0bc3c05aaf474877f7","id":129183989,"location_subtype":"","month":"2025-06"},{"category":"shoplifting","location_type":"Force","location":{"latitude":"52.498548","street":{"id":1644706,"name":"On or near Heath Way"},"longitude":"-1.790536"},"context":"","outcome_status":{"category":"Investigation complete; no suspect identified","date":"2025-07"},"persistent_id":"66c0a6e4d6a55e781025efbc3ac9c9cfcc5fd7e305cc4df5ddb8d3cc67350631","id":129184809,"location_subtype":"","month":"2025-06"},{"category":"shoplifting","location_type":"Force","location":{"latitude":"52.500025","street":{"id":1645769,"name":"On or near Supermarket"},"longitude":"-1.763188"},"context":"","outcome_status":{"category":"Local resolution","date":"2025-06"},"persistent_id":"e19fff2f67ea59575f6d28c94fe04818d2194346cef6de93111d131f4888f542","id":129185625,"location_subtype":"","month":"2025-06"},{"category":"shoplifting","location_type":"Force","location":{"latitude":"52.500025","street":{"id":1645769,"name":"On or near Supermarket"},"longitude":"-1.763188"},"context":"","outcome_status":{"category":"Investigation complete; no suspect identified","date":"2025-06"},"persistent_id":"4162958dc92e363abafe0b084a00ec8f5c4bb8eafe41de002ac0da754022a0d7","id":129185733,"location_subtype":"","month":"2025-06"},{"category":"shoplifting","location_type":"Force","location":{"latitude":"52.500025","street":{"id":1645769,"name":"On or near Supermarket"},"longitude":"-1.763188"},"context":"","outcome_status":{"category":"Investigation complete; no suspect identified","date":"2025-07"},"persistent_id":"0f32b00e7a12874abc3e629cc06d072c89aa8c0d70054888c14abc16d1bbb258","id":129187450,"location_subtype":"","month":"2025-06"},{"category":"shoplifting","location_type":"Force","location":{"latitude":"52.500025","street":{"id":1645769,"name":"On or near Supermarket"},"longitude":"-1.763188"},"context":"","outcome_status":{"category":"Unable to prosecute suspect","date":"2025-08"},"persistent_id":"ab630b61084cadb5c1947b7aba8ecc4049c8f75302f721f6da1180461fae4001","id":129188113,"location_subtype":"","month":"2025-06"},{"category":"shoplifting","location_type":"Force","location":{"latitude":"52.489735","street":{"id":1644517,"name":"On or near Glebe Farm Road"},"longitude":"-1.793906"},"context":"","outcome_status":{"category":"Investigation complete; no suspect identified","date":"2025-06"},"persistent_id":"d6b4474f758ccd5802f2a3ea6d9eafa6296db389312f2c3137a4a63efec4ec63","id":129190200,"location_subtype":"","month":"2025-06"},{"category":"shoplifting","location_type":"Force","location":{"latitude":"52.500025","street":{"id":1645769,"name":"On or near Supermarket"},"longitude":"-1.763188"},"context":"","outcome_status":{"category":"Unable to prosecute suspect","date":"2025-06"},"persistent_id":"780e19a6ddd53b398cb1872962841b6ff870bc5d31cd927ddf2e4cacec8382c9","id":129194098,"location_subtype":"","month":"2025-06"},{"category":"shoplifting","location_type":"Force","location":{"latitude":"52.496695","street":{"id":1644145,"name":"On or near Fowey Road"},"longitude":"-1.800413"},"context":"","outcome_status":{"category":"Unable to prosecute suspect","date":"2025-06"},"persistent_id":"8d0ddc3f6f4095b09e53b949bfceaa3f3013ca82aabddcc22c7dcec6907d58a6","id":129194567,"location_subtype":"","month":"2025-06"},{"category":"shoplifting","location_type":"Force","location":{"latitude":"52.500806","street":{"id":1645779,"name":"On or near Petrol Station"},"longitude":"-1.762462"},"context":"","outcome_status":{"category":"Investigation complete; no suspect identified","date":"2025-06"},"persistent_id":"724eb34ec0b6fc5fe8b1d73365f786bb4c371f5c8604afb8e3af54580b20e91d","id":129196874,"location_subtype":"","month":"2025-06"},{"category":"shoplifting","location_type":"Force","location":{"latitude":"52.496695","street":{"id":1644145,"name":"On or near Fowey Road"},"longitude":"-1.800413"},"context":"","outcome_status":{"category":"Investigation complete; no suspect identified","date":"2025-06"},"persistent_id":"a8619c8e4959915b3924ed37180e93024226f9b11cba4f712de25ad8d58c9432","id":129200005,"location_subtype":"","month":"2025-06"},{"category":"shoplifting","location_type":"Force","location":{"latitude":"52.500025","street":{"id":1645769,"name":"On or near Supermarket"},"longitude":"-1.763188"},"context":"","outcome_status":{"category":"Investigation complete; no suspect identified","date":"2025-06"},"persistent_id":"75ba5bf2756098035fe89bea94a686194cfeab35cb9c8b60825f648fc7d092fe","id":129198180,"location_subtype":"","month":"2025-06"},{"category":"shoplifting","location_type":"Force","location":{"latitude":"52.500025","street":{"id":1645769,"name":"On or near Supermarket"},"longitude":"-1.763188"},"context":"","outcome_status":{"category":"Unable to prosecute suspect","date":"2025-07"},"persistent_id":"925ec0ddc130da076ebf4261e00e896fdbae1b4c739790a0013b1a9ae1edb186","id":129200154,"location_subtype":"","month":"2025-06"},{"category":"shoplifting","location_type":"Force","location":{"latitude":"52.500806","street":{"id":1645779,"name":"On or near Petrol Station"},"longitude":"-1.762462"},"context":"","outcome_status":{"category":"Unable to prosecute suspect","date":"2025-06"},"persistent_id":"19daa1b593f230df34a515bc1c37af9db97a7656d7fe2edbdeaa0d9e888cf40f","id":129199315,"location_subtype":"","month":"2025-06"},{"category":"shoplifting","location_type":"Force","location":{"latitude":"52.500025","street":{"id":1645769,"name":"On or near Supermarket"},"longitude":"-1.763188"},"context":"","outcome_status":{"category":"Court result unavailable","date":"2025-12"},"persistent_id":"9273af4514a5ccbb77cd3a107175f0508f961ac8e8640e30e08a2e3bac6d2061","id":129199316,"location_subtype":"","month":"2025-06"},{"category":"shoplifting","location_type":"Force","location":{"latitude":"52.500025","street":{"id":1645769,"name":"On or near Supermarket"},"longitude":"-1.763188"},"context":"","outcome_status":{"category":"Investigation complete; no suspect identified","date":"2025-06"},"persistent_id":"85ca08312958d7948f91ab17af0395966771be82c3d94e65e3764f49e86f2f13","id":129199340,"location_subtype":"","month":"2025-06"},{"category":"shoplifting","location_type":"Force","location":{"latitude":"52.496695","street":{"id":1644145,"name":"On or near Fowey Road"},"longitude":"-1.800413"},"context":"","outcome_status":{"category":"Court result unavailable","date":"2025-12"},"persistent_id":"d2fcf3026e9a180ff08489b62903cb70bbd9a5e6647f0c16bf10b3828adbf2f8","id":129200883,"location_subtype":"","month":"2025-06"},{"category":"shoplifting","location_type":"Force","location":{"latitude":"52.489735","street":{"id":1644517,"name":"On or near Glebe Farm Road"},"longitude":"-1.793906"},"context":"","outcome_status":{"category":"Investigation complete; no suspect identified","date":"2025-06"},"persistent_id":"796e4c2bd2465e65ef55a6470d9a60a26fdfeca4167143cde7d9609c17ec03d4","id":129202509,"location_subtype":"","month":"2025-06"},{"category":"shoplifting","location_type":"Force","location":{"latitude":"52.498548","street":{"id":1644706,"name":"On or near Heath Way"},"longitude":"-1.790536"},"context":"","outcome_status":{"category":"Unable to prosecute suspect","date":"2025-06"},"persistent_id":"26acd062b355001b958a8bc4c236b47e638d7ab85e76316aff30da6abe421c3d","id":129202520,"location_subtype":"","month":"2025-06"},{"category":"shoplifting","location_type":"Force","location":{"latitude":"52.500025","street":{"id":1645769,"name":"On or near Supermarket"},"longitude":"-1.763188"},"context":"","outcome_status":{"category":"Unable to prosecute suspect","date":"2025-06"},"persistent_id":"bd4fdb5c60eda81333c62b3401643f0978bc9f7a49517e7978fe641fb3d6758f","id":129202731,"location_subtype":"","month":"2025-06"},{"category":"theft-from-the-person","location_type":"Force","location":{"latitude":"52.498548","street":{"id":1644706,"name":"On or near Heath Way"},"longitude":"-1.790536"},"context":"","outcome_status":{"category":"Investigation complete; no suspect identified","date":"2025-08"},"persistent_id":"e8fd8845c4fdfeb38b404b53d982a5e093cc331d6276d2126dbc9a39ccd0e7b4","id":129181870,"location_subtype":"","month":"2025-06"},{"category":"theft-from-the-person","location_type":"Force","location":{"latitude":"52.484884","street":{"id":1644642,"name":"On or near Haydon Croft"},"longitude":"-1.790600"},"context":"","outcome_status":{"category":"Unable to prosecute suspect","date":"2025-07"},"persistent_id":"bcfb0e53acb6477f0adcb1a86552b4005f5bf41e64e126fc437e5b7c643b0cc2","id":129179595,"location_subtype":"","month":"2025-06"},{"category":"vehicle-crime","location_type":"Force","location":{"latitude":"52.488350","street":{"id":1644275,"name":"On or near Penkridge Grove"},"longitude":"-1.798640"},"context":"","outcome_status":{"category":"Investigation complete; no suspect identified","date":"2025-06"},"persistent_id":"34b05532978544cef35d021d5f01481916a09e2f7df82199d03e2cff306c3641","id":129191220,"location_subtype":"","month":"2025-06"},{"category":"vehicle-crime","location_type":"Force","location":{"latitude":"52.506688","street":{"id":1645306,"name":"On or near Cutshill Close"},"longitude":"-1.777709"},"context":"","outcome_status":{"category":"Investigation complete; no suspect identified","date":"2025-06"},"persistent_id":"530384e3080464a9252db4ca641a4f0d90f863b722273d336569798b56440596","id":129188393,"location_subtype":"","month":"2025-06"},{"category":"vehicle-crime","location_type":"Force","location":{"latitude":"52.503185","street":{"id":1645455,"name":"On or near Bridgeman Croft"},"longitude":"-1.774471"},"context":"","outcome_status":{"category":"Investigation complete; no suspect identified","date":"2025-06"},"persistent_id":"2947c5840cb4f7c9e2e4c4f8d35369eb5285960043023d22c5df091751e09773","id":129190014,"location_subtype":"","month":"2025-06"},{"category":"vehicle-crime","location_type":"Force","location":{"latitude":"52.493784","street":{"id":1645370,"name":"On or near Cole Way"},"longitude":"-1.775962"},"context":"","outcome_status":{"category":"Investigation complete; no suspect identified","date":"2025-06"},"persistent_id":"e2fe6ea3e2b09d294b5f0211e68bb4699b588ebbc517164a484cd8f6bc02e87a","id":129191660,"location_subtype":"","month":"2025-06"},{"category":"vehicle-crime","location_type":"Force","location":{"latitude":"52.486499","street":{"id":1644483,"name":"On or near Beswick Grove"},"longitude":"-1.793847"},"context":"","outcome_status":{"category":"Investigation complete; no suspect identified","date":"2025-06"},"persistent_id":"d9d396763290e0b9368fdf92d4d9eac763e06679d8becacba7e6287ceb160a5a","id":129191873,"location_subtype":"","month":"2025-06"},{"category":"vehicle-crime","location_type":"Force","location":{"latitude":"52.498519","street":{"id":1644183,"name":"On or near Chorley Avenue"},"longitude":"-1.799831"},"context":"","outcome_status":{"category":"Investigation complete; no suspect identified","date":"2025-06"},"persistent_id":"06aef2d3aa2a8d38cf14cb06c626d1f73105c1e10bc25f979a0a08ae619065c0","id":129195230,"location_subtype":"","month":"2025-06"},{"category":"vehicle-crime","location_type":"Force","location":{"latitude":"52.487535","street":{"id":1644704,"name":"On or near Peplow Road"},"longitude":"-1.790249"},"context":"","outcome_status":{"category":"Investigation complete; no suspect identified","date":"2025-06"},"persistent_id":"f2f6b14733317abefb9fe0d0ce3f13e629eb0b272cd03f7fb7b11906444933e7","id":129195310,"location_subtype":"","month":"2025-06"},{"category":"vehicle-crime","location_type":"Force","location":{"latitude":"52.500620","street":{"id":1645859,"name":"On or near Chestnut Court"},"longitude":"-1.759517"},"context":"","outcome_status":{"category":"Investigation complete; no suspect identified","date":"2025-06"},"persistent_id":"9f489d5f0f3c2b57893a657d189e7b1533bc7056eef43c6ee110a8a1d933f072","id":129192816,"location_subtype":"","month":"2025-06"},{"category":"vehicle-crime","location_type":"Force","location":{"latitude":"52.485737","street":{"id":1644401,"name":"On or near Church Lane"},"longitude":"-1.795191"},"context":"","outcome_status":{"category":"Investigation complete; no suspect identified","date":"2025-06"},"persistent_id":"3aa4891bab0fba7eedd8ca2ab4f7bed559a23e558073fb14273e5ce9452f83aa","id":129194403,"location_subtype":"","month":"2025-06"},{"category":"vehicle-crime","location_type":"Force","location":{"latitude":"52.494482","street":{"id":1645459,"name":"On or near Coneyford Road"},"longitude":"-1.774147"},"context":"","outcome_status":{"category":"Investigation complete; no suspect identified","date":"2025-06"},"persistent_id":"7188c5fdac2d6fddb4508af18142d5ee02868fb36f9bbd307eafda6c2928a812","id":129194449,"location_subtype":"","month":"2025-06"},{"category":"vehicle-crime","location_type":"Force","location":{"latitude":"52.498807","street":{"id":1645047,"name":"On or near Little Heath Croft"},"longitude":"-1.784569"},"context":"","outcome_status":{"category":"Investigation complete; no suspect identified","date":"2025-07"},"persistent_id":"15d914ca7dbb4c8619ac2f4606f979ecce3ee533c196847584db2768fdb327bb","id":129180091,"location_subtype":"","month":"2025-06"},{"category":"vehicle-crime","location_type":"Force","location":{"latitude":"52.491127","street":{"id":1645276,"name":"On or near Tanglewood Close"},"longitude":"-1.778347"},"context":"","outcome_status":{"category":"Investigation complete; no suspect identified","date":"2025-11"},"persistent_id":"313f87f03a914335aeaf79c835d01ca8f5debfd3d0bd4efe6418f4b3cd934ed4","id":129183636,"location_subtype":"","month":"2025-06"},{"category":"vehicle-crime","location_type":"Force","location":{"latitude":"52.498519","street":{"id":1644183,"name":"On or near Chorley Avenue"},"longitude":"-1.799831"},"context":"","outcome_status":{"category":"Investigation complete; no suspect identified","date":"2025-07"},"persistent_id":"139b8ee13fd1da4c87ce22431fa6490610c416b07777ad46c2f6cbf29a7804e5","id":129198351,"location_subtype":"","month":"2025-06"},{"category":"vehicle-crime","location_type":"Force","location":{"latitude":"52.497210","street":{"id":1645671,"name":"On or near Longshaw Grove"},"longitude":"-1.766974"},"context":"","outcome_status":{"category":"Unable to prosecute suspect","date":"2025-09"},"persistent_id":"d6341a7075105cdeed2e8296a20b1bbc714bbb771684bed89c21a71b012bf2f7","id":129179344,"location_subtype":"","month":"2025-06"},{"category":"vehicle-crime","location_type":"Force","location":{"latitude":"52.495010","street":{"id":1645338,"name":"On or near Supermarket"},"longitude":"-1.777532"},"context":"","outcome_status":{"category":"Investigation complete; no suspect identified","date":"2025-09"},"persistent_id":"81cce91cf2a8fa2bdb4e307b8b0a86ee4d7276f04e2ceeff6b66b6699242ac79","id":129191774,"location_subtype":"","month":"2025-06"},{"category":"vehicle-crime","location_type":"Force","location":{"latitude":"52.491378","street":{"id":1644588,"name":"On or near Broomy Close"},"longitude":"-1.792381"},"context":"","outcome_status":{"category":"Investigation complete; no suspect identified","date":"2025-06"},"persistent_id":"161afc4b9a6c486b1cd713b09202d9919fd73a0903bf13a1c584e5c824ee17e8","id":129186614,"location_subtype":"","month":"2025-06"},{"category":"vehicle-crime","location_type":"Force","location":{"latitude":"52.489028","street":{"id":1644140,"name":"On or near Cuckoo Close"},"longitude":"-1.800904"},"context":"","outcome_status":{"category":"Investigation complete; no suspect identified","date":"2025-07"},"persistent_id":"ffb74d4953b25236ecb5c76e20594bb7f7b28b4a2f4c88693aedb5731b7a7b37","id":129178561,"location_subtype":"","month":"2025-06"},{"category":"vehicle-crime","location_type":"Force","location":{"latitude":"52.487535","street":{"id":1644704,"name":"On or near Peplow Road"},"longitude":"-1.790249"},"context":"","outcome_status":{"category":"Awaiting court outcome","date":"2026-01"},"persistent_id":"e18c26a92aa65701f60749af9a5b73994c9f6711652a0d6340e82fdbc1a32cfa","id":129178570,"location_subtype":"","month":"2025-06"},{"category":"vehicle-crime","location_type":"Force","location":{"latitude":"52.496443","street":{"id":1644977,"name":"On or near Lingfield Gardens"},"longitude":"-1.784565"},"context":"","outcome_status":{"category":"Investigation complete; no suspect identified","date":"2025-06"},"persistent_id":"bb69eaa3088f15a5cdd0e0d067b5a052319bf10511f2f06808debcbac49d7c34","id":129199827,"location_subtype":"","month":"2025-06"},{"category":"vehicle-crime","location_type":"Force","location":{"latitude":"52.506343","street":{"id":1645146,"name":"On or near Rose Hill Close"},"longitude":"-1.781069"},"context":"","outcome_status":{"category":"Unable to prosecute suspect","date":"2025-06"},"persistent_id":"d974aa8216701655e808786baac6761847d583c8eba6e4712e56b20aba2fa44c","id":129200020,"location_subtype":"","month":"2025-06"},{"category":"vehicle-crime","location_type":"Force","location":{"latitude":"52.493361","street":{"id":1645418,"name":"On or near Gorsefield Road"},"longitude":"-1.775758"},"context":"","outcome_status":{"category":"Investigation complete; no suspect identified","date":"2025-06"},"persistent_id":"eb7eee0420194644dc04546f9566308fb1b032e71ef134a37e29bcf6b2413692","id":129193827,"location_subtype":"","month":"2025-06"},{"category":"vehicle-crime","location_type":"Force","location":{"latitude":"52.497975","street":{"id":1644646,"name":"On or near Buckland End"},"longitude":"-1.791820"},"context":"","outcome_status":{"category":"Investigation complete; no suspect identified","date":"2025-06"},"persistent_id":"dd6a08e53d94bf2a676acde1de3594debc56ca8c60b4e616cc56f1ec8159b8b8","id":129202321,"location_subtype":"","month":"2025-06"},{"category":"vehicle-crime","location_type":"Force","location":{"latitude":"52.497975","street":{"id":1644646,"name":"On or near Buckland End"},"longitude":"-1.791820"},"context":"","outcome_status":{"category":"Investigation complete; no suspect identified","date":"2025-06"},"persistent_id":"fa073e93c51435b1f5728ef55b441fbd6689a7a29e7f253626ce6b60a282ed84","id":129202332,"location_subtype":"","month":"2025-06"},{"category":"vehicle-crime","location_type":"Force","location":{"latitude":"52.497284","street":{"id":1645599,"name":"On or near Milsom Grove"},"longitude":"-1.768285"},"context":"","outcome_status":{"category":"Investigation complete; no suspect identified","date":"2025-06"},"persistent_id":"4e03f2ae9fbb182f7a1877f9ed8c0a38d65c117ac2971bde9332853ddbf1103b","id":129197092,"location_subtype":"","month":"2025-06"},{"category":"vehicle-crime","location_type":"Force","location":{"latitude":"52.488360","street":{"id":1644794,"name":"On or near Easthope Road"},"longitude":"-1.788846"},"context":"","outcome_status":{"category":"Investigation complete; no suspect identified","date":"2025-06"},"persistent_id":"9893b89425f32c90e59376d368d5301f747c06b1e519bb0238e19e8d08df46c7","id":129202019,"location_subtype":"","month":"2025-06"},{"category":"vehicle-crime","location_type":"Force","location":{"latitude":"52.496665","street":{"id":1645074,"name":"On or near Ankermoor Close"},"longitude":"-1.783342"},"context":"","outcome_status":{"category":"Unable to prosecute suspect","date":"2025-08"},"persistent_id":"e4c870db27a01843189e05dec62deeb54e58ece538ad644a761fd9f1e3422339","id":129193702,"location_subtype":"","month":"2025-06"},{"category":"vehicle-crime","location_type":"Force","location":{"latitude":"52.501560","street":{"id":1645519,"name":"On or near Parking Area"},"longitude":"-1.771341"},"context":"","outcome_status":{"category":"Investigation complete; no suspect identified","date":"2025-06"},"persistent_id":"463f5b6708dfea423d28219c21722b1acab34ac3db54b3d066fa44d52903019d","id":129203065,"location_subtype":"","month":"2025-06"},{"category":"vehicle-crime","location_type":"Force","location":{"latitude":"52.491180","street":{"id":1645743,"name":"On or near Parking Area"},"longitude":"-1.763589"},"context":"","outcome_status":{"category":"Investigation complete; no suspect identified","date":"2025-06"},"persistent_id":"8169c05a2dbab0857411f9a57817746f1885da3ac4f23e338cb1131e3fc8e276","id":129203486,"location_subtype":"","month":"2025-06"},{"category":"vehicle-crime","location_type":"Force","location":{"latitude":"52.487826","street":{"id":1644638,"name":"On or near Croxton Grove"},"longitude":"-1.792162"},"context":"","outcome_status":{"category":"Investigation complete; no suspect identified","date":"2025-07"},"persistent_id":"062e0e1158eaf52dffb7aaf0371158ff24b826fe987f133491272edc1cbf2af8","id":129191186,"location_subtype":"","month":"2025-06"},{"category":"vehicle-crime","location_type":"Force","location":{"latitude":"52.503185","street":{"id":1645455,"name":"On or near Bridgeman Croft"},"longitude":"-1.774471"},"context":"","outcome_status":{"category":"Investigation complete; no suspect identified","date":"2025-07"},"persistent_id":"db6f07f8fb3c8689186c5e0ea182f2f0d6ca3e7b2a3037e6d8d034d2109ffc63","id":129188338,"location_subtype":"","month":"2025-06"},{"category":"vehicle-crime","location_type":"Force","location":{"latitude":"52.494482","street":{"id":1645459,"name":"On or near Coneyford Road"},"longitude":"-1.774147"},"context":"","outcome_status":{"category":"Investigation complete; no suspect identified","date":"2025-07"},"persistent_id":"e298a4a0d0b5a176646f0b99b033e09578a2a04ad5ec34193e39486910bd3fa1","id":129178995,"location_subtype":"","month":"2025-06"},{"category":"vehicle-crime","location_type":"Force","location":{"latitude":"52.494379","street":{"id":1645354,"name":"On or near Ownall Road"},"longitude":"-1.777034"},"context":"","outcome_status":{"category":"Investigation complete; no suspect identified","date":"2025-08"},"persistent_id":"8a0c0c366d1d17787395e922bc25e30d7986e982b861a5a42edf8983f1ccca42","id":129186426,"location_subtype":"","month":"2025-06"},{"category":"vehicle-crime","location_type":"Force","location":{"latitude":"52.510109","street":{"id":1645414,"name":"On or near Crawshaws Road"},"longitude":"-1.775761"},"context":"","outcome_status":{"category":"Investigation complete; no suspect identified","date":"2025-07"},"persistent_id":"5962f10d208dde4da1d5c10b538ae6acb5f32608988744ee426cf3c78257ccb1","id":129183996,"location_subtype":"","month":"2025-06"},{"category":"vehicle-crime","location_type":"Force","location":{"latitude":"52.490094","street":{"id":1644185,"name":"On or near Wheatstone Grove"},"longitude":"-1.798632"},"context":"","outcome_status":{"category":"Investigation complete; no suspect identified","date":"2025-06"},"persistent_id":"745bd780a181735e75060f4e46cc9b4dee1d39f2dacb2214003fbf71a23ecde0","id":129183809,"location_subtype":"","month":"2025-06"},{"category":"violent-crime","location_type":"Force","location":{"latitude":"52.491177","street":{"id":1645351,"name":"On or near Walsham Croft"},"longitude":"-1.776152"},"context":"","outcome_status":{"category":"Unable to prosecute suspect","date":"2025-06"},"persistent_id":"7b105076f4d82fe5eca0b00462c396bd2f52fd9ef2c5ed4521789f1e1bedd25c","id":129182518,"location_subtype":"","month":"2025-06"},{"category":"violent-crime","location_type":"Force","location":{"latitude":"52.498688","street":{"id":1644848,"name":"On or near Heathway Close"},"longitude":"-1.787987"},"context":"","outcome_status":{"category":"Investigation complete; no suspect identified","date":"2025-06"},"persistent_id":"c2eaa224994a19117b4798c6318720652e047f875c0df1c322851b5d2b8b219f","id":129191388,"location_subtype":"","month":"2025-06"},{"category":"violent-crime","location_type":"Force","location":{"latitude":"52.497971","street":{"id":1644664,"name":"On or near Hartshill Road"},"longitude":"-1.789330"},"context":"","outcome_status":{"category":"Unable to prosecute suspect","date":"2025-06"},"persistent_id":"c5f4647d9a17d2790e256f056f3dc38bd823894c68988e0e61351701a00560bf","id":129191434,"location_subtype":"","month":"2025-06"},{"category":"violent-crime","location_type":"Force","location":{"latitude":"52.493361","street":{"id":1645418,"name":"On or near Gorsefield Road"},"longitude":"-1.775758"},"context":"","outcome_status":{"category":"Unable to prosecute suspect","date":"2025-09"},"persistent_id":"6153568b0c58194f646e089212bd7eded64e284bd544806f5eaf0179ba4464ba","id":129194815,"location_subtype":"","month":"2025-06"},{"category":"violent-crime","location_type":"Force","location":{"latitude":"52.494482","street":{"id":1645459,"name":"On or near Coneyford Road"},"longitude":"-1.774147"},"context":"","outcome_status":{"category":"Unable to prosecute suspect","date":"2025-06"},"persistent_id":"f24b6ab318d994f314681de635c5240bea07feab36676b262a4666b70d5705dd","id":129194827,"location_subtype":"","month":"2025-06"},{"category":"violent-crime","location_type":"Force","location":{"latitude":"52.485674","street":{"id":1644731,"name":"On or near Kempe Road"},"longitude":"-1.790376"},"context":"","outcome_status":{"category":"Unable to prosecute suspect","date":"2025-06"},"persistent_id":"f214bdeee28f017c52001ed2de81bfcaa447f2f810654c0979d40b591e1bbbe0","id":129182206,"location_subtype":"","month":"2025-06"},{"category":"violent-crime","location_type":"Force","location":{"latitude":"52.490036","street":{"id":1644114,"name":"On or near Colyns Grove"},"longitude":"-1.801474"},"context":"","outcome_status":{"category":"Investigation complete; no suspect identified","date":"2025-07"},"persistent_id":"e9dc961f11447b3d6624b3be08c237d13006d249177e950e6ddb41306ce72eb3","id":129191835,"location_subtype":"","month":"2025-06"},{"category":"violent-crime","location_type":"Force","location":{"latitude":"52.499938","street":{"id":1645461,"name":"On or near Brownfield Road"},"longitude":"-1.773736"},"context":"","outcome_status":{"category":"Unable to prosecute suspect","date":"2025-06"},"persistent_id":"c06338329f90a409c182fe2220c7bc3d512f2bd2cecc8ac553dc78771fb03ed8","id":129191807,"location_subtype":"","month":"2025-06"},{"category":"violent-crime","location_type":"Force","location":{"latitude":"52.497210","street":{"id":1645671,"name":"On or near Longshaw Grove"},"longitude":"-1.766974"},"context":"","outcome_status":{"category":"Unable to prosecute suspect","date":"2025-09"},"persistent_id":"ade1c9ca20b33bce926980430a249a9d10b60a61bccf88436e7f0c88fb66729f","id":129191631,"location_subtype":"","month":"2025-06"},{"category":"violent-crime","location_type":"Force","location":{"latitude":"52.485674","street":{"id":1644731,"name":"On or near Kempe Road"},"longitude":"-1.790376"},"context":"","outcome_status":{"category":"Unable to prosecute suspect","date":"2025-06"},"persistent_id":"118dac74741f5c35428795dcfa79daf3a0336636126847170f40f5bf7c90b700","id":129182185,"location_subtype":"","month":"2025-06"},{"category":"violent-crime","location_type":"Force","location":{"latitude":"52.497925","street":{"id":1645818,"name":"On or near Freemantle Drive"},"longitude":"-1.760489"},"context":"","outcome_status":{"category":"Unable to prosecute suspect","date":"2025-07"},"persistent_id":"1711614437408e9810ef97d979cdc93c6e7cb887aa7e04ff1723ef5505bb6a84","id":129181994,"location_subtype":"","month":"2025-06"},{"category":"violent-crime","location_type":"Force","location":{"latitude":"52.502911","street":{"id":1645117,"name":"On or near The Green"},"longitude":"-1.782088"},"context":"","outcome_status":{"category":"Investigation complete; no suspect identified","date":"2025-07"},"persistent_id":"5905551d89528c24a3f3c8e3cd45b3dc3d522d115062d52a60c857f266407ec8","id":129192162,"location_subtype":"","month":"2025-06"},{"category":"violent-crime","location_type":"Force","location":{"latitude":"52.508799","street":{"id":1645371,"name":"On or near Parking Area"},"longitude":"-1.777064"},"context":"","outcome_status":{"category":"Unable to prosecute suspect","date":"2025-09"},"persistent_id":"951747205f07735b4091e18665e873d987e6f531ef7253b55451d91f53f519f4","id":129195160,"location_subtype":"","month":"2025-06"},{"category":"violent-crime","location_type":"Force","location":{"latitude":"52.483325","street":{"id":1644764,"name":"On or near Felton Croft"},"longitude":"-1.788767"},"context":"","outcome_status":{"category":"Unable to prosecute suspect","date":"2025-11"},"persistent_id":"84dbce6e5dce7cb04b229c088b1f40898a48612a8044d81f051f523ee78002ac","id":129192250,"location_subtype":"","month":"2025-06"},{"category":"violent-crime","location_type":"Force","location":{"latitude":"52.486058","street":{"id":1644761,"name":"On or near Kitt's Green Road"},"longitude":"-1.788828"},"context":"","outcome_status":{"category":"Unable to prosecute suspect","date":"2025-06"},"persistent_id":"377270f80e0535da52a8236933172ff259b72249ed2fc8e5a8d30692e67fc3dd","id":129192387,"location_subtype":"","month":"2025-06"},{"category":"violent-crime","location_type":"Force","location":{"latitude":"52.488350","street":{"id":1644275,"name":"On or near Penkridge Grove"},"longitude":"-1.798640"},"context":"","outcome_status":{"category":"Unable to prosecute suspect","date":"2025-09"},"persistent_id":"4ea4893203824eccd3484d59d79c0de255c76766d948865829fa8ff666a52e68","id":129184060,"location_subtype":"","month":"2025-06"},{"category":"violent-crime","location_type":"Force","location":{"latitude":"52.496701","street":{"id":1644793,"name":"On or near Brook Meadow Road"},"longitude":"-1.787849"},"context":"","outcome_status":{"category":"Unable to prosecute suspect","date":"2025-06"},"persistent_id":"00678ce9cd4e9060257e8c445a4f2d3a0cadbdb32f4dfaf1fcb7b05e8d0c6f46","id":129187800,"location_subtype":"","month":"2025-06"},{"category":"violent-crime","location_type":"Force","location":{"latitude":"52.489229","street":{"id":1644300,"name":"On or near Neachley Grove"},"longitude":"-1.797605"},"context":"","outcome_status":{"category":"Unable to prosecute suspect","date":"2025-06"},"persistent_id":"3f3eab475d6d2e413091823ea7602db6a561bf53192c6b4ba2092f6017ed8072","id":129181800,"location_subtype":"","month":"2025-06"},{"category":"violent-crime","location_type":"Force","location":{"latitude":"52.497589","street":{"id":1645744,"name":"On or near Farmoor Grove"},"longitude":"-1.763334"},"context":"","outcome_status":{"category":"Unable to prosecute suspect","date":"2025-06"},"persistent_id":"9a781fc79dbc028e855c29c98ad31771e78354da6b7aa0066645a2ba07ab7afd","id":129192636,"location_subtype":"","month":"2025-06"},{"category":"violent-crime","location_type":"Force","location":{"latitude":"52.486058","street":{"id":1644761,"name":"On or near Kitt's Green Road"},"longitude":"-1.788828"},"context":"","outcome_status":{"category":"Unable to prosecute suspect","date":"2025-06"},"persistent_id":"3a37417d5b700ba0405855fee200c3da111489a9eefc8c2c5a42797583aee5e1","id":129203433,"location_subtype":"","month":"2025-06"},{"category":"violent-crime","location_type":"Force","location":{"latitude":"52.486058","street":{"id":1644761,"name":"On or near Kitt's Green Road"},"longitude":"-1.788828"},"context":"","outcome_status":{"category":"Awaiting court outcome","date":"2025-09"},"persistent_id":"2a4714a1803151cffd73cb81418e03f17cd5ea7fe5039cea90d06fa9382347e7","id":129190258,"location_subtype":"","month":"2025-06"},{"category":"violent-crime","location_type":"Force","location":{"latitude":"52.497971","street":{"id":1644664,"name":"On or near Hartshill Road"},"longitude":"-1.789330"},"context":"","outcome_status":{"category":"Unable to prosecute suspect","date":"2025-09"},"persistent_id":"9de13d757f338cc51d0b53bc57a254e262cab762d2598ac3caedafe006c59901","id":129190308,"location_subtype":"","month":"2025-06"},{"category":"violent-crime","location_type":"Force","location":{"latitude":"52.485069","street":{"id":1644801,"name":"On or near Shelley Croft"},"longitude":"-1.788656"},"context":"","outcome_status":{"category":"Unable to prosecute suspect","date":"2025-06"},"persistent_id":"369df9b4131e815b1ac9a8d01379cb2d71efc421329dddfd59cdf898998000b6","id":129182852,"location_subtype":"","month":"2025-06"},{"category":"violent-crime","location_type":"Force","location":{"latitude":"52.485069","street":{"id":1644801,"name":"On or near Shelley Croft"},"longitude":"-1.788656"},"context":"","outcome_status":{"category":"Unable to prosecute suspect","date":"2025-06"},"persistent_id":"815ade3e2bc93f438f097447ce77f554b0b3c7e6d61af8d069fbcee9279f702f","id":129182851,"location_subtype":"","month":"2025-06"},{"category":"violent-crime","location_type":"Force","location":{"latitude":"52.497971","street":{"id":1644664,"name":"On or near Hartshill Road"},"longitude":"-1.789330"},"context":"","outcome_status":{"category":"Unable to prosecute suspect","date":"2025-10"},"persistent_id":"83f3e1799f297f1b2a2470f8aaf3e8699d7364bde5114bb0ae2210626b3a7014","id":129190303,"location_subtype":"","month":"2025-06"},{"category":"violent-crime","location_type":"Force","location":{"latitude":"52.506132","street":{"id":1644790,"name":"On or near Hawkesford Close"},"longitude":"-1.788496"},"context":"","outcome_status":{"category":"Unable to prosecute suspect","date":"2025-07"},"persistent_id":"c1d260fdc5b2bcd2d1e48005b175f0638432ae8590d90cc97f82ed4be61f26ab","id":129190794,"location_subtype":"","month":"2025-06"},{"category":"violent-crime","location_type":"Force","location":{"latitude":"52.497210","street":{"id":1645671,"name":"On or near Longshaw Grove"},"longitude":"-1.766974"},"context":"","outcome_status":{"category":"Status update unavailable","date":"2025-10"},"persistent_id":"d9c4065fa28888ca18885043ff91b1b4f630a1fd61523f593d62d5f43d8290d7","id":129190816,"location_subtype":"","month":"2025-06"},{"category":"violent-crime","location_type":"Force","location":{"latitude":"52.502223","street":{"id":1644247,"name":"On or near Vallian Croft"},"longitude":"-1.799460"},"context":"","outcome_status":{"category":"Unable to prosecute suspect","date":"2025-06"},"persistent_id":"f99fbb1fb1e1456f7a32a2bd77055a0f3ac3bb3c41d0881df49f8c82d04a592a","id":129182609,"location_subtype":"","month":"2025-06"},{"category":"violent-crime","location_type":"Force","location":{"latitude":"52.498040","street":{"id":1644514,"name":"On or near Haxby Avenue"},"longitude":"-1.793072"},"context":"","outcome_status":{"category":"Unable to prosecute suspect","date":"2025-07"},"persistent_id":"a2e50fd9c0476d217d1f4f27f92dc90a39a9e04cd749e3f8983f65c911cdd4d6","id":129182459,"location_subtype":"","month":"2025-06"},{"category":"violent-crime","location_type":"Force","location":{"latitude":"52.496395","street":{"id":1643875,"name":"On or near Rymond Road"},"longitude":"-1.803567"},"context":"","outcome_status":{"category":"Unable to prosecute suspect","date":"2025-07"},"persistent_id":"6cc5d18dc6564227e48e452493fa3e33c1646c095a3b2d4112bada1b9b8e209e","id":129195427,"location_subtype":"","month":"2025-06"},{"category":"violent-crime","location_type":"Force","location":{"latitude":"52.487535","street":{"id":1644704,"name":"On or near Peplow Road"},"longitude":"-1.790249"},"context":"","outcome_status":{"category":"Unable to prosecute suspect","date":"2025-07"},"persistent_id":"c149de3fec395865883836d6a97446d0eb76795863450facf209d88eaeb48712","id":129192807,"location_subtype":"","month":"2025-06"},{"category":"violent-crime","location_type":"Force","location":{"latitude":"52.498953","street":{"id":1644058,"name":"On or near Orkney Avenue"},"longitude":"-1.800992"},"context":"","outcome_status":{"category":"Unable to prosecute suspect","date":"2025-06"},"persistent_id":"0af383439c58adb64da677c0cddc38833fa5006da5fddddbe8e40b223603b943","id":129183100,"location_subtype":"","month":"2025-06"},{"category":"violent-crime","location_type":"Force","location":{"latitude":"52.497089","street":{"id":1644237,"name":"On or near Bucklands End Lane"},"longitude":"-1.798924"},"context":"","outcome_status":{"category":"Unable to prosecute suspect","date":"2025-06"},"persistent_id":"d3d449646950f8b7f748ecc38307730f9cc89ce8706189866a022c9aeeb8862f","id":129192893,"location_subtype":"","month":"2025-06"},{"category":"violent-crime","location_type":"Force","location":{"latitude":"52.497089","street":{"id":1644237,"name":"On or near Bucklands End Lane"},"longitude":"-1.798924"},"context":"","outcome_status":{"category":"Unable to prosecute suspect","date":"2025-07"},"persistent_id":"24a8f42be950dca66cb6d719b68174295e3e2e630b32378c605a07b74d0e37d2","id":129192890,"location_subtype":"","month":"2025-06"},{"category":"violent-crime","location_type":"Force","location":{"latitude":"52.496395","street":{"id":1643875,"name":"On or near Rymond Road"},"longitude":"-1.803567"},"context":"","outcome_status":{"category":"Unable to prosecute suspect","date":"2025-07"},"persistent_id":"1e7f105fa2c45442af478e5cafa0a020e0ff39a7a511ee0b6a8ead7ae4aae62d","id":129181555,"location_subtype":"","month":"2025-06"},{"category":"violent-crime","location_type":"Force","location":{"latitude":"52.498180","street":{"id":1645674,"name":"On or near Enford Close"},"longitude":"-1.766527"},"context":"","outcome_status":{"category":"Unable to prosecute suspect","date":"2025-10"},"persistent_id":"27a7436ca87755e29c926512bc059192d4ac41efd966f3ab33bd55c745099adb","id":129193262,"location_subtype":"","month":"2025-06"},{"category":"violent-crime","location_type":"Force","location":{"latitude":"52.491127","street":{"id":1645276,"name":"On or near Tanglewood Close"},"longitude":"-1.778347"},"context":"","outcome_status":{"category":"Court result unavailable","date":"2025-12"},"persistent_id":"795b6d4563be7fd4f5a1cb29e19af79d9e22107f80acf83eaed2ce159d7bc9e3","id":129195881,"location_subtype":"","month":"2025-06"},{"category":"violent-crime","location_type":"Force","location":{"latitude":"52.503539","street":{"id":1644039,"name":"On or near Drylea Grove"},"longitude":"-1.801472"},"context":"","outcome_status":{"category":"Court result unavailable","date":"2025-12"},"persistent_id":"35f0e56b57abf7b46ad1b85c721c7b1340d08924f3b4b18746d460c80338985c","id":129195894,"location_subtype":"","month":"2025-06"},{"category":"violent-crime","location_type":"Force","location":{"latitude":"52.501668","street":{"id":1644171,"name":"On or near Robertson Knoll"},"longitude":"-1.800921"},"context":"","outcome_status":{"category":"Investigation complete; no suspect identified","date":"2025-06"},"persistent_id":"0592b686bf1961175ca55307d81bbe419dea9707c4865c33161d7929906adcc1","id":129193407,"location_subtype":"","month":"2025-06"},{"category":"violent-crime","location_type":"Force","location":{"latitude":"52.488360","street":{"id":1644794,"name":"On or near Easthope Road"},"longitude":"-1.788846"},"context":"","outcome_status":{"category":"Unable to prosecute suspect","date":"2025-07"},"persistent_id":"d0bd963420a3d91908ff16359efbb9a2b390c6dc4e6743869aeefcc05f97f7b1","id":129193403,"location_subtype":"","month":"2025-06"},{"category":"violent-crime","location_type":"Force","location":{"latitude":"52.491803","street":{"id":1645424,"name":"On or near Spondon Grove"},"longitude":"-1.774205"},"context":"","outcome_status":{"category":"Unable to prosecute suspect","date":"2025-08"},"persistent_id":"ab5678cda117144d87f7271a729dfef0e212410bf81e741b2ae6206fd99e0928","id":129193513,"location_subtype":"","month":"2025-06"},{"category":"violent-crime","location_type":"Force","location":{"latitude":"52.490094","street":{"id":1644185,"name":"On or near Wheatstone Grove"},"longitude":"-1.798632"},"context":"","outcome_status":{"category":"Unable to prosecute suspect","date":"2025-06"},"persistent_id":"2a980d8b1c57b76202edc46f7b831b14f7cd89c455d9e991eff8f3e2a636b12f","id":129196133,"location_subtype":"","month":"2025-06"},{"category":"violent-crime","location_type":"Force","location":{"latitude":"52.497684","street":{"id":1645021,"name":"On or near Polesworth Grove"},"longitude":"-1.784928"},"context":"","outcome_status":{"category":"Unable to prosecute suspect","date":"2025-07"},"persistent_id":"c2cdbce240d04cdcdb5669db1ddbaaeeac8bad5c0f4cbd3b8f255d43be60fdfd","id":129181517,"location_subtype":"","month":"2025-06"},{"category":"violent-crime","location_type":"Force","location":{"latitude":"52.502694","street":{"id":1643984,"name":"On or near Firs Farm Drive"},"longitude":"-1.801962"},"context":"","outcome_status":{"category":"Unable to prosecute suspect","date":"2025-09"},"persistent_id":"594923228ee891ddd4bde81a51f1a6d05984146f33e34d9f985f8d78d225badd","id":129193685,"location_subtype":"","month":"2025-06"},{"category":"violent-crime","location_type":"Force","location":{"latitude":"52.497684","street":{"id":1645021,"name":"On or near Polesworth Grove"},"longitude":"-1.784928"},"context":"","outcome_status":{"category":"Unable to prosecute suspect","date":"2025-09"},"persistent_id":"fa37d90cad7fe9f8e3f8c7b0d0ac99ec929d39204e87170d7d9e7ce249fd5109","id":129181516,"location_subtype":"","month":"2025-06"},{"category":"violent-crime","location_type":"Force","location":{"latitude":"52.498519","street":{"id":1644183,"name":"On or near Chorley Avenue"},"longitude":"-1.799831"},"context":"","outcome_status":{"category":"Unable to prosecute suspect","date":"2025-06"},"persistent_id":"7b6ca818c6f7b44a1aa3977a1014314e71607bd5c53a8a63bca1e969c2c00d19","id":129196255,"location_subtype":"","month":"2025-06"},{"category":"violent-crime","location_type":"Force","location":{"latitude":"52.498676","street":{"id":1645637,"name":"On or near Brandon Place"},"longitude":"-1.767158"},"context":"","outcome_status":{"category":"Unable to prosecute suspect","date":"2025-06"},"persistent_id":"43a691e3e0a3d8303bf34c1a421796aabcea04ccdf26fe64f201f912fb585995","id":129193842,"location_subtype":"","month":"2025-06"},{"category":"violent-crime","location_type":"Force","location":{"latitude":"52.486058","street":{"id":1644761,"name":"On or near Kitt's Green Road"},"longitude":"-1.788828"},"context":"","outcome_status":{"category":"Unable to prosecute suspect","date":"2025-06"},"persistent_id":"3a2884e801dfe4ac14ae01982dbac81a20336e9617d8eaa67fc3e4cc4c2e0cd8","id":129194020,"location_subtype":"","month":"2025-06"},{"category":"violent-crime","location_type":"Force","location":{"latitude":"52.504541","street":{"id":1645279,"name":"On or near Westeria Close"},"longitude":"-1.778854"},"context":"","outcome_status":{"category":"Investigation complete; no suspect identified","date":"2025-07"},"persistent_id":"dd191443b302f7afa8355bc595ac943372d1407bb9d0749a648f5d7e89f05bb5","id":129181477,"location_subtype":"","month":"2025-06"},{"category":"violent-crime","location_type":"Force","location":{"latitude":"52.503842","street":{"id":1644152,"name":"On or near Pilson Close"},"longitude":"-1.800425"},"context":"","outcome_status":{"category":"Unable to prosecute suspect","date":"2025-08"},"persistent_id":"ddaaeaa8de3c358b9b5fad4c401cd34e5b8d12eb510c9b1c08bba18d254440db","id":129190435,"location_subtype":"","month":"2025-06"},{"category":"violent-crime","location_type":"Force","location":{"latitude":"52.504391","street":{"id":1644108,"name":"On or near Edsome Way"},"longitude":"-1.800408"},