[{"category":"anti-social-behaviour","location_type":"Force","location":{"latitude":"52.518916","street":{"id":1644806,"name":"On or near Long Close Walk"},"longitude":"-1.788435"},"context":"","outcome_status":null,"persistent_id":"","id":127050883,"location_subtype":"","month":"2025-03"},{"category":"anti-social-behaviour","location_type":"Force","location":{"latitude":"52.520842","street":{"id":1645034,"name":"On or near St Cuthberts Place"},"longitude":"-1.784682"},"context":"","outcome_status":null,"persistent_id":"","id":127053282,"location_subtype":"","month":"2025-03"},{"category":"anti-social-behaviour","location_type":"Force","location":{"latitude":"52.516693","street":{"id":1644918,"name":"On or near Rhoose Croft"},"longitude":"-1.786986"},"context":"","outcome_status":null,"persistent_id":"","id":127053248,"location_subtype":"","month":"2025-03"},{"category":"anti-social-behaviour","location_type":"Force","location":{"latitude":"52.518303","street":{"id":1644258,"name":"On or near Lanark Croft"},"longitude":"-1.797707"},"context":"","outcome_status":null,"persistent_id":"","id":127052696,"location_subtype":"","month":"2025-03"},{"category":"anti-social-behaviour","location_type":"Force","location":{"latitude":"52.520842","street":{"id":1645034,"name":"On or near St Cuthberts Place"},"longitude":"-1.784682"},"context":"","outcome_status":null,"persistent_id":"","id":127052462,"location_subtype":"","month":"2025-03"},{"category":"anti-social-behaviour","location_type":"Force","location":{"latitude":"52.508511","street":{"id":1645124,"name":"On or near Sudeley Close"},"longitude":"-1.781442"},"context":"","outcome_status":null,"persistent_id":"","id":127052872,"location_subtype":"","month":"2025-03"},{"category":"anti-social-behaviour","location_type":"Force","location":{"latitude":"52.516431","street":{"id":1644602,"name":"On or near Drem Croft"},"longitude":"-1.791777"},"context":"","outcome_status":null,"persistent_id":"","id":127052216,"location_subtype":"","month":"2025-03"},{"category":"anti-social-behaviour","location_type":"Force","location":{"latitude":"52.516431","street":{"id":1644602,"name":"On or near Drem Croft"},"longitude":"-1.791777"},"context":"","outcome_status":null,"persistent_id":"","id":127052077,"location_subtype":"","month":"2025-03"},{"category":"anti-social-behaviour","location_type":"Force","location":{"latitude":"52.521203","street":{"id":1644423,"name":"On or near Lyneham Way"},"longitude":"-1.795483"},"context":"","outcome_status":null,"persistent_id":"","id":127051700,"location_subtype":"","month":"2025-03"},{"category":"anti-social-behaviour","location_type":"Force","location":{"latitude":"52.518689","street":{"id":1644887,"name":"On or near Rye Grass Walk"},"longitude":"-1.787168"},"context":"","outcome_status":null,"persistent_id":"","id":127051656,"location_subtype":"","month":"2025-03"},{"category":"anti-social-behaviour","location_type":"Force","location":{"latitude":"52.523200","street":{"id":1644022,"name":"On or near Julia Avenue"},"longitude":"-1.801487"},"context":"","outcome_status":null,"persistent_id":"","id":127051599,"location_subtype":"","month":"2025-03"},{"category":"anti-social-behaviour","location_type":"Force","location":{"latitude":"52.518689","street":{"id":1644887,"name":"On or near Rye Grass Walk"},"longitude":"-1.787168"},"context":"","outcome_status":null,"persistent_id":"","id":127051418,"location_subtype":"","month":"2025-03"},{"category":"anti-social-behaviour","location_type":"Force","location":{"latitude":"52.524977","street":{"id":1644783,"name":"On or near Manby Road"},"longitude":"-1.789305"},"context":"","outcome_status":null,"persistent_id":"","id":127051393,"location_subtype":"","month":"2025-03"},{"category":"anti-social-behaviour","location_type":"Force","location":{"latitude":"52.517217","street":{"id":1644829,"name":"On or near Oakington Drive"},"longitude":"-1.788457"},"context":"","outcome_status":null,"persistent_id":"","id":127050977,"location_subtype":"","month":"2025-03"},{"category":"burglary","location_type":"Force","location":{"latitude":"52.519396","street":{"id":1644089,"name":"On or near Kingsbury Road"},"longitude":"-1.800856"},"context":"","outcome_status":{"category":"Investigation complete; no suspect identified","date":"2025-04"},"persistent_id":"32a8c376e989c71a02b70217f5ae60221cde0fde2ecb964c07bc37fefbb4af1b","id":127050085,"location_subtype":"","month":"2025-03"},{"category":"burglary","location_type":"Force","location":{"latitude":"52.519888","street":{"id":1643632,"name":"On or near Oakmeadow Avenue"},"longitude":"-1.810654"},"context":"","outcome_status":{"category":"Investigation complete; no suspect identified","date":"2025-03"},"persistent_id":"b207218d38396de79da74fb730dfb27e93e5be91428d7d328e5b374df8f7b0bc","id":127040596,"location_subtype":"","month":"2025-03"},{"category":"criminal-damage-arson","location_type":"Force","location":{"latitude":"52.521203","street":{"id":1644423,"name":"On or near Lyneham Way"},"longitude":"-1.795483"},"context":"","outcome_status":{"category":"Unable to prosecute suspect","date":"2025-05"},"persistent_id":"651fa8c1f3abaeeb89fc6ec110efd4274ae28b79f15468aff34d35a3f8d32dc8","id":127039397,"location_subtype":"","month":"2025-03"},{"category":"criminal-damage-arson","location_type":"Force","location":{"latitude":"52.509563","street":{"id":1644614,"name":"On or near Tameside Drive"},"longitude":"-1.791809"},"context":"","outcome_status":{"category":"Investigation complete; no suspect identified","date":"2025-03"},"persistent_id":"fe629f94d6d527840d1e549f6a09bd850e05cbc9ffb3255f1f08b9bf779ac0fb","id":127048098,"location_subtype":"","month":"2025-03"},{"category":"criminal-damage-arson","location_type":"Force","location":{"latitude":"52.517217","street":{"id":1644829,"name":"On or near Oakington Drive"},"longitude":"-1.788457"},"context":"","outcome_status":{"category":"Unable to prosecute suspect","date":"2025-03"},"persistent_id":"5b000297f4ea30a25c82d7560015b6b3972298fa6d19e06044bdaef73909f997","id":127046118,"location_subtype":"","month":"2025-03"},{"category":"criminal-damage-arson","location_type":"Force","location":{"latitude":"52.516526","street":{"id":1644442,"name":"On or near Longcroft Close"},"longitude":"-1.794665"},"context":"","outcome_status":{"category":"Local resolution","date":"2025-07"},"persistent_id":"d65769efa7396d6a374e9da563ef7982265cb45e7912d8d2e1f209114c416459","id":127029065,"location_subtype":"","month":"2025-03"},{"category":"criminal-damage-arson","location_type":"Force","location":{"latitude":"52.530757","street":{"id":1644217,"name":"On or near Westlands Road"},"longitude":"-1.799920"},"context":"","outcome_status":{"category":"Investigation complete; no suspect identified","date":"2025-03"},"persistent_id":"96b9ce46542af9f0ebbd39618c1de52099eddd66d5f8b88c34b543d29dc2a9a9","id":127043268,"location_subtype":"","month":"2025-03"},{"category":"criminal-damage-arson","location_type":"Force","location":{"latitude":"52.518541","street":{"id":1644985,"name":"On or near St Athan Croft"},"longitude":"-1.784841"},"context":"","outcome_status":{"category":"Status update unavailable","date":"2025-07"},"persistent_id":"fe773d4cf2b0575747a8cd286370c74382e087972a34feb75dd77927bf54ab03","id":127027130,"location_subtype":"","month":"2025-03"},{"category":"criminal-damage-arson","location_type":"Force","location":{"latitude":"52.506728","street":{"id":1644724,"name":"On or near Rectory Lane"},"longitude":"-1.789790"},"context":"","outcome_status":{"category":"Unable to prosecute suspect","date":"2025-03"},"persistent_id":"850910cbcce130db11087d24b7c4017afb4549e3d845801fe8717daf948f4ba4","id":127034135,"location_subtype":"","month":"2025-03"},{"category":"criminal-damage-arson","location_type":"Force","location":{"latitude":"52.525424","street":{"id":1645035,"name":"On or near Hedley Croft"},"longitude":"-1.783318"},"context":"","outcome_status":{"category":"Investigation complete; no suspect identified","date":"2025-03"},"persistent_id":"063b28a7168ec7f3451f587f81e700a026aaae7be5cd80c1b3cd87aa163e9583","id":127032058,"location_subtype":"","month":"2025-03"},{"category":"criminal-damage-arson","location_type":"Force","location":{"latitude":"52.506304","street":{"id":1644158,"name":"On or near Edstone Mews"},"longitude":"-1.799589"},"context":"","outcome_status":{"category":"Investigation complete; no suspect identified","date":"2025-03"},"persistent_id":"3610b0a681e341a909da03a8e9454a7c16490051a41e574ce4c4250cc8de6eb9","id":127025683,"location_subtype":"","month":"2025-03"},{"category":"criminal-damage-arson","location_type":"Force","location":{"latitude":"52.520442","street":{"id":1644852,"name":"On or near Mere Avenue"},"longitude":"-1.787263"},"context":"","outcome_status":{"category":"Investigation complete; no suspect identified","date":"2025-04"},"persistent_id":"f3f58777a656ee6cfdb409b289bc4d3e45ce994d6fdcc27064ba17317e7452a4","id":127026757,"location_subtype":"","month":"2025-03"},{"category":"criminal-damage-arson","location_type":"Force","location":{"latitude":"52.532268","street":{"id":1644740,"name":"On or near Marfield Close"},"longitude":"-1.789741"},"context":"","outcome_status":{"category":"Investigation complete; no suspect identified","date":"2025-04"},"persistent_id":"747159735db41ef21133f7dea49ee15d8b8c5fb9d5a4c8b01e3f9b2706646b31","id":127030115,"location_subtype":"","month":"2025-03"},{"category":"criminal-damage-arson","location_type":"Force","location":{"latitude":"52.520991","street":{"id":1644891,"name":"On or near Shawberry Avenue"},"longitude":"-1.787629"},"context":"","outcome_status":{"category":"Unable to prosecute suspect","date":"2025-03"},"persistent_id":"ff8ca823c9747a88f0e2f852299ed70b5450d4336aae98d3ae3fccdff546f9cb","id":127028526,"location_subtype":"","month":"2025-03"},{"category":"criminal-damage-arson","location_type":"Force","location":{"latitude":"52.523835","street":{"id":1645248,"name":"On or near St Mawgen Close"},"longitude":"-1.779376"},"context":"","outcome_status":{"category":"Investigation complete; no suspect identified","date":"2025-04"},"persistent_id":"8e95915d231bc810756716ea9990833c3e358ec46e1ac020ddf966a245452193","id":127049360,"location_subtype":"","month":"2025-03"},{"category":"drugs","location_type":"Force","location":{"latitude":"52.521031","street":{"id":1643648,"name":"On or near Eaton Wood"},"longitude":"-1.811563"},"context":"","outcome_status":{"category":"Court result unavailable","date":"2025-10"},"persistent_id":"2c6367e8aaa27112cdcaeac57012e98642253f348f9dd76de69b47de05943cfb","id":127048365,"location_subtype":"","month":"2025-03"},{"category":"drugs","location_type":"Force","location":{"latitude":"52.506728","street":{"id":1644724,"name":"On or near Rectory Lane"},"longitude":"-1.789790"},"context":"","outcome_status":{"category":"Local resolution","date":"2025-03"},"persistent_id":"520e1db23293471963cc8f2d2e0bc7afd7d8d0f66d22cc4f75179709aa14fc3f","id":127032753,"location_subtype":"","month":"2025-03"},{"category":"other-theft","location_type":"Force","location":{"latitude":"52.516910","street":{"id":1644560,"name":"On or near Bond Drive"},"longitude":"-1.792777"},"context":"","outcome_status":{"category":"Investigation complete; no suspect identified","date":"2025-03"},"persistent_id":"5678a41f926fcc6718183e230d9f4b90843b5d48b8a3d5c79b108203ca8e84ce","id":127028736,"location_subtype":"","month":"2025-03"},{"category":"other-theft","location_type":"Force","location":{"latitude":"52.521472","street":{"id":1644998,"name":"On or near Church Street"},"longitude":"-1.785254"},"context":"","outcome_status":{"category":"Unable to prosecute suspect","date":"2025-05"},"persistent_id":"d8d859c19396ca7757cccdfe42d39705f8ad6ad30a4a4ef53351386e268cca76","id":127029141,"location_subtype":"","month":"2025-03"},{"category":"other-theft","location_type":"Force","location":{"latitude":"52.529500","street":{"id":1644953,"name":"On or near Forge Lane"},"longitude":"-1.785097"},"context":"","outcome_status":{"category":"Unable to prosecute suspect","date":"2025-03"},"persistent_id":"f2efe60364a7c9b7c07a01037c093aab4cc4b39aac80f61b257548c7bdd9f9ce","id":127034295,"location_subtype":"","month":"2025-03"},{"category":"other-theft","location_type":"Force","location":{"latitude":"52.523436","street":{"id":1644827,"name":"On or near Filton Croft"},"longitude":"-1.787705"},"context":"","outcome_status":{"category":"Investigation complete; no suspect identified","date":"2025-03"},"persistent_id":"df4e2434df54f28326594777cf0b4e93a4a0396a1c064e45bc87929415fdab94","id":127046280,"location_subtype":"","month":"2025-03"},{"category":"other-theft","location_type":"Force","location":{"latitude":"52.518541","street":{"id":1644985,"name":"On or near St Athan Croft"},"longitude":"-1.784841"},"context":"","outcome_status":{"category":"Investigation complete; no suspect identified","date":"2025-03"},"persistent_id":"bfbf5e8d62d9d41ec0a5eecdfbd672a77d6973ac9e405766c34671763feeac51","id":127036437,"location_subtype":"","month":"2025-03"},{"category":"other-theft","location_type":"Force","location":{"latitude":"52.518689","street":{"id":1644887,"name":"On or near Rye Grass Walk"},"longitude":"-1.787168"},"context":"","outcome_status":{"category":"Investigation complete; no suspect identified","date":"2025-03"},"persistent_id":"b26fc0a08addf7bb2b3b4c4dd43d491f5b410ac437da56221d3bf44e782c2131","id":127026688,"location_subtype":"","month":"2025-03"},{"category":"possession-of-weapons","location_type":"Force","location":{"latitude":"52.515608","street":{"id":1644536,"name":"On or near Sopwith Croft"},"longitude":"-1.793579"},"context":"","outcome_status":{"category":"Unable to prosecute suspect","date":"2025-04"},"persistent_id":"c27be859b99f8b26b50a4e3e258143088ce9f1d4e0b760e6c5329baf86889248","id":127026134,"location_subtype":"","month":"2025-03"},{"category":"public-order","location_type":"Force","location":{"latitude":"52.515428","street":{"id":1644712,"name":"On or near Parking Area"},"longitude":"-1.788864"},"context":"","outcome_status":{"category":"Unable to prosecute suspect","date":"2025-04"},"persistent_id":"0aa0e01ff7534a8a301a9fd0676c3978415138f90623b090138dea995af2a586","id":127046210,"location_subtype":"","month":"2025-03"},{"category":"public-order","location_type":"Force","location":{"latitude":"52.518751","street":{"id":1645054,"name":"On or near Pixhall Walk"},"longitude":"-1.781951"},"context":"","outcome_status":{"category":"Unable to prosecute suspect","date":"2025-06"},"persistent_id":"32daf6393d9ec84991131f582010bc0752ae00c70882aa87eeb7dcc90a8b9f6d","id":127046673,"location_subtype":"","month":"2025-03"},{"category":"public-order","location_type":"Force","location":{"latitude":"52.508799","street":{"id":1645371,"name":"On or near Parking Area"},"longitude":"-1.777064"},"context":"","outcome_status":{"category":"Unable to prosecute suspect","date":"2025-03"},"persistent_id":"5b6040d09a2a3b8c24216e79087ba75af1ba8cd6711d786a384862b20d885d07","id":127040451,"location_subtype":"","month":"2025-03"},{"category":"public-order","location_type":"Force","location":{"latitude":"52.504561","street":{"id":1644772,"name":"On or near Hall Road"},"longitude":"-1.789432"},"context":"","outcome_status":{"category":"Unable to prosecute suspect","date":"2025-03"},"persistent_id":"e678fb49f0dcb2854b7f587fae6f6aba0b29f3623dd4159edab844cb787e96e8","id":127045268,"location_subtype":"","month":"2025-03"},{"category":"robbery","location_type":"Force","location":{"latitude":"52.520442","street":{"id":1644852,"name":"On or near Mere Avenue"},"longitude":"-1.787263"},"context":"","outcome_status":{"category":"Unable to prosecute suspect","date":"2025-04"},"persistent_id":"2800dda7d840d44d9a7d4c8ecc0806076af44dbc73dec5bb5f643ef5c2445130","id":127047174,"location_subtype":"","month":"2025-03"},{"category":"shoplifting","location_type":"Force","location":{"latitude":"52.531370","street":{"id":1645121,"name":"On or near Walmley Ash Road"},"longitude":"-1.780090"},"context":"","outcome_status":{"category":"Status update unavailable","date":"2025-07"},"persistent_id":"27292aad3c3498e09e3d7fb64cdcef0dc582f0f9f1a36fc910409bf9f09cc586","id":127035526,"location_subtype":"","month":"2025-03"},{"category":"shoplifting","location_type":"Force","location":{"latitude":"52.519396","street":{"id":1644089,"name":"On or near Kingsbury Road"},"longitude":"-1.800856"},"context":"","outcome_status":{"category":"Investigation complete; no suspect identified","date":"2025-04"},"persistent_id":"dcb95ad1680ec1743bfa0970a5fc7b0657ec0e241464ea6578acb8aae1456112","id":127039553,"location_subtype":"","month":"2025-03"},{"category":"shoplifting","location_type":"Force","location":{"latitude":"52.531370","street":{"id":1645121,"name":"On or near Walmley Ash Road"},"longitude":"-1.780090"},"context":"","outcome_status":{"category":"Status update unavailable","date":"2025-07"},"persistent_id":"80d0fc4451d6cb5ae8f4cc099637017c3369abb1517960af7de970e37527e07e","id":127032581,"location_subtype":"","month":"2025-03"},{"category":"shoplifting","location_type":"Force","location":{"latitude":"52.519396","street":{"id":1644089,"name":"On or near Kingsbury Road"},"longitude":"-1.800856"},"context":"","outcome_status":{"category":"Unable to prosecute suspect","date":"2025-04"},"persistent_id":"e448d0110ed48b1ac2be85ec6ea9fccf4ce2f71124b36221c619da370c613230","id":127042256,"location_subtype":"","month":"2025-03"},{"category":"shoplifting","location_type":"Force","location":{"latitude":"52.519396","street":{"id":1644089,"name":"On or near Kingsbury Road"},"longitude":"-1.800856"},"context":"","outcome_status":{"category":"Unable to prosecute suspect","date":"2025-05"},"persistent_id":"c2421fca3b9de0732dad27f3643f5657104e8e78c0cc32a8970b56caf854b664","id":127042884,"location_subtype":"","month":"2025-03"},{"category":"shoplifting","location_type":"Force","location":{"latitude":"52.518477","street":{"id":1643904,"name":"On or near Petrol Station"},"longitude":"-1.805104"},"context":"","outcome_status":{"category":"Investigation complete; no suspect identified","date":"2025-03"},"persistent_id":"63e751c5b499b519d98ba50e9bc5f6ab37848e35c6a1967f2aa3ed7accaaa240","id":127040128,"location_subtype":"","month":"2025-03"},{"category":"shoplifting","location_type":"Force","location":{"latitude":"52.518477","street":{"id":1643904,"name":"On or near Petrol Station"},"longitude":"-1.805104"},"context":"","outcome_status":{"category":"Investigation complete; no suspect identified","date":"2025-03"},"persistent_id":"9b06f182da76d842012cd84f0fda0444e8bd2695c00f076aabcaab7ef2d0db1a","id":127037971,"location_subtype":"","month":"2025-03"},{"category":"shoplifting","location_type":"Force","location":{"latitude":"52.531370","street":{"id":1645121,"name":"On or near Walmley Ash Road"},"longitude":"-1.780090"},"context":"","outcome_status":{"category":"Court result unavailable","date":"2025-09"},"persistent_id":"cc325a61cd75e281a7d434e6f8eae3a972041d1682df6d154bf35dfdcecb3d21","id":127035381,"location_subtype":"","month":"2025-03"},{"category":"shoplifting","location_type":"Force","location":{"latitude":"52.518303","street":{"id":1644258,"name":"On or near Lanark Croft"},"longitude":"-1.797707"},"context":"","outcome_status":{"category":"Unable to prosecute suspect","date":"2025-03"},"persistent_id":"403be531dcfcf2b72788fa75efc0af88e58fb9a2a0e5e57115a782d67ba22beb","id":127033550,"location_subtype":"","month":"2025-03"},{"category":"shoplifting","location_type":"Force","location":{"latitude":"52.531370","street":{"id":1645121,"name":"On or near Walmley Ash Road"},"longitude":"-1.780090"},"context":"","outcome_status":{"category":"Court result unavailable","date":"2025-09"},"persistent_id":"111ade59073b0558b5a22496b714eb2d30ba4645dc2c77d1eb6ccfe8e8c15c38","id":127035415,"location_subtype":"","month":"2025-03"},{"category":"shoplifting","location_type":"Force","location":{"latitude":"52.522221","street":{"id":1644002,"name":"On or near Humberstone Road"},"longitude":"-1.802567"},"context":"","outcome_status":{"category":"Investigation complete; no suspect identified","date":"2025-03"},"persistent_id":"99a34c4f980cfff5fe649d4068e08593ca028cbaaefa5ebed3a3799ca34306ce","id":127030487,"location_subtype":"","month":"2025-03"},{"category":"shoplifting","location_type":"Force","location":{"latitude":"52.531370","street":{"id":1645121,"name":"On or near Walmley Ash Road"},"longitude":"-1.780090"},"context":"","outcome_status":{"category":"Local resolution","date":"2025-03"},"persistent_id":"3d2e30062409dd3b6ac63fde8e619b053cba1e563237af7789630c253d6abbde","id":127026573,"location_subtype":"","month":"2025-03"},{"category":"shoplifting","location_type":"Force","location":{"latitude":"52.512467","street":{"id":1643958,"name":"On or near Dunlop Way"},"longitude":"-1.802257"},"context":"","outcome_status":{"category":"Unable to prosecute suspect","date":"2025-06"},"persistent_id":"0fe69b4afd606efa7155239b1c29e194c817307e55956142d0c52bc955b24a92","id":127036471,"location_subtype":"","month":"2025-03"},{"category":"shoplifting","location_type":"Force","location":{"latitude":"52.519396","street":{"id":1644089,"name":"On or near Kingsbury Road"},"longitude":"-1.800856"},"context":"","outcome_status":{"category":"Unable to prosecute suspect","date":"2025-05"},"persistent_id":"46f3f623cfaef041ec98a0c59ae9a7b35e0ed6282de0f57fa5725f40a69e92ab","id":127047504,"location_subtype":"","month":"2025-03"},{"category":"shoplifting","location_type":"Force","location":{"latitude":"52.522221","street":{"id":1644002,"name":"On or near Humberstone Road"},"longitude":"-1.802567"},"context":"","outcome_status":{"category":"Investigation complete; no suspect identified","date":"2025-04"},"persistent_id":"56e4c2dfc5c6d182dddc2ad95ddbdbba983c26eea653aac9d14c9c144862b625","id":127048660,"location_subtype":"","month":"2025-03"},{"category":"shoplifting","location_type":"Force","location":{"latitude":"52.524482","street":{"id":1643637,"name":"On or near Sowerby March"},"longitude":"-1.810251"},"context":"","outcome_status":{"category":"Unable to prosecute suspect","date":"2025-04"},"persistent_id":"aea553ee74fac7e2b8b3b1e3eadd2097b50d64c3dc017f7aef2e17470a847080","id":127042242,"location_subtype":"","month":"2025-03"},{"category":"shoplifting","location_type":"Force","location":{"latitude":"52.531370","street":{"id":1645121,"name":"On or near Walmley Ash Road"},"longitude":"-1.780090"},"context":"","outcome_status":{"category":"Investigation complete; no suspect identified","date":"2025-04"},"persistent_id":"600ef8276cbfb5facba5c3f076200a68caa593121a868d50c59a8a32a1018179","id":127048462,"location_subtype":"","month":"2025-03"},{"category":"shoplifting","location_type":"Force","location":{"latitude":"52.512467","street":{"id":1643958,"name":"On or near Dunlop Way"},"longitude":"-1.802257"},"context":"","outcome_status":{"category":"Unable to prosecute suspect","date":"2025-04"},"persistent_id":"87ba36763d3a9fe8e9f44885df3aba2b4cd413480f64b1fb429163c6dc59c3e6","id":127046557,"location_subtype":"","month":"2025-03"},{"category":"shoplifting","location_type":"Force","location":{"latitude":"52.518303","street":{"id":1644258,"name":"On or near Lanark Croft"},"longitude":"-1.797707"},"context":"","outcome_status":{"category":"Unable to prosecute suspect","date":"2025-04"},"persistent_id":"df5a51858ed9a1f18f5ee0e2ee8a07e2b31e864314a3ac61899e20bf645c6b19","id":127026696,"location_subtype":"","month":"2025-03"},{"category":"shoplifting","location_type":"Force","location":{"latitude":"52.522221","street":{"id":1644002,"name":"On or near Humberstone Road"},"longitude":"-1.802567"},"context":"","outcome_status":{"category":"Investigation complete; no suspect identified","date":"2025-05"},"persistent_id":"ab58822b346d9868997c76b322ebc88905eb2c8896a7b0e7288b0a8205a8b364","id":127026630,"location_subtype":"","month":"2025-03"},{"category":"shoplifting","location_type":"Force","location":{"latitude":"52.518303","street":{"id":1644258,"name":"On or near Lanark Croft"},"longitude":"-1.797707"},"context":"","outcome_status":{"category":"Investigation complete; no suspect identified","date":"2025-03"},"persistent_id":"e16f1aad83b6f20593c3681e444b9bb001a04f4736c609c6b919db517b26695d","id":127045569,"location_subtype":"","month":"2025-03"},{"category":"vehicle-crime","location_type":"Force","location":{"latitude":"52.522610","street":{"id":1643711,"name":"On or near Jesmond Grove"},"longitude":"-1.809390"},"context":"","outcome_status":{"category":"Investigation complete; no suspect identified","date":"2025-06"},"persistent_id":"ba8523fe27e20c7639fafe7646b6057141149d860c1f43746289f2daec94dbde","id":127039920,"location_subtype":"","month":"2025-03"},{"category":"vehicle-crime","location_type":"Force","location":{"latitude":"52.523870","street":{"id":1644788,"name":"On or near Wattisham Square"},"longitude":"-1.789000"},"context":"","outcome_status":{"category":"Local resolution","date":"2025-06"},"persistent_id":"e1768d2571e0c58de4d82e8c0568e65c64f082f27a5cdab1a88cc2d0dfccf066","id":127039123,"location_subtype":"","month":"2025-03"},{"category":"vehicle-crime","location_type":"Force","location":{"latitude":"52.523000","street":{"id":1643649,"name":"On or near Marshbrook Road"},"longitude":"-1.811112"},"context":"","outcome_status":{"category":"Investigation complete; no suspect identified","date":"2025-03"},"persistent_id":"da0a585808d7ac1134e54a424047fa29e4d720dc0f5ff1c2c69eb9fa86bb0d78","id":127027143,"location_subtype":"","month":"2025-03"},{"category":"vehicle-crime","location_type":"Force","location":{"latitude":"52.517564","street":{"id":1643752,"name":"On or near Berwood Lane"},"longitude":"-1.807599"},"context":"","outcome_status":{"category":"Investigation complete; no suspect identified","date":"2025-03"},"persistent_id":"82ba09a1130d5b586c4bae06a728ea6eb9cf477442f581cf7736fef65dbf7a0d","id":127031790,"location_subtype":"","month":"2025-03"},{"category":"vehicle-crime","location_type":"Force","location":{"latitude":"52.532104","street":{"id":1645090,"name":"On or near Coleville Road"},"longitude":"-1.783625"},"context":"","outcome_status":{"category":"Investigation complete; no suspect identified","date":"2025-03"},"persistent_id":"f9b296f000707eaf8deb26a80ed04af35260944fa4e0e2d9a04b88340750d820","id":127025685,"location_subtype":"","month":"2025-03"},{"category":"vehicle-crime","location_type":"Force","location":{"latitude":"52.521553","street":{"id":1645079,"name":"On or near Police Station"},"longitude":"-1.783682"},"context":"","outcome_status":{"category":"Investigation complete; no suspect identified","date":"2025-03"},"persistent_id":"c08bac70ac1367a421fda948ac5f0b16123c793670e71977fde44229c79c00c0","id":127025903,"location_subtype":"","month":"2025-03"},{"category":"vehicle-crime","location_type":"Force","location":{"latitude":"52.526879","street":{"id":1644890,"name":"On or near First Avenue"},"longitude":"-1.787527"},"context":"","outcome_status":{"category":"Investigation complete; no suspect identified","date":"2025-03"},"persistent_id":"f1b7584db5f86edcc86c6ec8f2a4586b5135b6d2cef96cbda2e101967e4a512b","id":127028772,"location_subtype":"","month":"2025-03"},{"category":"vehicle-crime","location_type":"Force","location":{"latitude":"52.523936","street":{"id":1644104,"name":"On or near Elmfield Avenue"},"longitude":"-1.801277"},"context":"","outcome_status":{"category":"Investigation complete; no suspect identified","date":"2025-03"},"persistent_id":"eb12b7af7bdb6c10ebc80a864fc3dd54676f9eed09d1399f61de4ab0863cbf24","id":127035811,"location_subtype":"","month":"2025-03"},{"category":"vehicle-crime","location_type":"Force","location":{"latitude":"52.506728","street":{"id":1644724,"name":"On or near Rectory Lane"},"longitude":"-1.789790"},"context":"","outcome_status":{"category":"Investigation complete; no suspect identified","date":"2025-03"},"persistent_id":"ca59c31fd7a728933af65b9017fb07b507d681654a1361b0bc4149afc07f7877","id":127036316,"location_subtype":"","month":"2025-03"},{"category":"vehicle-crime","location_type":"Force","location":{"latitude":"52.524482","street":{"id":1643637,"name":"On or near Sowerby March"},"longitude":"-1.810251"},"context":"","outcome_status":{"category":"Investigation complete; no suspect identified","date":"2025-03"},"persistent_id":"d273b635de65d213a640d18e0311812f25a6bc80470949c7b7f2396b49865498","id":127038388,"location_subtype":"","month":"2025-03"},{"category":"vehicle-crime","location_type":"Force","location":{"latitude":"52.509893","street":{"id":1645561,"name":"On or near Harborough Drive"},"longitude":"-1.770561"},"context":"","outcome_status":{"category":"Investigation complete; no suspect identified","date":"2025-03"},"persistent_id":"9c7089dd2355b220822ed246c45ab15c989c5b7fcaa4f6e9ac8352da43d3e00d","id":127039233,"location_subtype":"","month":"2025-03"},{"category":"vehicle-crime","location_type":"Force","location":{"latitude":"52.508166","street":{"id":1644085,"name":"On or near Papyrus Way"},"longitude":"-1.800273"},"context":"","outcome_status":{"category":"Investigation complete; no suspect identified","date":"2025-03"},"persistent_id":"0f13d13c7419f5e60e125c1c0ac2ac6ef2d43a0c9bfe0c07671ef6e4e771d5c4","id":127039594,"location_subtype":"","month":"2025-03"},{"category":"vehicle-crime","location_type":"Force","location":{"latitude":"52.531370","street":{"id":1645121,"name":"On or near Walmley Ash Road"},"longitude":"-1.780090"},"context":"","outcome_status":{"category":"Investigation complete; no suspect identified","date":"2025-06"},"persistent_id":"b3311e8768a969bba006b698af97fe3f4f9f5e0f67c949b6b01d234a58ed28b8","id":127039712,"location_subtype":"","month":"2025-03"},{"category":"vehicle-crime","location_type":"Force","location":{"latitude":"52.512270","street":{"id":1645593,"name":"On or near Pikehorne Croft"},"longitude":"-1.768235"},"context":"","outcome_status":{"category":"Investigation complete; no suspect identified","date":"2025-03"},"persistent_id":"78faf2037211d3ea1d383836a743ea6a863d36f7f67e0002f3c37a2dcb5cb1d1","id":127039191,"location_subtype":"","month":"2025-03"},{"category":"vehicle-crime","location_type":"Force","location":{"latitude":"52.517564","street":{"id":1643752,"name":"On or near Berwood Lane"},"longitude":"-1.807599"},"context":"","outcome_status":{"category":"Investigation complete; no suspect identified","date":"2025-03"},"persistent_id":"8214bb6825bb9aea2134a588f738f0eaf2a24017ff2577d367a441c16491fb68","id":127048907,"location_subtype":"","month":"2025-03"},{"category":"vehicle-crime","location_type":"Force","location":{"latitude":"52.511594","street":{"id":1644248,"name":"On or near Castle Bromwich"},"longitude":"-1.796397"},"context":"","outcome_status":{"category":"Investigation complete; no suspect identified","date":"2025-03"},"persistent_id":"354b6617282279abfafa5a31b06c01f9c935414213bc930ad3a409f97237420b","id":127037969,"location_subtype":"","month":"2025-03"},{"category":"vehicle-crime","location_type":"Force","location":{"latitude":"52.518303","street":{"id":1644258,"name":"On or near Lanark Croft"},"longitude":"-1.797707"},"context":"","outcome_status":{"category":"Unable to prosecute suspect","date":"2025-04"},"persistent_id":"0447cfecfe8a599deee3df6a5af11eaf008d5c14a8ba2893b20b75b89fdc5c88","id":127048253,"location_subtype":"","month":"2025-03"},{"category":"vehicle-crime","location_type":"Force","location":{"latitude":"52.522610","street":{"id":1643711,"name":"On or near Jesmond Grove"},"longitude":"-1.809390"},"context":"","outcome_status":{"category":"Investigation complete; no suspect identified","date":"2025-03"},"persistent_id":"bd458951acad45f0d6ca10da7e467fbbe18da2bc6040f67410b1bb9d9a419751","id":127039941,"location_subtype":"","month":"2025-03"},{"category":"violent-crime","location_type":"Force","location":{"latitude":"52.516910","street":{"id":1644560,"name":"On or near Bond Drive"},"longitude":"-1.792777"},"context":"","outcome_status":{"category":"Unable to prosecute suspect","date":"2025-07"},"persistent_id":"f7a5fcaee8fe1c99f47f645f804f4027a070e492bbfec664735d8b2cebaea979","id":127046122,"location_subtype":"","month":"2025-03"},{"category":"violent-crime","location_type":"Force","location":{"latitude":"52.528815","street":{"id":1644220,"name":"On or near Pentridge Close"},"longitude":"-1.799678"},"context":"","outcome_status":{"category":"Status update unavailable","date":"2025-07"},"persistent_id":"86c4cc260fd94147d5cd56ec440da224ce8a7c323a112bfc7a3051dd88e4eda5","id":127033725,"location_subtype":"","month":"2025-03"},{"category":"violent-crime","location_type":"Force","location":{"latitude":"52.531370","street":{"id":1645121,"name":"On or near Walmley Ash Road"},"longitude":"-1.780090"},"context":"","outcome_status":{"category":"Court result unavailable","date":"2025-09"},"persistent_id":"91786c18ded9106e351f9241fb83ffe15684364f3d407fddf43ae55925435421","id":127035438,"location_subtype":"","month":"2025-03"},{"category":"violent-crime","location_type":"Force","location":{"latitude":"52.518751","street":{"id":1645054,"name":"On or near Pixhall Walk"},"longitude":"-1.781951"},"context":"","outcome_status":{"category":"Unable to prosecute suspect","date":"2025-05"},"persistent_id":"76c2da0a3baf7e86daacec0b6dfcc139c799d7a20db19ed8f3ada625c1ffb128","id":127040013,"location_subtype":"","month":"2025-03"},{"category":"violent-crime","location_type":"Force","location":{"latitude":"52.520442","street":{"id":1644852,"name":"On or near Mere Avenue"},"longitude":"-1.787263"},"context":"","outcome_status":{"category":"Court result unavailable","date":"2026-01"},"persistent_id":"4a3b3bbaf619dca67b5cd54d9b9516ac86e7dc209bfe99c3dd2f55fc6ff916cd","id":127044698,"location_subtype":"","month":"2025-03"},{"category":"violent-crime","location_type":"Force","location":{"latitude":"52.524023","street":{"id":1643821,"name":"On or near B4148"},"longitude":"-1.804859"},"context":"","outcome_status":{"category":"Unable to prosecute suspect","date":"2025-03"},"persistent_id":"bc6c8eb84fbbcafe0089d6c91ac5cd1c05e0899d4478699b919f7576e5fbafd9","id":127026988,"location_subtype":"","month":"2025-03"},{"category":"violent-crime","location_type":"Force","location":{"latitude":"52.518689","street":{"id":1644887,"name":"On or near Rye Grass Walk"},"longitude":"-1.787168"},"context":"","outcome_status":{"category":"Unable to prosecute suspect","date":"2025-03"},"persistent_id":"e0b116fc33e4cd2ea598c2edf30745e73ef84f4916b004322cab4000538ab954","id":127027426,"location_subtype":"","month":"2025-03"},{"category":"violent-crime","location_type":"Force","location":{"latitude":"52.514515","street":{"id":1644942,"name":"On or near Lancaster Drive"},"longitude":"-1.785818"},"context":"","outcome_status":{"category":"Unable to prosecute suspect","date":"2025-03"},"persistent_id":"9a46b13d5c2098c4a43baefbad62976e231be09a94f3f2d0b02af8e282784eb3","id":127027719,"location_subtype":"","month":"2025-03"},{"category":"violent-crime","location_type":"Force","location":{"latitude":"52.521641","street":{"id":1644758,"name":"On or near Montrose Drive"},"longitude":"-1.789040"},"context":"","outcome_status":{"category":"Unable to prosecute suspect","date":"2025-03"},"persistent_id":"23b8b973fd9c8421d12540758edd29cb93ed0bbd1c2d659c8595ee5d2cbde366","id":127030285,"location_subtype":"","month":"2025-03"},{"category":"violent-crime","location_type":"Force","location":{"latitude":"52.510019","street":{"id":1645535,"name":"On or near Bowshot Close"},"longitude":"-1.770899"},"context":"","outcome_status":{"category":"Status update unavailable","date":"2025-07"},"persistent_id":"d640a9e6c3535a9018c30e11ac10c3d6fdc46c1b3de1e44e9ed481a382dcbbc7","id":127050440,"location_subtype":"","month":"2025-03"},{"category":"violent-crime","location_type":"Force","location":{"latitude":"52.519396","street":{"id":1644089,"name":"On or near Kingsbury Road"},"longitude":"-1.800856"},"context":"","outcome_status":{"category":"Unable to prosecute suspect","date":"2025-08"},"persistent_id":"74218885e732ad0f79639b5b0aeb508b7328f04e226a3a506eee162779d11cb0","id":127044113,"location_subtype":"","month":"2025-03"},{"category":"violent-crime","location_type":"Force","location":{"latitude":"52.520060","street":{"id":1645242,"name":"On or near Rawlins Croft"},"longitude":"-1.780191"},"context":"","outcome_status":{"category":"Unable to prosecute suspect","date":"2025-03"},"persistent_id":"ba34fc58253827184e1ac18aed7ea0997642acd252b61555d5b78928e158dfc8","id":127033499,"location_subtype":"","month":"2025-03"},{"category":"violent-crime","location_type":"Force","location":{"latitude":"52.510357","street":{"id":1645487,"name":"On or near Parkfield Drive"},"longitude":"-1.773609"},"context":"","outcome_status":{"category":"Unable to prosecute suspect","date":"2025-03"},"persistent_id":"4bf2bdf02323c0238fe51ac134bfac2879b80205354ecf67d86e222bb239c9b4","id":127033806,"location_subtype":"","month":"2025-03"},{"category":"violent-crime","location_type":"Force","location":{"latitude":"52.520842","street":{"id":1645034,"name":"On or near St Cuthberts Place"},"longitude":"-1.784682"},"context":"","outcome_status":{"category":"Offender given a caution","date":"2025-03"},"persistent_id":"0e51034ac614a3435f6e6728d2c44d00fac6a3eea1dd09cf254610851407bc57","id":127036135,"location_subtype":"","month":"2025-03"},{"category":"violent-crime","location_type":"Force","location":{"latitude":"52.520842","street":{"id":1645034,"name":"On or near St Cuthberts Place"},"longitude":"-1.784682"},"context":"","outcome_status":{"category":"Offender given a caution","date":"2025-03"},"persistent_id":"3527c810d404d7cb810cf4b60f0b3d9b362eab51c832f7f72079bbf5b501d8f2","id":127036155,"location_subtype":"","month":"2025-03"},{"category":"violent-crime","location_type":"Force","location":{"latitude":"52.505129","street":{"id":1644954,"name":"On or near Wentworth Avenue"},"longitude":"-1.785436"},"context":"","outcome_status":{"category":"Offender given a caution","date":"2025-06"},"persistent_id":"71de31d9301d7c0eb6093fcdd08025d55ae68664385987206b26b860ccf30de2","id":127038600,"location_subtype":"","month":"2025-03"},{"category":"violent-crime","location_type":"Force","location":{"latitude":"52.519396","street":{"id":1644089,"name":"On or near Kingsbury Road"},"longitude":"-1.800856"},"context":"","outcome_status":{"category":"Court result unavailable","date":"2025-09"},"persistent_id":"c1471433d524f6b8563ea5298cb0231bece668595bb30622264f5ef383bc9abe","id":127036583,"location_subtype":"","month":"2025-03"},{"category":"violent-crime","location_type":"Force","location":{"latitude":"52.519783","street":{"id":1644930,"name":"On or near Locking Croft"},"longitude":"-1.785925"},"context":"","outcome_status":{"category":"Unable to prosecute suspect","date":"2025-11"},"persistent_id":"51e6b3e8b1d5114079a7e37d69c78df8b99c0048b66405589414391eb6d3716a","id":127026745,"location_subtype":"","month":"2025-03"},{"category":"violent-crime","location_type":"Force","location":{"latitude":"52.522871","street":{"id":1643938,"name":"On or near Ellerby Grove"},"longitude":"-1.804053"},"context":"","outcome_status":{"category":"Unable to prosecute suspect","date":"2025-09"},"persistent_id":"81f9ac2db36bbd4362dc7877e1ec0d9c4229b2b921674dc4c5419ffd17f799c9","id":127028467,"location_subtype":"","month":"2025-03"},{"category":"violent-crime","location_type":"Force","location":{"latitude":"52.519219","street":{"id":1644645,"name":"On or near Abingdon Way"},"longitude":"-1.792147"},"context":"","outcome_status":{"category":"Unable to prosecute suspect","date":"2025-03"},"persistent_id":"58386c942c51f68f540012f5372302253fca3243557f01d7392f77962a2709fd","id":127038766,"location_subtype":"","month":"2025-03"},{"category":"violent-crime","location_type":"Force","location":{"latitude":"52.506728","street":{"id":1644724,"name":"On or near Rectory Lane"},"longitude":"-1.789790"},"context":"","outcome_status":{"category":"Unable to prosecute suspect","date":"2025-05"},"persistent_id":"b7b13268894cacebd780f7d442abd8c31ae080e4aaac90ac5cb1f1d6fe56f207","id":127042134,"location_subtype":"","month":"2025-03"},{"category":"violent-crime","location_type":"Force","location":{"latitude":"52.523674","street":{"id":1644437,"name":"On or near Bore Road"},"longitude":"-1.795118"},"context":"","outcome_status":{"category":"Investigation complete; no suspect identified","date":"2025-04"},"persistent_id":"1abf05f61d5d9a5b5b26b016786fac756fdbf14a6efa513a8baa5cb777869e11","id":127031920,"location_subtype":"","month":"2025-03"},{"category":"violent-crime","location_type":"Force","location":{"latitude":"52.522610","street":{"id":1643711,"name":"On or near Jesmond Grove"},"longitude":"-1.809390"},"context":"","outcome_status":{"category":"Unable to prosecute suspect","date":"2025-03"},"persistent_id":"ddc649c7c5a7085fb37e4aeefb6b6e7d4a664cda085f31491037351f460d63c0","id":127040575,"location_subtype":"","month":"2025-03"},{"category":"violent-crime","location_type":"Force","location":{"latitude":"52.514318","street":{"id":1644347,"name":"On or near Concorde Drive"},"longitude":"-1.796679"},"context":"","outcome_status":{"category":"Unable to prosecute suspect","date":"2025-04"},"persistent_id":"7bea1909b0965b735ce82e44a0436ca385c82d1892cd9d39b5df6e0d3c430fd1","id":127035805,"location_subtype":"","month":"2025-03"},{"category":"violent-crime","location_type":"Force","location":{"latitude":"52.519783","street":{"id":1644930,"name":"On or near Locking Croft"},"longitude":"-1.785925"},"context":"","outcome_status":{"category":"Offender given a caution","date":"2025-03"},"persistent_id":"2cee521e84496e0c163b66832e83fb58a5fe2d6029e76aec8e7e47be57f9af18","id":127041504,"location_subtype":"","month":"2025-03"},{"category":"violent-crime","location_type":"Force","location":{"latitude":"52.521472","street":{"id":1644998,"name":"On or near Church Street"},"longitude":"-1.785254"},"context":"","outcome_status":{"category":"Unable to prosecute suspect","date":"2025-03"},"persistent_id":"9a88d9d91739daf0cf8f2a86816c45966232adc477a4b67dd28c903261280c98","id":127042539,"location_subtype":"","month":"2025-03"},{"category":"violent-crime","location_type":"Force","location":{"latitude":"52.523674","street":{"id":1644437,"name":"On or near Bore Road"},"longitude":"-1.795118"},"context":"","outcome_status":{"category":"Unable to prosecute suspect","date":"2025-07"},"persistent_id":"cfbcaa7b59c5167bc2206d6a6ecfeda1dc56245297bfeb7c089fae4a0d077c31","id":127031859,"location_subtype":"","month":"2025-03"},{"category":"violent-crime","location_type":"Force","location":{"latitude":"52.518751","street":{"id":1645054,"name":"On or near Pixhall Walk"},"longitude":"-1.781951"},"context":"","outcome_status":{"category":"Unable to prosecute suspect","date":"2025-03"},"persistent_id":"d88822873eb3d9a4d66df7d44c83f0ce1dd56ad525ed00f50893681c5375a01c","id":127043477,"location_subtype":"","month":"2025-03"},{"category":"violent-crime","location_type":"Force","location":{"latitude":"52.513620","street":{"id":1644859,"name":"On or near Spitfire Way"},"longitude":"-1.787767"},"context":"","outcome_status":{"category":"Unable to prosecute suspect","date":"2025-03"},"persistent_id":"ead38c5c8e0263425d83bbbaa43ecf6ad86f450046aec673df73c9ac60468f69","id":127045206,"location_subtype":"","month":"2025-03"},{"category":"violent-crime","location_type":"Force","location":{"latitude":"52.517868","street":{"id":1644673,"name":"On or near Chigwell Close"},"longitude":"-1.790901"},"context":"","outcome_status":{"category":"Unable to prosecute suspect","date":"2025-03"},"persistent_id":"8a00224765b93a431560744fac5ef8ace2491fae62b230ff3b8d98c42f2e4891","id":127045525,"location_subtype":"","month":"2025-03"},{"category":"violent-crime","location_type":"Force","location":{"latitude":"52.522221","street":{"id":1644002,"name":"On or near Humberstone Road"},"longitude":"-1.802567"},"context":"","outcome_status":{"category":"Investigation complete; no suspect identified","date":"2025-04"},"persistent_id":"c46fe25b44f2baf9403d08d992189ecbffe82a3d00a47b7d653fbcc5dd3c0108","id":127043846,"location_subtype":"","month":"2025-03"},{"category":"violent-crime","location_type":"Force","location":{"latitude":"52.518916","street":{"id":1644806,"name":"On or near Long Close Walk"},"longitude":"-1.788435"},"context":"","outcome_status":{"category":"Status update unavailable","date":"2025-07"},"persistent_id":"a60f84a3501a148e0392e88791303f8bde1761adc1fa978c0d2bba974bb5b06e","id":127043977,"location_subtype":"","month":"2025-03"},{"category":"violent-crime","location_type":"Force","location":{"latitude":"52.512707","street":{"id":1644409,"name":"On or near Kenrick Croft"},"longitude":"-1.795139"},"context":"","outcome_status":{"category":"Unable to prosecute suspect","date":"2025-03"},"persistent_id":"c15247f1a39827240e3a4a0f606dd5eef3e0c80cd19e168e33c08ca4bdcf9efe","id":127047998,"location_subtype":"","month":"2025-03"},{"category":"violent-crime","location_type":"Force","location":{"latitude":"52.522871","street":{"id":1643938,"name":"On or near Ellerby Grove"},"longitude":"-1.804053"},"context":"","outcome_status":{"category":"Unable to prosecute suspect","date":"2025-04"},"persistent_id":"a2467c2b03be7050d52536fdaa68bd0d9d369f84bc9293af7408d6c4eb4ab7ed","id":127028488,"location_subtype":"","month":"2025-03"},{"category":"violent-crime","location_type":"Force","location":{"latitude":"52.518751","street":{"id":1645054,"name":"On or near Pixhall Walk"},"longitude":"-1.781951"},"context":"","outcome_status":{"category":"Unable to prosecute suspect","date":"2025-04"},"persistent_id":"cf1386c1f05720b0abdd7d6dc7cd35b49cfe69854bd6a8845e9ab2568d4e3396","id":127039703,"location_subtype":"","month":"2025-03"},{"category":"violent-crime","location_type":"Force","location":{"latitude":"52.517392","street":{"id":1644927,"name":"On or near Padgate Close"},"longitude":"-1.785966"},"context":"","outcome_status":{"category":"Unable to prosecute suspect","date":"2025-04"},"persistent_id":"8b6bb5166483baee2322172990f5e7e2efb624d05e36aa518a1eb22b65fed968","id":127045359,"location_subtype":"","month":"2025-03"},{"category":"violent-crime","location_type":"Force","location":{"latitude":"52.532104","street":{"id":1645090,"name":"On or near Coleville Road"},"longitude":"-1.783625"},"context":"","outcome_status":{"category":"Court result unavailable","date":"2025-09"},"persistent_id":"d7a8c204264597816228119c49258cf60216ddfc638ab5e3286d7ad0cfeee0dd","id":127035394,"location_subtype":"","month":"2025-03"},{"category":"violent-crime","location_type":"Force","location":{"latitude":"52.519396","street":{"id":1644089,"name":"On or near Kingsbury Road"},"longitude":"-1.800856"},"context":"","outcome_status":{"category":"Unable to prosecute suspect","date":"2025-07"},"persistent_id":"3d26214f071bd576a699b9e249631916b246b56c1ecc9d99c08cce235c7965c3","id":127045047,"location_subtype":"","month":"2025-03"},{"category":"violent-crime","location_type":"Force","location":{"latitude":"52.518303","street":{"id":1644258,"name":"On or near Lanark Croft"},"longitude":"-1.797707"},"context":"","outcome_status":{"category":"Unable to prosecute suspect","date":"2025-03"},"persistent_id":"d3414142127fa8760ea5c0b00939d168a756a7310cb9598da2fa9b9a06875aa6","id":127036011,"location_subtype":"","month":"2025-03"},{"category":"violent-crime","location_type":"Force","location":{"latitude":"52.521177","street":{"id":1645179,"name":"On or near Valencia Croft"},"longitude":"-1.781394"},"context":"","outcome_status":{"category":"Investigation complete; no suspect identified","date":"2025-06"},"persistent_id":"9d4bc6eec67ef4065676d884c5ee8190faf265c5f1e069a62ac5a8ecc2024062","id":127044781,"location_subtype":"","month":"2025-03"},{"category":"violent-crime","location_type":"Force","location":{"latitude":"52.521203","street":{"id":1644423,"name":"On or near Lyneham Way"},"longitude":"-1.795483"},"context":"","outcome_status":{"category":"Awaiting court outcome","date":"2025-09"},"persistent_id":"eb054dc2d027fb9a26ad524195f93ca71ecb6c3e6bb3554d45e6e944ef34ce76","id":127044777,"location_subtype":"","month":"2025-03"},{"category":"violent-crime","location_type":"Force","location":{"latitude":"52.524023","street":{"id":1643821,"name":"On or near B4148"},"longitude":"-1.804859"},"context":"","outcome_status":{"category":"Unable to prosecute suspect","date":"2025-03"},"persistent_id":"9ad332696c9b85113db4438628734aa4affb24e175ad3791c612c57bc0a49cd9","id":127026986,"location_subtype":"","month":"2025-03"},{"category":"violent-crime","location_type":"Force","location":{"latitude":"52.512707","street":{"id":1644409,"name":"On or near Kenrick Croft"},"longitude":"-1.795139"},"context":"","outcome_status":{"category":"Unable to prosecute suspect","date":"2025-08"},"persistent_id":"675fbdbd13f1c860117cc9384e0df9f9562e5617d16188e56c39faa23489a7ae","id":127048500,"location_subtype":"","month":"2025-03"},{"category":"violent-crime","location_type":"Force","location":{"latitude":"52.518658","street":{"id":1644671,"name":"On or near Merlin Close"},"longitude":"-1.789924"},"context":"","outcome_status":{"category":"Unable to prosecute suspect","date":"2025-04"},"persistent_id":"d6546b299ea27ff7f237f39c0dd69eed793957da7a9fc7166693df8a8618238d","id":127045700,"location_subtype":"","month":"2025-03"},{"category":"violent-crime","location_type":"Force","location":{"latitude":"52.515102","street":{"id":1644318,"name":"On or near Bader Walk"},"longitude":"-1.797619"},"context":"","outcome_status":{"category":"Unable to prosecute suspect","date":"2025-04"},"persistent_id":"67743176e5ca246914fe8b369168af2fbd3dc131bddd57aa6237743747daafd5","id":127045137,"location_subtype":"","month":"2025-03"},{"category":"violent-crime","location_type":"Force","location":{"latitude":"52.519379","street":{"id":1644418,"name":"On or near Whittle Croft"},"longitude":"-1.796184"},"context":"","outcome_status":{"category":"Unable to prosecute suspect","date":"2025-03"},"persistent_id":"f65258a20dfb831b3bf14256a75936df32383e89b66b05f34709e2d7fc89fa58","id":127034831,"location_subtype":"","month":"2025-03"},{"category":"violent-crime","location_type":"Force","location":{"latitude":"52.522096","street":{"id":1644585,"name":"On or near Donibristle Croft"},"longitude":"-1.792443"},"context":"","outcome_status":{"category":"Unable to prosecute suspect","date":"2025-04"},"persistent_id":"747220547e50995435ebcd8c952deef399ffcff0f996937a125906c3d4e737f6","id":127033960,"location_subtype":"","month":"2025-03"},{"category":"other-crime","location_type":"Force","location":{"latitude":"52.518087","street":{"id":1644587,"name":"On or near Tangmere Drive"},"longitude":"-1.792565"},"context":"","outcome_status":{"category":"Unable to prosecute suspect","date":"2025-05"},"persistent_id":"7c2d7ab67cca99582c46a2c8213ae3bfe7587e353651c635cd064b854729d2dd","id":127042255,"location_subtype":"","month":"2025-03"},{"category":"other-crime","location_type":"Force","location":{"latitude":"52.518661","street":{"id":1644644,"name":"On or near Cosford Crescent"},"longitude":"-1.791737"},"context":"","outcome_status":{"category":"Unable to prosecute suspect","date":"2025-03"},"persistent_id":"dfed560fd3ce30cf121eb35786e983278d522d38582aec2527f841489faba8c8","id":127025901,"location_subtype":"","month":"2025-03"},{"category":"other-crime","location_type":"Force","location":{"latitude":"52.512467","street":{"id":1643958,"name":"On or near Dunlop Way"},"longitude":"-1.802257"},"context":"","outcome_status":{"category":"Court result unavailable","date":"2025-09"},"persistent_id":"b95c4c58850976dd8c5b36577f97fff2ef6532a7a439d5406d4b9fcd13971a12","id":127029011,"location_subtype":"","month":"2025-03"},{"category":"other-crime","location_type":"Force","location":{"latitude":"52.512467","street":{"id":1643958,"name":"On or near Dunlop Way"},"longitude":"-1.802257"},"context":"","outcome_status":{"category":"Court result unavailable","date":"2025-09"},"persistent_id":"92f5862f220a2c7e5e8a44eb0bcd9c2c55583890616fd03db220fd285e61752d","id":127029034,"location_subtype":"","month":"2025-03"},{"category":"other-crime","location_type":"Force","location":{"latitude":"52.518477","street":{"id":1643904,"name":"On or near Petrol Station"},"longitude":"-1.805104"},"context":"","outcome_status":{"category":"Unable to prosecute suspect","date":"2025-11"},"persistent_id":"13094d90a08a0e553dfe1834793c139ef77ad27a82efcf368a17b9a7fd105b36","id":127027344,"location_subtype":"","month":"2025-03"},{"category":"other-crime","location_type":"Force","location":{"latitude":"52.518658","street":{"id":1644671,"name":"On or near Merlin Close"},"longitude":"-1.789924"},"context":"","outcome_status":{"category":"Unable to prosecute suspect","date":"2025-04"},"persistent_id":"6eed2c8225f2c6dab3258a93208247ddaca994eaea154c80bb0d768d90f797ef","id":127034433,"location_subtype":"","month":"2025-03"},{"category":"other-crime","location_type":"Force","location":{"latitude":"52.511594","street":{"id":1644248,"name":"On or near Castle Bromwich"},"longitude":"-1.796397"},"context":"","outcome_status":{"category":"Action to be taken by another organisation","date":"2025-03"},"persistent_id":"8b2da9d9f0c7d14748103b898019e75e4ff6f88b9066fa60d83be92a5e9c1756","id":127037278,"location_subtype":"","month":"2025-03"},{"category":"other-crime","location_type":"Force","location":{"latitude":"52.512467","street":{"id":1643958,"name":"On or near Dunlop Way"},"longitude":"-1.802257"},"context":"","outcome_status":{"category":"Court result unavailable","date":"2025-09"},"persistent_id":"aabe3d8f90ae29291fe4693feea812cbcdb60ef67712b8220c81bccd00a72cc2","id":127028824,"location_subtype":"","month":"2025-03"},{"category":"other-crime","location_type":"Force","location":{"latitude":"52.523383","street":{"id":1644209,"name":"On or near Edgemond Avenue"},"longitude":"-1.798494"},"context":"","outcome_status":{"category":"Action to be taken by another organisation","date":"2025-03"},"persistent_id":"5d1daafb850b38ec2f604f76c1cf9da378a6ca37aaaeab9d5b55ab8e7d53d89e","id":127030543,"location_subtype":"","month":"2025-03"},{"category":"other-crime","location_type":"Force","location":{"latitude":"52.521868","street":{"id":1645199,"name":"On or near Morar Close"},"longitude":"-1.780359"},"context":"","outcome_status":{"category":"Unable to prosecute suspect","date":"2025-06"},"persistent_id":"759a6e046eff3d58a0f400eaa5e8a5071a52af6c8983ef64704eb0689d1b0786","id":127041521,"location_subtype":"","month":"2025-03"}]