[{"category":"anti-social-behaviour","location_type":"Force","location":{"latitude":"52.561525","street":{"id":1642810,"name":"On or near Shopping Area"},"longitude":"-1.825226"},"context":"","outcome_status":null,"persistent_id":"","id":129206015,"location_subtype":"","month":"2025-06"},{"category":"anti-social-behaviour","location_type":"Force","location":{"latitude":"52.544326","street":{"id":1641178,"name":"On or near Butlers Close"},"longitude":"-1.857853"},"context":"","outcome_status":null,"persistent_id":"","id":129204432,"location_subtype":"","month":"2025-06"},{"category":"anti-social-behaviour","location_type":"Force","location":{"latitude":"52.561525","street":{"id":1642810,"name":"On or near Shopping Area"},"longitude":"-1.825226"},"context":"","outcome_status":null,"persistent_id":"","id":129205507,"location_subtype":"","month":"2025-06"},{"category":"anti-social-behaviour","location_type":"Force","location":{"latitude":"52.562155","street":{"id":1642728,"name":"On or near Shopping Area"},"longitude":"-1.825681"},"context":"","outcome_status":null,"persistent_id":"","id":129203906,"location_subtype":"","month":"2025-06"},{"category":"anti-social-behaviour","location_type":"Force","location":{"latitude":"52.550479","street":{"id":1642370,"name":"On or near Mayfield Road"},"longitude":"-1.833204"},"context":"","outcome_status":null,"persistent_id":"","id":129203948,"location_subtype":"","month":"2025-06"},{"category":"anti-social-behaviour","location_type":"Force","location":{"latitude":"52.552241","street":{"id":1641008,"name":"On or near Warwick Road"},"longitude":"-1.861367"},"context":"","outcome_status":null,"persistent_id":"","id":129205169,"location_subtype":"","month":"2025-06"},{"category":"anti-social-behaviour","location_type":"Force","location":{"latitude":"52.562171","street":{"id":1642475,"name":"On or near Clifton Road"},"longitude":"-1.830874"},"context":"","outcome_status":null,"persistent_id":"","id":129204078,"location_subtype":"","month":"2025-06"},{"category":"anti-social-behaviour","location_type":"Force","location":{"latitude":"52.559923","street":{"id":1642932,"name":"On or near Farthing Pools Close"},"longitude":"-1.823935"},"context":"","outcome_status":null,"persistent_id":"","id":129206128,"location_subtype":"","month":"2025-06"},{"category":"anti-social-behaviour","location_type":"Force","location":{"latitude":"52.550357","street":{"id":1641862,"name":"On or near Jockey Road"},"longitude":"-1.842393"},"context":"","outcome_status":null,"persistent_id":"","id":129204500,"location_subtype":"","month":"2025-06"},{"category":"anti-social-behaviour","location_type":"Force","location":{"latitude":"52.561525","street":{"id":1642810,"name":"On or near Shopping Area"},"longitude":"-1.825226"},"context":"","outcome_status":null,"persistent_id":"","id":129205422,"location_subtype":"","month":"2025-06"},{"category":"anti-social-behaviour","location_type":"Force","location":{"latitude":"52.553313","street":{"id":1643003,"name":"On or near Moss Drive"},"longitude":"-1.822339"},"context":"","outcome_status":null,"persistent_id":"","id":129205954,"location_subtype":"","month":"2025-06"},{"category":"burglary","location_type":"Force","location":{"latitude":"52.550010","street":{"id":1641391,"name":"On or near Stirling Road"},"longitude":"-1.852820"},"context":"","outcome_status":{"category":"Investigation complete; no suspect identified","date":"2025-07"},"persistent_id":"cd6c2544080dbdad031fdd3d850f4ba2fbfa36eee6a2ca1e1eab4d5a407a2c88","id":129180240,"location_subtype":"","month":"2025-06"},{"category":"burglary","location_type":"Force","location":{"latitude":"52.560839","street":{"id":1642977,"name":"On or near Parking Area"},"longitude":"-1.823356"},"context":"","outcome_status":{"category":"Investigation complete; no suspect identified","date":"2025-06"},"persistent_id":"2389333b898c8fce588f8270d6a3822987235a9f1581fc621f97d00ac29c960c","id":129180124,"location_subtype":"","month":"2025-06"},{"category":"burglary","location_type":"Force","location":{"latitude":"52.552003","street":{"id":1641837,"name":"On or near Matfen Avenue"},"longitude":"-1.843744"},"context":"","outcome_status":{"category":"Investigation complete; no suspect identified","date":"2025-07"},"persistent_id":"fcdf77329ba7176d5871d5b396f7c8ce9fe6869154b719340c656a3372c6407c","id":129182096,"location_subtype":"","month":"2025-06"},{"category":"burglary","location_type":"Force","location":{"latitude":"52.550357","street":{"id":1641862,"name":"On or near Jockey Road"},"longitude":"-1.842393"},"context":"","outcome_status":{"category":"Investigation complete; no suspect identified","date":"2025-07"},"persistent_id":"7e5ba06fa647826dd22ed12def8f4ab8913f37e04347313ae6497caf7b1484e4","id":129193696,"location_subtype":"","month":"2025-06"},{"category":"burglary","location_type":"Force","location":{"latitude":"52.560839","street":{"id":1642977,"name":"On or near Parking Area"},"longitude":"-1.823356"},"context":"","outcome_status":{"category":"Investigation complete; no suspect identified","date":"2025-06"},"persistent_id":"824dca32aa244b18b804ef926e7204126781fb204dc4403a126a0bb65da35acf","id":129180150,"location_subtype":"","month":"2025-06"},{"category":"burglary","location_type":"Force","location":{"latitude":"52.550180","street":{"id":1642426,"name":"On or near Wilkinson Close"},"longitude":"-1.831834"},"context":"","outcome_status":{"category":"Investigation complete; no suspect identified","date":"2025-07"},"persistent_id":"d3755fae412eb6c3b6eb359f5fe261996dba8ecd73e76a90ab1bb60d9c86c019","id":129194558,"location_subtype":"","month":"2025-06"},{"category":"criminal-damage-arson","location_type":"Force","location":{"latitude":"52.562155","street":{"id":1642728,"name":"On or near Shopping Area"},"longitude":"-1.825681"},"context":"","outcome_status":{"category":"Investigation complete; no suspect identified","date":"2025-06"},"persistent_id":"83f8f78feb0b886e6867f2e8465c44754c067082592584273817c9cf82567233","id":129182395,"location_subtype":"","month":"2025-06"},{"category":"criminal-damage-arson","location_type":"Force","location":{"latitude":"52.541038","street":{"id":1642110,"name":"On or near Boldmere Gardens"},"longitude":"-1.838371"},"context":"","outcome_status":{"category":"Local resolution","date":"2025-06"},"persistent_id":"2872d571a77c7b21693da58a4e3543dc3dd6f8359670552313f1daef3af6990f","id":129188745,"location_subtype":"","month":"2025-06"},{"category":"criminal-damage-arson","location_type":"Force","location":{"latitude":"52.543955","street":{"id":1641926,"name":"On or near Wedmore Road"},"longitude":"-1.841988"},"context":"","outcome_status":{"category":"Unable to prosecute suspect","date":"2025-06"},"persistent_id":"27694a7684085bf10d438a2711524b60718854f27504ecd0481ec22aaf033257","id":129197961,"location_subtype":"","month":"2025-06"},{"category":"criminal-damage-arson","location_type":"Force","location":{"latitude":"52.559036","street":{"id":1642817,"name":"On or near Hospital"},"longitude":"-1.825915"},"context":"","outcome_status":{"category":"Investigation complete; no suspect identified","date":"2025-07"},"persistent_id":"03d01c7a7aa04f5c1becd5f4f8b0cdd1984d5079ab7c8168f394e83864b043a7","id":128938615,"location_subtype":"","month":"2025-06"},{"category":"criminal-damage-arson","location_type":"Force","location":{"latitude":"52.545826","street":{"id":1641532,"name":"On or near Haselor Road"},"longitude":"-1.849281"},"context":"","outcome_status":{"category":"Investigation complete; no suspect identified","date":"2025-06"},"persistent_id":"d5f7657bd44bb3debdc7ceb2c2f96ef43d999ad7a71b22346fd10b0fac7078d0","id":129200345,"location_subtype":"","month":"2025-06"},{"category":"criminal-damage-arson","location_type":"Force","location":{"latitude":"52.545047","street":{"id":1640986,"name":"On or near Langholm Drive"},"longitude":"-1.859709"},"context":"","outcome_status":{"category":"Unable to prosecute suspect","date":"2025-08"},"persistent_id":"71c860a49a36526ae8c40cbc2cd90dc07e1a767fd8e6952c0b0c149d7ffe26f5","id":129188909,"location_subtype":"","month":"2025-06"},{"category":"criminal-damage-arson","location_type":"Force","location":{"latitude":"52.548683","street":{"id":1641939,"name":"On or near Union Drive"},"longitude":"-1.841189"},"context":"","outcome_status":{"category":"Investigation complete; no suspect identified","date":"2025-07"},"persistent_id":"102de99566c0c34bdee32d142e8768a609b92925a60d11f575c0904d6792c916","id":129199958,"location_subtype":"","month":"2025-06"},{"category":"criminal-damage-arson","location_type":"Force","location":{"latitude":"52.545047","street":{"id":1640986,"name":"On or near Langholm Drive"},"longitude":"-1.859709"},"context":"","outcome_status":{"category":"Unable to prosecute suspect","date":"2025-06"},"persistent_id":"f6f8959b881270029932da50bcd0518ea98b4328e937663fb9e3e368de2abafe","id":129194213,"location_subtype":"","month":"2025-06"},{"category":"criminal-damage-arson","location_type":"Force","location":{"latitude":"52.563192","street":{"id":1642670,"name":"On or near Garrard Gardens"},"longitude":"-1.827905"},"context":"","outcome_status":{"category":"Investigation complete; no suspect identified","date":"2025-06"},"persistent_id":"f52e34d8a0af627e598bf1bf4f83e2431bf93723d0184d54f1ff2f308e9c41f6","id":129182051,"location_subtype":"","month":"2025-06"},{"category":"criminal-damage-arson","location_type":"Force","location":{"latitude":"52.547643","street":{"id":1642910,"name":"On or near Birmingham Road"},"longitude":"-1.824500"},"context":"","outcome_status":{"category":"Investigation complete; no suspect identified","date":"2025-08"},"persistent_id":"b4755d07caf71d5218bf0ecc591eac02bf6f36c55181104689e45143a1d6cf1b","id":129185630,"location_subtype":"","month":"2025-06"},{"category":"criminal-damage-arson","location_type":"Force","location":{"latitude":"52.557924","street":{"id":1642602,"name":"On or near College Hill"},"longitude":"-1.828235"},"context":"","outcome_status":{"category":"Unable to prosecute suspect","date":"2025-06"},"persistent_id":"b86321b6826ab76665119d52cd396d9ead1513c14acfcd405e689b07ad38094e","id":129182928,"location_subtype":"","month":"2025-06"},{"category":"criminal-damage-arson","location_type":"Force","location":{"latitude":"52.548895","street":{"id":1641052,"name":"On or near A452"},"longitude":"-1.859947"},"context":"","outcome_status":{"category":"Unable to prosecute suspect","date":"2025-07"},"persistent_id":"8bf9266297c03fd390ad2609ebe816ef43b706b2a54576ef21e42249dfc9e411","id":129183045,"location_subtype":"","month":"2025-06"},{"category":"criminal-damage-arson","location_type":"Force","location":{"latitude":"52.546908","street":{"id":1641094,"name":"On or near George Road"},"longitude":"-1.859187"},"context":"","outcome_status":{"category":"Investigation complete; no suspect identified","date":"2025-10"},"persistent_id":"a403a93de3468615700805c31bf674122f71d5415034722e36bce706fa1d01f5","id":129197688,"location_subtype":"","month":"2025-06"},{"category":"drugs","location_type":"Force","location":{"latitude":"52.559109","street":{"id":1642402,"name":"On or near Sommerville Drive"},"longitude":"-1.832862"},"context":"","outcome_status":{"category":"Unable to prosecute suspect","date":"2025-06"},"persistent_id":"851aca5955c13d6caaef7d0a0ba681723e1208f733426c0e949f19bd2ce4681a","id":129203485,"location_subtype":"","month":"2025-06"},{"category":"other-theft","location_type":"Force","location":{"latitude":"52.559252","street":{"id":1642724,"name":"On or near Farthing Lane"},"longitude":"-1.826194"},"context":"","outcome_status":{"category":"Investigation complete; no suspect identified","date":"2025-06"},"persistent_id":"73b5fb69c67638c70b5a31fce6799a8d83e4766fa9ade50cf79c70b9e88ac37a","id":129198396,"location_subtype":"","month":"2025-06"},{"category":"other-theft","location_type":"Force","location":{"latitude":"52.553340","street":{"id":1640879,"name":"On or near Ilmington Drive"},"longitude":"-1.863281"},"context":"","outcome_status":{"category":"Investigation complete; no suspect identified","date":"2025-07"},"persistent_id":"ea0519715d1502e3b049917c9e74848109882003e867e7100104f61ee1231860","id":129195972,"location_subtype":"","month":"2025-06"},{"category":"other-theft","location_type":"Force","location":{"latitude":"52.541746","street":{"id":1641895,"name":"On or near Sports/recreation Area"},"longitude":"-1.842692"},"context":"","outcome_status":{"category":"Investigation complete; no suspect identified","date":"2025-07"},"persistent_id":"a23dbbf9240ca8deecf2edcb607e27fdaca1e9b241101e0ec1d39d6accd54c1a","id":129190779,"location_subtype":"","month":"2025-06"},{"category":"other-theft","location_type":"Force","location":{"latitude":"52.544071","street":{"id":1641607,"name":"On or near Fernwood Close"},"longitude":"-1.847871"},"context":"","outcome_status":{"category":"Unable to prosecute suspect","date":"2025-06"},"persistent_id":"d6cea490733f7bca00214a869796c4a76521f46ee0c94ef51bad4da81148e9fc","id":129180215,"location_subtype":"","month":"2025-06"},{"category":"other-theft","location_type":"Force","location":{"latitude":"52.548434","street":{"id":1641122,"name":"On or near B4149"},"longitude":"-1.857781"},"context":"","outcome_status":{"category":"Investigation complete; no suspect identified","date":"2025-06"},"persistent_id":"bf4b16511121760eca0a286828e9cf5c3582d7466621cf9c97d4bc73b38f2eff","id":129199494,"location_subtype":"","month":"2025-06"},{"category":"other-theft","location_type":"Force","location":{"latitude":"52.542061","street":{"id":1641515,"name":"On or near Hawthorn Brook Way"},"longitude":"-1.850635"},"context":"","outcome_status":{"category":"Investigation complete; no suspect identified","date":"2025-06"},"persistent_id":"299d36e81f278806c4ddc685621d4c3e23d55be6a84904a1f86c0d769b9b5632","id":129202400,"location_subtype":"","month":"2025-06"},{"category":"other-theft","location_type":"Force","location":{"latitude":"52.559252","street":{"id":1642724,"name":"On or near Farthing Lane"},"longitude":"-1.826194"},"context":"","outcome_status":{"category":"Investigation complete; no suspect identified","date":"2025-09"},"persistent_id":"0aa78e46fe9ade46193e1a5e45f5d4a191723f712e96b9eb090c882d1dd824bd","id":129181492,"location_subtype":"","month":"2025-06"},{"category":"possession-of-weapons","location_type":"Force","location":{"latitude":"52.550357","street":{"id":1641862,"name":"On or near Jockey Road"},"longitude":"-1.842393"},"context":"","outcome_status":{"category":"Court result unavailable","date":"2026-01"},"persistent_id":"00d081e4f9ec33153dd8906817a589fdc5610c241d6038f13b2128e03ce2d2ad","id":129185920,"location_subtype":"","month":"2025-06"},{"category":"possession-of-weapons","location_type":"Force","location":{"latitude":"52.549220","street":{"id":1640974,"name":"On or near Petrol Station"},"longitude":"-1.861008"},"context":"","outcome_status":{"category":"Unable to prosecute suspect","date":"2025-12"},"persistent_id":"08c1040bd90d796c90aa8bd2d7bfac0985131d58892121b87a7bcf27b32f1348","id":129193115,"location_subtype":"","month":"2025-06"},{"category":"possession-of-weapons","location_type":"Force","location":{"latitude":"52.550357","street":{"id":1641862,"name":"On or near Jockey Road"},"longitude":"-1.842393"},"context":"","outcome_status":{"category":"Court result unavailable","date":"2026-01"},"persistent_id":"816604b8b92c7e02dc6badafdb5e3dfeb362ab1805ba42dc96e5cfa8a17873a6","id":129185883,"location_subtype":"","month":"2025-06"},{"category":"public-order","location_type":"Force","location":{"latitude":"52.549220","street":{"id":1640974,"name":"On or near Petrol Station"},"longitude":"-1.861008"},"context":"","outcome_status":{"category":"Investigation complete; no suspect identified","date":"2025-06"},"persistent_id":"6f9d47632bfb43daf03bc19d44d069e12a0892e7abe1d5db2560858fb603eef3","id":129192657,"location_subtype":"","month":"2025-06"},{"category":"public-order","location_type":"Force","location":{"latitude":"52.561525","street":{"id":1642810,"name":"On or near Shopping Area"},"longitude":"-1.825226"},"context":"","outcome_status":{"category":"Local resolution","date":"2025-10"},"persistent_id":"42eb1bfe8f08e470610df4d234d1611ccc7791748484c64c525a6d07e0267d8a","id":129184331,"location_subtype":"","month":"2025-06"},{"category":"public-order","location_type":"Force","location":{"latitude":"52.548683","street":{"id":1641939,"name":"On or near Union Drive"},"longitude":"-1.841189"},"context":"","outcome_status":{"category":"Investigation complete; no suspect identified","date":"2025-06"},"persistent_id":"1abf35ec702e7182fbb4a614421dd9958fdf6060ad20285f613213f3dae7a182","id":129183182,"location_subtype":"","month":"2025-06"},{"category":"public-order","location_type":"Force","location":{"latitude":"52.561525","street":{"id":1642810,"name":"On or near Shopping Area"},"longitude":"-1.825226"},"context":"","outcome_status":{"category":"Investigation complete; no suspect identified","date":"2025-06"},"persistent_id":"8a322342719baa38c9d54286e5751633b746f00d9f82492fa4ba7bb599f54988","id":129192966,"location_subtype":"","month":"2025-06"},{"category":"public-order","location_type":"Force","location":{"latitude":"52.555793","street":{"id":1642702,"name":"On or near Church Road"},"longitude":"-1.827757"},"context":"","outcome_status":{"category":"Unable to prosecute suspect","date":"2025-06"},"persistent_id":"66da22f693dec9002f0f8d14255c7da7ac33a98482dea54e0a3d685cd92245a3","id":129192463,"location_subtype":"","month":"2025-06"},{"category":"public-order","location_type":"Force","location":{"latitude":"52.540710","street":{"id":1641525,"name":"On or near Guthrum Close"},"longitude":"-1.849224"},"context":"","outcome_status":{"category":"Unable to prosecute suspect","date":"2025-06"},"persistent_id":"331a79a3621658cb6c2242d92e5ca0fb72cd64bc338d3d1f4e5946c7be61be7e","id":129201853,"location_subtype":"","month":"2025-06"},{"category":"public-order","location_type":"Force","location":{"latitude":"52.543371","street":{"id":1641588,"name":"On or near Fernwood Road"},"longitude":"-1.848714"},"context":"","outcome_status":{"category":"Court result unavailable","date":"2025-12"},"persistent_id":"3e7950ab29c1f1833619d1bd56c22c8fca68a68d150290cae038fe0b15762dad","id":129201787,"location_subtype":"","month":"2025-06"},{"category":"public-order","location_type":"Force","location":{"latitude":"52.546365","street":{"id":1641875,"name":"On or near Heathlands Crescent"},"longitude":"-1.842407"},"context":"","outcome_status":{"category":"Unable to prosecute suspect","date":"2025-07"},"persistent_id":"dbb286130db868733eff6417fdacfee3c5b3f4910ac20d2faf3755a192c2a648","id":129182796,"location_subtype":"","month":"2025-06"},{"category":"robbery","location_type":"Force","location":{"latitude":"52.543371","street":{"id":1641588,"name":"On or near Fernwood Road"},"longitude":"-1.848714"},"context":"","outcome_status":{"category":"Investigation complete; no suspect identified","date":"2025-06"},"persistent_id":"21bf60903c5d01234165d61ef603f7760baeda981f292ac399a313519ff38659","id":129198072,"location_subtype":"","month":"2025-06"},{"category":"shoplifting","location_type":"Force","location":{"latitude":"52.562155","street":{"id":1642728,"name":"On or near Shopping Area"},"longitude":"-1.825681"},"context":"","outcome_status":{"category":"Court result unavailable","date":"2026-01"},"persistent_id":"7d61c5e5ff5cde97e70ad46a743f24b5bc7433da4a1788503cfe87bde569197d","id":129199300,"location_subtype":"","month":"2025-06"},{"category":"shoplifting","location_type":"Force","location":{"latitude":"52.560839","street":{"id":1642977,"name":"On or near Parking Area"},"longitude":"-1.823356"},"context":"","outcome_status":{"category":"Unable to prosecute suspect","date":"2025-09"},"persistent_id":"e2cf78a082abb99af4886a36f0d6f811ccd479cbf7aa03598801036c60f09554","id":129194216,"location_subtype":"","month":"2025-06"},{"category":"shoplifting","location_type":"Force","location":{"latitude":"52.546908","street":{"id":1641094,"name":"On or near George Road"},"longitude":"-1.859187"},"context":"","outcome_status":{"category":"Awaiting court outcome","date":"2025-09"},"persistent_id":"78100e91e5ff050a00fa2de42e5802fa85c9ff05496e768e5d2438f06aa2f563","id":129193580,"location_subtype":"","month":"2025-06"},{"category":"shoplifting","location_type":"Force","location":{"latitude":"52.560839","street":{"id":1642977,"name":"On or near Parking Area"},"longitude":"-1.823356"},"context":"","outcome_status":{"category":"Unable to prosecute suspect","date":"2025-10"},"persistent_id":"97668d80af399fdf92196a163b07a61e62abe75dd496bbc7459082ef7bbb94bd","id":129195020,"location_subtype":"","month":"2025-06"},{"category":"shoplifting","location_type":"Force","location":{"latitude":"52.561525","street":{"id":1642810,"name":"On or near Shopping Area"},"longitude":"-1.825226"},"context":"","outcome_status":{"category":"Court result unavailable","date":"2025-12"},"persistent_id":"94b2e1c22df9c817f59034a909c34d96835d890e3445db0630ff96d70722433c","id":129195905,"location_subtype":"","month":"2025-06"},{"category":"shoplifting","location_type":"Force","location":{"latitude":"52.549675","street":{"id":1641096,"name":"On or near Supermarket"},"longitude":"-1.858293"},"context":"","outcome_status":{"category":"Investigation complete; no suspect identified","date":"2025-06"},"persistent_id":"96296c185729d5e01deab3ed9d75cbd15d617e20c36ae026c4b32658fc1284e9","id":129199521,"location_subtype":"","month":"2025-06"},{"category":"shoplifting","location_type":"Force","location":{"latitude":"52.541038","street":{"id":1642110,"name":"On or near Boldmere Gardens"},"longitude":"-1.838371"},"context":"","outcome_status":{"category":"Unable to prosecute suspect","date":"2025-08"},"persistent_id":"0c18e5fea166ef7a76b357646be138afcd96c3cb6327692103b86e0998e4b638","id":129178366,"location_subtype":"","month":"2025-06"},{"category":"shoplifting","location_type":"Force","location":{"latitude":"52.560839","street":{"id":1642977,"name":"On or near Parking Area"},"longitude":"-1.823356"},"context":"","outcome_status":{"category":"Awaiting court outcome","date":"2025-09"},"persistent_id":"d0fc7b1b45e8ded9650ad70e12a1480d0c7cd743171ea1f406be42afe26e0c95","id":129179299,"location_subtype":"","month":"2025-06"},{"category":"shoplifting","location_type":"Force","location":{"latitude":"52.560839","street":{"id":1642977,"name":"On or near Parking Area"},"longitude":"-1.823356"},"context":"","outcome_status":{"category":"Unable to prosecute suspect","date":"2025-07"},"persistent_id":"49eb21509779739dfb67e640a00c5f294c6591fbb3d13b4ab75f6b884913a34e","id":129179374,"location_subtype":"","month":"2025-06"},{"category":"shoplifting","location_type":"Force","location":{"latitude":"52.560839","street":{"id":1642977,"name":"On or near Parking Area"},"longitude":"-1.823356"},"context":"","outcome_status":{"category":"Unable to prosecute suspect","date":"2025-08"},"persistent_id":"0c6f7001c9e4f90f5f26017f9cef1f8ec9445e0cc6b7487736f55a2354a106e4","id":129179405,"location_subtype":"","month":"2025-06"},{"category":"shoplifting","location_type":"Force","location":{"latitude":"52.551846","street":{"id":1640930,"name":"On or near Hampton Close"},"longitude":"-1.862047"},"context":"","outcome_status":{"category":"Unable to prosecute suspect","date":"2025-07"},"persistent_id":"51514985a1048045ad61be186be08d34e8e25e665eb441a05d5f9707784e409b","id":129184208,"location_subtype":"","month":"2025-06"},{"category":"shoplifting","location_type":"Force","location":{"latitude":"52.550684","street":{"id":2348341,"name":"On or near Princess Alice Retail Park"},"longitude":"-1.859941"},"context":"","outcome_status":{"category":"Investigation complete; no suspect identified","date":"2025-07"},"persistent_id":"f9899edbff251bad5017a5e623f3c393f947c366ac05a259abfb13e7a280fae0","id":129184346,"location_subtype":"","month":"2025-06"},{"category":"shoplifting","location_type":"Force","location":{"latitude":"52.550684","street":{"id":2348341,"name":"On or near Princess Alice Retail Park"},"longitude":"-1.859941"},"context":"","outcome_status":{"category":"Investigation complete; no suspect identified","date":"2025-06"},"persistent_id":"31c9c7d89b91e5b3fcec946750c1c5a8fd256bbe929d6fb551d265aa450a5004","id":129203235,"location_subtype":"","month":"2025-06"},{"category":"shoplifting","location_type":"Force","location":{"latitude":"52.556816","street":{"id":1642703,"name":"On or near Maney Corner"},"longitude":"-1.826307"},"context":"","outcome_status":{"category":"Unable to prosecute suspect","date":"2025-08"},"persistent_id":"a2dc16294cea3a5a2e29f547e650bed8cb7d87f734523915ff8039f4bac0e1e6","id":129199483,"location_subtype":"","month":"2025-06"},{"category":"shoplifting","location_type":"Force","location":{"latitude":"52.551846","street":{"id":1640930,"name":"On or near Hampton Close"},"longitude":"-1.862047"},"context":"","outcome_status":{"category":"Investigation complete; no suspect identified","date":"2025-06"},"persistent_id":"4679733c0886bef3932d29a2520b79dc6d823c7f8e963b8557a0c30d5e320601","id":129188807,"location_subtype":"","month":"2025-06"},{"category":"shoplifting","location_type":"Force","location":{"latitude":"52.556816","street":{"id":1642703,"name":"On or near Maney Corner"},"longitude":"-1.826307"},"context":"","outcome_status":{"category":"Investigation complete; no suspect identified","date":"2025-07"},"persistent_id":"d3eac3587eee1bab0d6ec1ab680178d437ac29b3b0351831db0a06ec771d5f76","id":129187560,"location_subtype":"","month":"2025-06"},{"category":"shoplifting","location_type":"Force","location":{"latitude":"52.540710","street":{"id":1641525,"name":"On or near Guthrum Close"},"longitude":"-1.849224"},"context":"","outcome_status":{"category":"Investigation complete; no suspect identified","date":"2025-06"},"persistent_id":"0ce82f256558f72fb33b3a5bff24a7d639aef803d6a818ef9273d61ec28c4dcf","id":129199331,"location_subtype":"","month":"2025-06"},{"category":"shoplifting","location_type":"Force","location":{"latitude":"52.560839","street":{"id":1642977,"name":"On or near Parking Area"},"longitude":"-1.823356"},"context":"","outcome_status":{"category":"Court result unavailable","date":"2025-12"},"persistent_id":"aa51ec56e0da86c3b40a4969ac50d52b77d4b36f466ddd8f11d8111b465e73f2","id":129188829,"location_subtype":"","month":"2025-06"},{"category":"shoplifting","location_type":"Force","location":{"latitude":"52.550684","street":{"id":2348341,"name":"On or near Princess Alice Retail Park"},"longitude":"-1.859941"},"context":"","outcome_status":{"category":"Court result unavailable","date":"2026-01"},"persistent_id":"d197da5a9ea33346ed5e00bf9083627d4963a2ccad0f1625f14f49b054f7b619","id":129201584,"location_subtype":"","month":"2025-06"},{"category":"shoplifting","location_type":"Force","location":{"latitude":"52.550684","street":{"id":2348341,"name":"On or near Princess Alice Retail Park"},"longitude":"-1.859941"},"context":"","outcome_status":{"category":"Investigation complete; no suspect identified","date":"2025-07"},"persistent_id":"09629b40ad76c7fba6330d37e7124bd0675687b1b4b7ccfe24e62aad5fdfb6c0","id":129189269,"location_subtype":"","month":"2025-06"},{"category":"theft-from-the-person","location_type":"Force","location":{"latitude":"52.564117","street":{"id":1642733,"name":"On or near Park Road"},"longitude":"-1.827060"},"context":"","outcome_status":{"category":"Investigation complete; no suspect identified","date":"2025-06"},"persistent_id":"de2011e5d0db30949ae9382c77ed3c5e95b0a2e5e8067d40ba02a79ffefa7b80","id":129198146,"location_subtype":"","month":"2025-06"},{"category":"vehicle-crime","location_type":"Force","location":{"latitude":"52.546908","street":{"id":1641094,"name":"On or near George Road"},"longitude":"-1.859187"},"context":"","outcome_status":{"category":"Awaiting court outcome","date":"2026-01"},"persistent_id":"ca645746c88e637524ee83648f73af75b9713832a19ddc673c612c2365cc0d99","id":129194253,"location_subtype":"","month":"2025-06"},{"category":"vehicle-crime","location_type":"Force","location":{"latitude":"52.549951","street":{"id":1640896,"name":"On or near Roylesden Crescent"},"longitude":"-1.863365"},"context":"","outcome_status":{"category":"Court result unavailable","date":"2025-12"},"persistent_id":"3454cd1a30a5b2d69d1605e1f9267bd15ce660797ff06e78a8d51ebb3aa05536","id":129189958,"location_subtype":"","month":"2025-06"},{"category":"vehicle-crime","location_type":"Force","location":{"latitude":"52.556196","street":{"id":1642387,"name":"On or near Somerville Road"},"longitude":"-1.833050"},"context":"","outcome_status":{"category":"Investigation complete; no suspect identified","date":"2025-06"},"persistent_id":"7e1ae4bfa104540456f413ab73c8239815e2c66099e6b45f52514ca4c714fde3","id":129196887,"location_subtype":"","month":"2025-06"},{"category":"vehicle-crime","location_type":"Force","location":{"latitude":"52.545826","street":{"id":1641532,"name":"On or near Haselor Road"},"longitude":"-1.849281"},"context":"","outcome_status":{"category":"Investigation complete; no suspect identified","date":"2025-07"},"persistent_id":"c5a27cad7d67ce0e63a114b6bd67f381baa5c1b686f3763e314a73b635b066d8","id":129178336,"location_subtype":"","month":"2025-06"},{"category":"vehicle-crime","location_type":"Force","location":{"latitude":"52.552465","street":{"id":1641044,"name":"On or near Tudor Close"},"longitude":"-1.860865"},"context":"","outcome_status":{"category":"Investigation complete; no suspect identified","date":"2025-07"},"persistent_id":"84b30c4124971006ec80234fb67ff38c9c1c46ec7400f49202018098f0c489b1","id":129178356,"location_subtype":"","month":"2025-06"},{"category":"vehicle-crime","location_type":"Force","location":{"latitude":"52.548545","street":{"id":1642083,"name":"On or near Gate Lane"},"longitude":"-1.839214"},"context":"","outcome_status":{"category":"Investigation complete; no suspect identified","date":"2025-07"},"persistent_id":"8be49121466d82b80c097003b21b7fff4974e0af84514737e09f70fd593be4fe","id":129180924,"location_subtype":"","month":"2025-06"},{"category":"vehicle-crime","location_type":"Force","location":{"latitude":"52.561525","street":{"id":1642810,"name":"On or near Shopping Area"},"longitude":"-1.825226"},"context":"","outcome_status":{"category":"Investigation complete; no suspect identified","date":"2025-07"},"persistent_id":"f1b90326db3477affcb610b3fd942fc04f367a38ec1f18d465208ee7045fcc3b","id":129181949,"location_subtype":"","month":"2025-06"},{"category":"vehicle-crime","location_type":"Force","location":{"latitude":"52.560839","street":{"id":1642977,"name":"On or near Parking Area"},"longitude":"-1.823356"},"context":"","outcome_status":{"category":"Investigation complete; no suspect identified","date":"2025-07"},"persistent_id":"c1dca0b0ba08e07f53568c50a635261c4c0774cbe9709faad114aa5f9e1ad1f7","id":129182973,"location_subtype":"","month":"2025-06"},{"category":"vehicle-crime","location_type":"Force","location":{"latitude":"52.540272","street":{"id":1641786,"name":"On or near Beech Road"},"longitude":"-1.843888"},"context":"","outcome_status":{"category":"Unable to prosecute suspect","date":"2025-08"},"persistent_id":"0c5dbbbd19c3dca8cfb241e0524ccfea1d5b3ba3de5b4b69609fa8fa9a1ce225","id":129184463,"location_subtype":"","month":"2025-06"},{"category":"vehicle-crime","location_type":"Force","location":{"latitude":"52.562155","street":{"id":1642728,"name":"On or near Shopping Area"},"longitude":"-1.825681"},"context":"","outcome_status":{"category":"Investigation complete; no suspect identified","date":"2025-08"},"persistent_id":"b25e1c292a866dcfbd09bf971af46e5a5cb86026243fae285538afb77a583d74","id":129186412,"location_subtype":"","month":"2025-06"},{"category":"vehicle-crime","location_type":"Force","location":{"latitude":"52.550010","street":{"id":1641391,"name":"On or near Stirling Road"},"longitude":"-1.852820"},"context":"","outcome_status":{"category":"Investigation complete; no suspect identified","date":"2025-08"},"persistent_id":"064697fbc26b3ad17c9619a67c5e8dd806d02bfcab20938bad5b919201520a51","id":129187470,"location_subtype":"","month":"2025-06"},{"category":"vehicle-crime","location_type":"Force","location":{"latitude":"52.557749","street":{"id":1642835,"name":"On or near While Road"},"longitude":"-1.825463"},"context":"","outcome_status":{"category":"Unable to prosecute suspect","date":"2025-09"},"persistent_id":"26fe6020624b2286eca460406a30a4ea047097070650d4f40416cf894ec5f9e1","id":129188925,"location_subtype":"","month":"2025-06"},{"category":"vehicle-crime","location_type":"Force","location":{"latitude":"52.549220","street":{"id":1642736,"name":"On or near Addenbrooke Drive"},"longitude":"-1.826794"},"context":"","outcome_status":{"category":"Investigation complete; no suspect identified","date":"2025-06"},"persistent_id":"36becc62a5c7d81f850900fcc74454d409320e6171ce14333d7c4198b9dd8c5b","id":129197776,"location_subtype":"","month":"2025-06"},{"category":"vehicle-crime","location_type":"Force","location":{"latitude":"52.548657","street":{"id":1642933,"name":"On or near Hurley Close"},"longitude":"-1.823213"},"context":"","outcome_status":{"category":"Investigation complete; no suspect identified","date":"2025-06"},"persistent_id":"d48af93d697765e5c8461b3768699bddf89306798b6fc21a7ef962ecda95a5a1","id":129192738,"location_subtype":"","month":"2025-06"},{"category":"vehicle-crime","location_type":"Force","location":{"latitude":"52.545940","street":{"id":1642289,"name":"On or near Western Road"},"longitude":"-1.833753"},"context":"","outcome_status":{"category":"Investigation complete; no suspect identified","date":"2025-06"},"persistent_id":"c2f89fbc3d0d0e9873787eec71cefcbdc9226f9ee71a2aa1d3b55245801d2930","id":129180822,"location_subtype":"","month":"2025-06"},{"category":"vehicle-crime","location_type":"Force","location":{"latitude":"52.550267","street":{"id":1642233,"name":"On or near Sunningdale Close"},"longitude":"-1.836302"},"context":"","outcome_status":{"category":"Investigation complete; no suspect identified","date":"2025-06"},"persistent_id":"306c674f4f419ab6d5b33e43d48c192d67ab4a344ba723f27ebd6dccc03b93e2","id":129196971,"location_subtype":"","month":"2025-06"},{"category":"vehicle-crime","location_type":"Force","location":{"latitude":"52.560839","street":{"id":1642977,"name":"On or near Parking Area"},"longitude":"-1.823356"},"context":"","outcome_status":{"category":"Investigation complete; no suspect identified","date":"2025-06"},"persistent_id":"8dd5017b63405e786b44714fa8f33f6ec9d805b310ca75cd9887047c1fd6e2e6","id":129197680,"location_subtype":"","month":"2025-06"},{"category":"violent-crime","location_type":"Force","location":{"latitude":"52.553819","street":{"id":1640792,"name":"On or near Lapworth Drive"},"longitude":"-1.865123"},"context":"","outcome_status":{"category":"Unable to prosecute suspect","date":"2025-06"},"persistent_id":"dcad1391b99573824a6019e434b3a4db1b79be736dcb169e9d833019be75ee5f","id":129193797,"location_subtype":"","month":"2025-06"},{"category":"violent-crime","location_type":"Force","location":{"latitude":"52.543708","street":{"id":1642759,"name":"On or near The Gardens"},"longitude":"-1.825651"},"context":"","outcome_status":{"category":"Offender given a caution","date":"2025-09"},"persistent_id":"bc94b4ac5bb084ef327c7f6709d92871b21800bc44338fb71106356486ef5ae0","id":129191261,"location_subtype":"","month":"2025-06"},{"category":"violent-crime","location_type":"Force","location":{"latitude":"52.549220","street":{"id":1640974,"name":"On or near Petrol Station"},"longitude":"-1.861008"},"context":"","outcome_status":{"category":"Unable to prosecute suspect","date":"2025-06"},"persistent_id":"cbbff2f24daf72f8c77d4cfa0c8bc77d0a39eac9ea45e269c7a03c8329f0b0b4","id":129194583,"location_subtype":"","month":"2025-06"},{"category":"violent-crime","location_type":"Force","location":{"latitude":"52.563454","street":{"id":1642608,"name":"On or near Fawdry Close"},"longitude":"-1.828745"},"context":"","outcome_status":{"category":"Unable to prosecute suspect","date":"2025-08"},"persistent_id":"1bdef77648147c0c7e386f4ae92c854dc637374ead47700f10c64d272d5b5c5c","id":129194237,"location_subtype":"","month":"2025-06"},{"category":"violent-crime","location_type":"Force","location":{"latitude":"52.542997","street":{"id":1641727,"name":"On or near Warden Road"},"longitude":"-1.844911"},"context":"","outcome_status":{"category":"Status update unavailable","date":"2025-10"},"persistent_id":"8514e9d37ac7be7f7fc3d2758759372b88286a09e6843bb86f08e116464b0523","id":129194575,"location_subtype":"","month":"2025-06"},{"category":"violent-crime","location_type":"Force","location":{"latitude":"52.553819","street":{"id":1640792,"name":"On or near Lapworth Drive"},"longitude":"-1.865123"},"context":"","outcome_status":{"category":"Status update unavailable","date":"2025-10"},"persistent_id":"1c204f8e84aca79f73dd769ec1535b1fbc41dba532ca716563f696f367de19bd","id":129190372,"location_subtype":"","month":"2025-06"},{"category":"violent-crime","location_type":"Force","location":{"latitude":"52.547664","street":{"id":1641062,"name":"On or near Windsor Road"},"longitude":"-1.860084"},"context":"","outcome_status":{"category":"Unable to prosecute suspect","date":"2025-06"},"persistent_id":"e727751d2adf1c428901f47cfe0cce72788746d9375ba7922fbc71d735f109be","id":129196499,"location_subtype":"","month":"2025-06"},{"category":"violent-crime","location_type":"Force","location":{"latitude":"52.550357","street":{"id":1641862,"name":"On or near Jockey Road"},"longitude":"-1.842393"},"context":"","outcome_status":{"category":"Investigation complete; no suspect identified","date":"2025-06"},"persistent_id":"c829de646102d5b51da161f444f7beee15dd05b10580b1e04d2d35aa94e4d515","id":129197559,"location_subtype":"","month":"2025-06"},{"category":"violent-crime","location_type":"Force","location":{"latitude":"52.557924","street":{"id":1642602,"name":"On or near College Hill"},"longitude":"-1.828235"},"context":"","outcome_status":{"category":"Investigation complete; no suspect identified","date":"2025-08"},"persistent_id":"7b4e3c3bdafa1eeec32906adf01260f619c14733bfc1e4359af52d1d49029a93","id":129197630,"location_subtype":"","month":"2025-06"},{"category":"violent-crime","location_type":"Force","location":{"latitude":"52.550010","street":{"id":1641391,"name":"On or near Stirling Road"},"longitude":"-1.852820"},"context":"","outcome_status":{"category":"Unable to prosecute suspect","date":"2025-06"},"persistent_id":"133fdfd585ab52e3af27c52e4e2e274116d7a0336e40acc07f60013be0a64cf6","id":129191872,"location_subtype":"","month":"2025-06"},{"category":"violent-crime","location_type":"Force","location":{"latitude":"52.559923","street":{"id":1642932,"name":"On or near Farthing Pools Close"},"longitude":"-1.823935"},"context":"","outcome_status":{"category":"Unable to prosecute suspect","date":"2025-08"},"persistent_id":"e02eef66a3a601b9783e294fb66dd7fddea20521b704482feb51b637686ff045","id":129191555,"location_subtype":"","month":"2025-06"},{"category":"violent-crime","location_type":"Force","location":{"latitude":"52.545073","street":{"id":1642145,"name":"On or near Beacon Road"},"longitude":"-1.837236"},"context":"","outcome_status":{"category":"Unable to prosecute suspect","date":"2025-10"},"persistent_id":"c0eddd0f06b6967fcb7261753eb62595f3a780e8c8ad60436b100c2061e868e6","id":129197777,"location_subtype":"","month":"2025-06"},{"category":"violent-crime","location_type":"Force","location":{"latitude":"52.542061","street":{"id":1641515,"name":"On or near Hawthorn Brook Way"},"longitude":"-1.850635"},"context":"","outcome_status":{"category":"Unable to prosecute suspect","date":"2025-06"},"persistent_id":"1d460ca43c8b146233ad24c16fef7ecdab8c098b10522ecffa95ddb9f853d283","id":129190032,"location_subtype":"","month":"2025-06"},{"category":"violent-crime","location_type":"Force","location":{"latitude":"52.545047","street":{"id":1640986,"name":"On or near Langholm Drive"},"longitude":"-1.859709"},"context":"","outcome_status":{"category":"Unable to prosecute suspect","date":"2025-06"},"persistent_id":"3243f380085782b3cafa8c31eb3e4791da49a40d2f5c8b0e7cf4871162e3fdc7","id":129199992,"location_subtype":"","month":"2025-06"},{"category":"violent-crime","location_type":"Force","location":{"latitude":"52.545047","street":{"id":1640986,"name":"On or near Langholm Drive"},"longitude":"-1.859709"},"context":"","outcome_status":{"category":"Unable to prosecute suspect","date":"2025-06"},"persistent_id":"3e3d28e237a44d2d76ecf31a7980b304e6bb099d5998e45d8108743fa1792530","id":129199994,"location_subtype":"","month":"2025-06"},{"category":"violent-crime","location_type":"Force","location":{"latitude":"52.542061","street":{"id":1641515,"name":"On or near Hawthorn Brook Way"},"longitude":"-1.850635"},"context":"","outcome_status":{"category":"Unable to prosecute suspect","date":"2025-06"},"persistent_id":"efd0e60dd9b1201f3dce9edd5511bde7bc36bb346d44d79485600252da3ac4a6","id":129189944,"location_subtype":"","month":"2025-06"},{"category":"violent-crime","location_type":"Force","location":{"latitude":"52.542061","street":{"id":1641515,"name":"On or near Hawthorn Brook Way"},"longitude":"-1.850635"},"context":"","outcome_status":{"category":"Unable to prosecute suspect","date":"2025-06"},"persistent_id":"77beaaa57c253d272276bb016f8a9de504bc2bd83975b5425adc52925d31dccf","id":129189929,"location_subtype":"","month":"2025-06"},{"category":"violent-crime","location_type":"Force","location":{"latitude":"52.545608","street":{"id":1640975,"name":"On or near Gainford Road"},"longitude":"-1.862214"},"context":"","outcome_status":{"category":"Unable to prosecute suspect","date":"2025-07"},"persistent_id":"5d862de3e7a1eaefed28723c1f3aeced11ebbcd6ad9e4a4dfae177434bad34ee","id":129188462,"location_subtype":"","month":"2025-06"},{"category":"violent-crime","location_type":"Force","location":{"latitude":"52.547354","street":{"id":1640870,"name":"On or near Parkeston Crescent"},"longitude":"-1.863948"},"context":"","outcome_status":{"category":"Unable to prosecute suspect","date":"2025-06"},"persistent_id":"3843974fa193fdc26cb9505ddf3e049b52cbe0973bc3a86f3618da31f9441470","id":129200200,"location_subtype":"","month":"2025-06"},{"category":"violent-crime","location_type":"Force","location":{"latitude":"52.548683","street":{"id":1641939,"name":"On or near Union Drive"},"longitude":"-1.841189"},"context":"","outcome_status":{"category":"Investigation complete; no suspect identified","date":"2025-07"},"persistent_id":"704a3a3cb955517eb7cf2472546279f04698134cd12194878fc6a0242fe247a0","id":129188362,"location_subtype":"","month":"2025-06"},{"category":"violent-crime","location_type":"Force","location":{"latitude":"52.548683","street":{"id":1641939,"name":"On or near Union Drive"},"longitude":"-1.841189"},"context":"","outcome_status":{"category":"Unable to prosecute suspect","date":"2025-07"},"persistent_id":"9b07657b7aefc45f9b145f3354e49b8e1a72f7354256eee47106c4c8c6d7d364","id":129188286,"location_subtype":"","month":"2025-06"},{"category":"violent-crime","location_type":"Force","location":{"latitude":"52.556263","street":{"id":1642981,"name":"On or near Elms Road"},"longitude":"-1.823079"},"context":"","outcome_status":{"category":"Awaiting court outcome","date":"2025-12"},"persistent_id":"2fea043d498db09c5ba96b0b86570e6b9a035d3d6a1cdf079d3a94682bdbd605","id":129187594,"location_subtype":"","month":"2025-06"},{"category":"violent-crime","location_type":"Force","location":{"latitude":"52.541323","street":{"id":1641811,"name":"On or near Warden Avenue"},"longitude":"-1.843442"},"context":"","outcome_status":{"category":"Unable to prosecute suspect","date":"2025-07"},"persistent_id":"52bd111be9928eab3d7d81a5353399a94a897218968b87207e03a5d526d61eb7","id":129203354,"location_subtype":"","month":"2025-06"},{"category":"violent-crime","location_type":"Force","location":{"latitude":"52.557273","street":{"id":1642440,"name":"On or near Digby Road"},"longitude":"-1.831807"},"context":"","outcome_status":{"category":"Unable to prosecute suspect","date":"2025-06"},"persistent_id":"798e6772ed72ced2ab17de0ce14b6350d3e06460fe389f03fbe396c799d99d74","id":129201610,"location_subtype":"","month":"2025-06"},{"category":"violent-crime","location_type":"Force","location":{"latitude":"52.557273","street":{"id":1642440,"name":"On or near Digby Road"},"longitude":"-1.831807"},"context":"","outcome_status":{"category":"Unable to prosecute suspect","date":"2025-06"},"persistent_id":"7be895f28893edd873291995fc208aea4af1b8aded0197ec7c7750aa16eb1d23","id":129201621,"location_subtype":"","month":"2025-06"},{"category":"violent-crime","location_type":"Force","location":{"latitude":"52.549272","street":{"id":1642839,"name":"On or near Stoney Leasow"},"longitude":"-1.825437"},"context":"","outcome_status":{"category":"Unable to prosecute suspect","date":"2025-08"},"persistent_id":"6a6ce1d185b58eab16da2056f27459b2f82639eb9649903fdb5a64b9e708e29a","id":129186954,"location_subtype":"","month":"2025-06"},{"category":"violent-crime","location_type":"Force","location":{"latitude":"52.550357","street":{"id":1641862,"name":"On or near Jockey Road"},"longitude":"-1.842393"},"context":"","outcome_status":{"category":"Unable to prosecute suspect","date":"2025-06"},"persistent_id":"b32eefbd2cbbcc7ed3993492c46225efca03ab4ab851d24f5931c7c899b3f304","id":129186773,"location_subtype":"","month":"2025-06"},{"category":"violent-crime","location_type":"Force","location":{"latitude":"52.556836","street":{"id":1642695,"name":"On or near Bishops Road"},"longitude":"-1.828136"},"context":"","outcome_status":{"category":"Status update unavailable","date":"2025-10"},"persistent_id":"9ffc761a09e317120cc05680f75ee7ae283a7d939348e684102a431de7f78436","id":129202204,"location_subtype":"","month":"2025-06"},{"category":"violent-crime","location_type":"Force","location":{"latitude":"52.552465","street":{"id":1641044,"name":"On or near Tudor Close"},"longitude":"-1.860865"},"context":"","outcome_status":{"category":"Unable to prosecute suspect","date":"2025-06"},"persistent_id":"4d16a9731213972e07f379667fdd0f346ddd218f1ba76b5619b2e3799cf03fb0","id":129186692,"location_subtype":"","month":"2025-06"},{"category":"violent-crime","location_type":"Force","location":{"latitude":"52.561525","street":{"id":1642810,"name":"On or near Shopping Area"},"longitude":"-1.825226"},"context":"","outcome_status":{"category":"Unable to prosecute suspect","date":"2025-06"},"persistent_id":"c992d88ab0c705de4086f5ef6254d16efb022528ae725811fff09b3d9db40f43","id":129203164,"location_subtype":"","month":"2025-06"},{"category":"violent-crime","location_type":"Force","location":{"latitude":"52.548434","street":{"id":1641122,"name":"On or near B4149"},"longitude":"-1.857781"},"context":"","outcome_status":{"category":"Unable to prosecute suspect","date":"2025-06"},"persistent_id":"8eab6436bd9703250af083a12fa8cb0e91535f6f82f113388533de8bf1012c2e","id":129186117,"location_subtype":"","month":"2025-06"},{"category":"violent-crime","location_type":"Force","location":{"latitude":"52.547666","street":{"id":1642601,"name":"On or near Vesey Road"},"longitude":"-1.827449"},"context":"","outcome_status":{"category":"Action to be taken by another organisation","date":"2025-06"},"persistent_id":"412663e08c66972601895cc34bf89519bd46a48486113b42082382c75a0b1016","id":129184023,"location_subtype":"","month":"2025-06"},{"category":"violent-crime","location_type":"Force","location":{"latitude":"52.550357","street":{"id":1641862,"name":"On or near Jockey Road"},"longitude":"-1.842393"},"context":"","outcome_status":{"category":"Unable to prosecute suspect","date":"2025-06"},"persistent_id":"05b2d84db7e1b2bfb3440163887d408ad57ffbc2ad698434327a6fe25d8291f3","id":129183866,"location_subtype":"","month":"2025-06"},{"category":"violent-crime","location_type":"Force","location":{"latitude":"52.547629","street":{"id":1641968,"name":"On or near Fir Tree Grove"},"longitude":"-1.839689"},"context":"","outcome_status":{"category":"Unable to prosecute suspect","date":"2025-08"},"persistent_id":"2a8c23e9b2e200b8a89a943658304a9428d833671e1cd0da473b8ab9a183b064","id":129182805,"location_subtype":"","month":"2025-06"},{"category":"violent-crime","location_type":"Force","location":{"latitude":"52.550357","street":{"id":1641862,"name":"On or near Jockey Road"},"longitude":"-1.842393"},"context":"","outcome_status":{"category":"Unable to prosecute suspect","date":"2025-06"},"persistent_id":"50eb4d0b99ab1516d4fae964656d580484dde3de02cedb5e1ff2ce1a0427cae7","id":129182712,"location_subtype":"","month":"2025-06"},{"category":"violent-crime","location_type":"Force","location":{"latitude":"52.562155","street":{"id":1642728,"name":"On or near Shopping Area"},"longitude":"-1.825681"},"context":"","outcome_status":{"category":"Status update unavailable","date":"2025-10"},"persistent_id":"7a41834d86814977e359d5dc62e3204d43cad43d36f9353be4b03184f61a99d0","id":129182397,"location_subtype":"","month":"2025-06"},{"category":"violent-crime","location_type":"Force","location":{"latitude":"52.539397","street":{"id":1641615,"name":"On or near The Pollards"},"longitude":"-1.848846"},"context":"","outcome_status":{"category":"Unable to prosecute suspect","date":"2025-07"},"persistent_id":"5b42f10c2852898e36bd9fc322243d26af514a8fee27fd1ec412d62c4daef7a0","id":129182230,"location_subtype":"","month":"2025-06"},{"category":"violent-crime","location_type":"Force","location":{"latitude":"52.551120","street":{"id":1640900,"name":"On or near Parkwood Drive"},"longitude":"-1.863583"},"context":"","outcome_status":{"category":"Unable to prosecute suspect","date":"2025-07"},"persistent_id":"50d9e983caec54e6a739096817eaa97525d5668ffba863afda1b8a8f8b1d486e","id":129181708,"location_subtype":"","month":"2025-06"},{"category":"violent-crime","location_type":"Force","location":{"latitude":"52.560839","street":{"id":1642977,"name":"On or near Parking Area"},"longitude":"-1.823356"},"context":"","outcome_status":{"category":"Unable to prosecute suspect","date":"2025-07"},"persistent_id":"507634111c86df3692ebb768bf85a568e74e3f7a45cf83aef38cb573e94ab6aa","id":129179618,"location_subtype":"","month":"2025-06"},{"category":"violent-crime","location_type":"Force","location":{"latitude":"52.548434","street":{"id":1641122,"name":"On or near B4149"},"longitude":"-1.857781"},"context":"","outcome_status":{"category":"Unable to prosecute suspect","date":"2025-08"},"persistent_id":"c7c92fd20f759ad023c31f3c20ecb1f6320502183e435eb3c0f0d1034d2671ae","id":129179489,"location_subtype":"","month":"2025-06"},{"category":"violent-crime","location_type":"Force","location":{"latitude":"52.549675","street":{"id":1641096,"name":"On or near Supermarket"},"longitude":"-1.858293"},"context":"","outcome_status":{"category":"Status update unavailable","date":"2025-10"},"persistent_id":"fd4ae3ea4876262fd36eefa684313971a7d61284fdb5eef89e9fa4ae71d60c91","id":129179488,"location_subtype":"","month":"2025-06"},{"category":"violent-crime","location_type":"Force","location":{"latitude":"52.551968","street":{"id":1643111,"name":"On or near Maney Hill Road"},"longitude":"-1.819144"},"context":"","outcome_status":{"category":"Unable to prosecute suspect","date":"2025-08"},"persistent_id":"8a80f37a93708d2b31222d8e045827a4cf7547ae77af805c4e2d0e08f4a3ca60","id":129178940,"location_subtype":"","month":"2025-06"},{"category":"violent-crime","location_type":"Force","location":{"latitude":"52.550479","street":{"id":1642370,"name":"On or near Mayfield Road"},"longitude":"-1.833204"},"context":"","outcome_status":{"category":"Unable to prosecute suspect","date":"2025-07"},"persistent_id":"489b457e1f0836054cf2f491c55fd6f77edb29110b6dd35046014b7b9c1b6987","id":129178585,"location_subtype":"","month":"2025-06"},{"category":"violent-crime","location_type":"Force","location":{"latitude":"52.557924","street":{"id":1642602,"name":"On or near College Hill"},"longitude":"-1.828235"},"context":"","outcome_status":{"category":"Unable to prosecute suspect","date":"2025-08"},"persistent_id":"d82045e8a43c92bab29969b67453420a8d55aa9eb89f6586c5c7b22525e97fa2","id":129185098,"location_subtype":"","month":"2025-06"},{"category":"violent-crime","location_type":"Force","location":{"latitude":"52.540985","street":{"id":1641648,"name":"On or near Lakehouse Road"},"longitude":"-1.846466"},"context":"","outcome_status":{"category":"Unable to prosecute suspect","date":"2025-07"},"persistent_id":"15d533cd397266e57b08ac1cf24b488a06b4f1ae8c0842d2de914b851eefd1a5","id":129178474,"location_subtype":"","month":"2025-06"},{"category":"violent-crime","location_type":"Force","location":{"latitude":"52.544720","street":{"id":1641824,"name":"On or near Cofield Road"},"longitude":"-1.842693"},"context":"","outcome_status":{"category":"Unable to prosecute suspect","date":"2025-07"},"persistent_id":"a54b0f3661c8c26216e83c1d74cd3c75be55a6dc1697c98141b0c4f78aa694af","id":129177941,"location_subtype":"","month":"2025-06"},{"category":"violent-crime","location_type":"Force","location":{"latitude":"52.557273","street":{"id":1642440,"name":"On or near Digby Road"},"longitude":"-1.831807"},"context":"","outcome_status":{"category":"Unable to prosecute suspect","date":"2025-06"},"persistent_id":"7eb0661df57fc1fd3261ac683d269a4151e0617e848143a6b23460da260d5853","id":129201653,"location_subtype":"","month":"2025-06"},{"category":"violent-crime","location_type":"Force","location":{"latitude":"52.559923","street":{"id":1642932,"name":"On or near Farthing Pools Close"},"longitude":"-1.823935"},"context":"","outcome_status":{"category":"Unable to prosecute suspect","date":"2025-06"},"persistent_id":"78f53f02123c577e63183aa1d01d1da96cdf257c609eb63d389f920d1f566c27","id":129180878,"location_subtype":"","month":"2025-06"},{"category":"violent-crime","location_type":"Force","location":{"latitude":"52.547666","street":{"id":1642601,"name":"On or near Vesey Road"},"longitude":"-1.827449"},"context":"","outcome_status":{"category":"Action to be taken by another organisation","date":"2025-06"},"persistent_id":"f4b48974f4957bb177486db319bd4fbb2fb5c7b8f233611fc4671ad2e74f9f4d","id":129184003,"location_subtype":"","month":"2025-06"},{"category":"violent-crime","location_type":"Force","location":{"latitude":"52.544720","street":{"id":1641824,"name":"On or near Cofield Road"},"longitude":"-1.842693"},"context":"","outcome_status":{"category":"Investigation complete; no suspect identified","date":"2025-07"},"persistent_id":"1ebef7f1f9d0680631f5be11017376328da978526af189351871f8b8a5961252","id":129177920,"location_subtype":"","month":"2025-06"},{"category":"violent-crime","location_type":"Force","location":{"latitude":"52.549220","street":{"id":1640974,"name":"On or near Petrol Station"},"longitude":"-1.861008"},"context":"","outcome_status":{"category":"Investigation complete; no suspect identified","date":"2025-06"},"persistent_id":"d988925a807281783d5585e627cf1bda0bd4b77e33d88401c5da7f7abe34506f","id":129200941,"location_subtype":"","month":"2025-06"},{"category":"violent-crime","location_type":"Force","location":{"latitude":"52.546365","street":{"id":1641875,"name":"On or near Heathlands Crescent"},"longitude":"-1.842407"},"context":"","outcome_status":{"category":"Investigation complete; no suspect identified","date":"2025-06"},"persistent_id":"08dcc348c7ed1545b9862643f906165ba05578da38e5da4a13825494e1180c83","id":129192328,"location_subtype":"","month":"2025-06"},{"category":"violent-crime","location_type":"Force","location":{"latitude":"52.541038","street":{"id":1642110,"name":"On or near Boldmere Gardens"},"longitude":"-1.838371"},"context":"","outcome_status":{"category":"Investigation complete; no suspect identified","date":"2025-07"},"persistent_id":"db499fb73fbaadbf03bd75e38c05efeea4c5af7e478b63cb4a2c8be35959be53","id":129195654,"location_subtype":"","month":"2025-06"},{"category":"violent-crime","location_type":"Force","location":{"latitude":"52.553554","street":{"id":1641936,"name":"On or near Sports/recreation Area"},"longitude":"-1.840228"},"context":"","outcome_status":{"category":"Unable to prosecute suspect","date":"2025-06"},"persistent_id":"5ff55f772826bfced0cac975760b9bb5cdf80ddc6e1d4ce78d634f23ae68257e","id":129192933,"location_subtype":"","month":"2025-06"},{"category":"violent-crime","location_type":"Force","location":{"latitude":"52.549675","street":{"id":1641096,"name":"On or near Supermarket"},"longitude":"-1.858293"},"context":"","outcome_status":{"category":"Unable to prosecute suspect","date":"2025-06"},"persistent_id":"393af067801b8b68f23b0a73074be72486a9c31cac52be13a042e7bae8c4acdc","id":129192396,"location_subtype":"","month":"2025-06"},{"category":"other-crime","location_type":"Force","location":{"latitude":"52.543708","street":{"id":1642759,"name":"On or near The Gardens"},"longitude":"-1.825651"},"context":"","outcome_status":{"category":"Unable to prosecute suspect","date":"2025-06"},"persistent_id":"033ec89a82709df924a4d36ca05fb68b39cbcfe8393bab888f12b913ab0b22d0","id":129191245,"location_subtype":"","month":"2025-06"},{"category":"other-crime","location_type":"Force","location":{"latitude":"52.550357","street":{"id":1641862,"name":"On or near Jockey Road"},"longitude":"-1.842393"},"context":"","outcome_status":{"category":"Court result unavailable","date":"2025-12"},"persistent_id":"3badc197caa07e51f9c3f821b7c3811677bf805a43502b96e9eed1a138628070","id":129200106,"location_subtype":"","month":"2025-06"}]