[{"category":"anti-social-behaviour","location_type":"Force","location":{"latitude":"51.344805","street":{"id":1817929,"name":"On or near Bradford-on-avon"},"longitude":"-2.252053"},"context":"","outcome_status":null,"persistent_id":"","id":127403004,"location_subtype":"","month":"2025-04"},{"category":"anti-social-behaviour","location_type":"Force","location":{"latitude":"51.347191","street":{"id":1817956,"name":"On or near Supermarket"},"longitude":"-2.250487"},"context":"","outcome_status":null,"persistent_id":"","id":127397494,"location_subtype":"","month":"2025-04"},{"category":"anti-social-behaviour","location_type":"Force","location":{"latitude":"51.350693","street":{"id":1817864,"name":"On or near Elmfield"},"longitude":"-2.257068"},"context":"","outcome_status":null,"persistent_id":"","id":127400602,"location_subtype":"","month":"2025-04"},{"category":"anti-social-behaviour","location_type":"Force","location":{"latitude":"51.353282","street":{"id":1817806,"name":"On or near The Old Batch"},"longitude":"-2.261448"},"context":"","outcome_status":null,"persistent_id":"","id":127407374,"location_subtype":"","month":"2025-04"},{"category":"anti-social-behaviour","location_type":"Force","location":{"latitude":"51.344805","street":{"id":1817929,"name":"On or near Bradford-on-avon"},"longitude":"-2.252053"},"context":"","outcome_status":null,"persistent_id":"","id":127401815,"location_subtype":"","month":"2025-04"},{"category":"anti-social-behaviour","location_type":"Force","location":{"latitude":"51.342836","street":{"id":1817963,"name":"On or near Petrol Station"},"longitude":"-2.247750"},"context":"","outcome_status":null,"persistent_id":"","id":127407148,"location_subtype":"","month":"2025-04"},{"category":"anti-social-behaviour","location_type":"Force","location":{"latitude":"51.341054","street":{"id":1818063,"name":"On or near St Aldhelm Road"},"longitude":"-2.240146"},"context":"","outcome_status":null,"persistent_id":"","id":127396888,"location_subtype":"","month":"2025-04"},{"category":"anti-social-behaviour","location_type":"Force","location":{"latitude":"51.346288","street":{"id":1818072,"name":"On or near Uncles Lane"},"longitude":"-2.239828"},"context":"","outcome_status":null,"persistent_id":"","id":127397705,"location_subtype":"","month":"2025-04"},{"category":"anti-social-behaviour","location_type":"Force","location":{"latitude":"51.338029","street":{"id":1817936,"name":"On or near Baileys Barn"},"longitude":"-2.250236"},"context":"","outcome_status":null,"persistent_id":"","id":127402195,"location_subtype":"","month":"2025-04"},{"category":"anti-social-behaviour","location_type":"Force","location":{"latitude":"51.350693","street":{"id":1817864,"name":"On or near Elmfield"},"longitude":"-2.257068"},"context":"","outcome_status":null,"persistent_id":"","id":127398225,"location_subtype":"","month":"2025-04"},{"category":"anti-social-behaviour","location_type":"Force","location":{"latitude":"51.347191","street":{"id":1817956,"name":"On or near Supermarket"},"longitude":"-2.250487"},"context":"","outcome_status":null,"persistent_id":"","id":127404348,"location_subtype":"","month":"2025-04"},{"category":"anti-social-behaviour","location_type":"Force","location":{"latitude":"51.347506","street":{"id":1817955,"name":"On or near Silver Street"},"longitude":"-2.250546"},"context":"","outcome_status":null,"persistent_id":"","id":127397177,"location_subtype":"","month":"2025-04"},{"category":"bicycle-theft","location_type":"Force","location":{"latitude":"51.351401","street":{"id":1818002,"name":"On or near Bainton Close"},"longitude":"-2.245455"},"context":"","outcome_status":{"category":"Investigation complete; no suspect identified","date":"2025-06"},"persistent_id":"a998b851d1dca7599b4b5f6c5247a180e5e7c3ded210ce869d4f1107f1ffd289","id":127400202,"location_subtype":"","month":"2025-04"},{"category":"burglary","location_type":"Force","location":{"latitude":"51.342753","street":{"id":1818016,"name":"On or near Avon Close"},"longitude":"-2.244706"},"context":"","outcome_status":{"category":"Investigation complete; no suspect identified","date":"2025-05"},"persistent_id":"9d775933c9a7b03a5c808a5f349232af9018b5c648c790ebd73f33e39b3689ec","id":127398436,"location_subtype":"","month":"2025-04"},{"category":"criminal-damage-arson","location_type":"Force","location":{"latitude":"51.341319","street":{"id":1817930,"name":"On or near Kennet Gardens"},"longitude":"-2.251000"},"context":"","outcome_status":{"category":"Unable to prosecute suspect","date":"2025-07"},"persistent_id":"cd5e51b65654f4a903edc05f8d556053f8bf1179666f0a9c586841710d94417c","id":127402644,"location_subtype":"","month":"2025-04"},{"category":"criminal-damage-arson","location_type":"Force","location":{"latitude":"51.340888","street":{"id":1817998,"name":"On or near Poulton"},"longitude":"-2.246490"},"context":"","outcome_status":{"category":"Investigation complete; no suspect identified","date":"2025-06"},"persistent_id":"1df0605109d22d35b853ba0b7456c88a80aee7b9710940d0094f41fa6074f697","id":127398087,"location_subtype":"","month":"2025-04"},{"category":"criminal-damage-arson","location_type":"Force","location":{"latitude":"51.342265","street":{"id":1818004,"name":"On or near Downavon"},"longitude":"-2.245478"},"context":"","outcome_status":{"category":"Court result unavailable","date":"2025-11"},"persistent_id":"567390b2f2f8f4c3c18f684e1e51ea3cb71838e9cc35e54190aab927e2146a0d","id":127406177,"location_subtype":"","month":"2025-04"},{"category":"criminal-damage-arson","location_type":"Force","location":{"latitude":"51.342265","street":{"id":1818004,"name":"On or near Downavon"},"longitude":"-2.245478"},"context":"","outcome_status":{"category":"Unable to prosecute suspect","date":"2025-05"},"persistent_id":"ef74359b22e30522fa84d4d027f8d4b01d3c8562daf6b1a938e0f479080dda01","id":127406534,"location_subtype":"","month":"2025-04"},{"category":"criminal-damage-arson","location_type":"Force","location":{"latitude":"51.346594","street":{"id":1817925,"name":"On or near Parking Area"},"longitude":"-2.252408"},"context":"","outcome_status":{"category":"Investigation complete; no suspect identified","date":"2025-04"},"persistent_id":"9a5539ffbe84ea343be09f66fe18b283dc57a7b7cd145660bd6d78a5b3e5b56c","id":127404459,"location_subtype":"","month":"2025-04"},{"category":"criminal-damage-arson","location_type":"Force","location":{"latitude":"51.347573","street":{"id":1817978,"name":"On or near Mill Lane"},"longitude":"-2.248579"},"context":"","outcome_status":{"category":"Investigation complete; no suspect identified","date":"2025-05"},"persistent_id":"77fbf269f603c4e8dfb95001c3d3a21ff42659fa669bae07bfc6474c6a42ae82","id":127397196,"location_subtype":"","month":"2025-04"},{"category":"other-theft","location_type":"Force","location":{"latitude":"51.346594","street":{"id":1817925,"name":"On or near Parking Area"},"longitude":"-2.252408"},"context":"","outcome_status":{"category":"Investigation complete; no suspect identified","date":"2025-05"},"persistent_id":"e9c8a25d4da259d0443add1be0836c573445cba87774ef378881939589488cb2","id":127401046,"location_subtype":"","month":"2025-04"},{"category":"possession-of-weapons","location_type":"Force","location":{"latitude":"51.341319","street":{"id":1817930,"name":"On or near Kennet Gardens"},"longitude":"-2.251000"},"context":"","outcome_status":{"category":"Status update unavailable","date":"2025-08"},"persistent_id":"78511e4d712473722d197f095c50e914e2a642b4305ee0f0ec7a6ed666491dd3","id":127397233,"location_subtype":"","month":"2025-04"},{"category":"public-order","location_type":"Force","location":{"latitude":"51.344805","street":{"id":1817929,"name":"On or near Bradford-on-avon"},"longitude":"-2.252053"},"context":"","outcome_status":{"category":"Investigation complete; no suspect identified","date":"2025-05"},"persistent_id":"499ed968d23c4e8c61df390dcc1894c71b4366637cc0d795dd6f51b85cf74673","id":127402698,"location_subtype":"","month":"2025-04"},{"category":"public-order","location_type":"Force","location":{"latitude":"51.348596","street":{"id":1818007,"name":"On or near Kingsfield"},"longitude":"-2.245512"},"context":"","outcome_status":{"category":"Investigation complete; no suspect identified","date":"2025-04"},"persistent_id":"c5d8c02fc83af7f239d6394c1a22adaca75d2890411cca62bfd2d9634f2fdb66","id":127403118,"location_subtype":"","month":"2025-04"},{"category":"public-order","location_type":"Force","location":{"latitude":"51.341319","street":{"id":1817930,"name":"On or near Kennet Gardens"},"longitude":"-2.251000"},"context":"","outcome_status":{"category":"Unable to prosecute suspect","date":"2025-08"},"persistent_id":"d83b55a44bd6d7d0275ef67ec5574e01485f07891d49dc6cca7670bd748c491e","id":127398289,"location_subtype":"","month":"2025-04"},{"category":"shoplifting","location_type":"Force","location":{"latitude":"51.347191","street":{"id":1817956,"name":"On or near Supermarket"},"longitude":"-2.250487"},"context":"","outcome_status":{"category":"Investigation complete; no suspect identified","date":"2025-05"},"persistent_id":"7f629587ff6d38f0dd166140ee0f40679253f749ecc659717c04a0fc20c85313","id":127405726,"location_subtype":"","month":"2025-04"},{"category":"shoplifting","location_type":"Force","location":{"latitude":"51.347191","street":{"id":1817956,"name":"On or near Supermarket"},"longitude":"-2.250487"},"context":"","outcome_status":{"category":"Local resolution","date":"2025-06"},"persistent_id":"3e6e4f4fa6dc117c768fbe0e36f09974100271079247a97f968ce5c5fda7f025","id":127402094,"location_subtype":"","month":"2025-04"},{"category":"shoplifting","location_type":"Force","location":{"latitude":"51.347191","street":{"id":1817956,"name":"On or near Supermarket"},"longitude":"-2.250487"},"context":"","outcome_status":{"category":"Unable to prosecute suspect","date":"2025-06"},"persistent_id":"17beb99d875b6dde5adca4edff8110e64e5926cce76469d11e8a6b3f733d565d","id":127403137,"location_subtype":"","month":"2025-04"},{"category":"shoplifting","location_type":"Force","location":{"latitude":"51.347191","street":{"id":1817956,"name":"On or near Supermarket"},"longitude":"-2.250487"},"context":"","outcome_status":{"category":"Investigation complete; no suspect identified","date":"2025-05"},"persistent_id":"f1e61f3474bd2b2b37e38e00eb20742868430a39eeb0bbc7c452b4080146cb6b","id":127405579,"location_subtype":"","month":"2025-04"},{"category":"vehicle-crime","location_type":"Force","location":{"latitude":"51.345380","street":{"id":1817908,"name":"On or near Station Approach"},"longitude":"-2.252358"},"context":"","outcome_status":{"category":"Awaiting court outcome","date":"2025-09"},"persistent_id":"795d5e67fa274bfaee624c2bb079e54902df8c320db5373e1b98df0d8fda28b9","id":127407072,"location_subtype":"","month":"2025-04"},{"category":"violent-crime","location_type":"Force","location":{"latitude":"51.342265","street":{"id":1818004,"name":"On or near Downavon"},"longitude":"-2.245478"},"context":"","outcome_status":{"category":"Court result unavailable","date":"2025-10"},"persistent_id":"238f635a55b42f39b946a7cec3d4199a255468708e2960f39ce5bfe074bcf8b7","id":127406729,"location_subtype":"","month":"2025-04"},{"category":"violent-crime","location_type":"Force","location":{"latitude":"51.340888","street":{"id":1817998,"name":"On or near Poulton"},"longitude":"-2.246490"},"context":"","outcome_status":{"category":"Unable to prosecute suspect","date":"2025-07"},"persistent_id":"90acfdbf9492e61f1ba88964c83b988b359621197ed81c5b68c874e42a29b93f","id":127405134,"location_subtype":"","month":"2025-04"},{"category":"violent-crime","location_type":"Force","location":{"latitude":"51.344159","street":{"id":1817992,"name":"On or near Upper Regents Park"},"longitude":"-2.247168"},"context":"","outcome_status":{"category":"Status update unavailable","date":"2025-08"},"persistent_id":"96dec1e72caa516d1750da2439ff40df44cb0869ace9f634a4d74d0a52171b88","id":127402791,"location_subtype":"","month":"2025-04"},{"category":"violent-crime","location_type":"Force","location":{"latitude":"51.347993","street":{"id":1817659,"name":"On or near Cottles Lane"},"longitude":"-2.277701"},"context":"","outcome_status":{"category":"Unable to prosecute suspect","date":"2025-04"},"persistent_id":"f95bc2a7310a1196ad265220a8fddf26a5bc220b72e56041275514539596dfcb","id":127401168,"location_subtype":"","month":"2025-04"},{"category":"violent-crime","location_type":"Force","location":{"latitude":"51.339763","street":{"id":1817957,"name":"On or near Sports/recreation Area"},"longitude":"-2.247858"},"context":"","outcome_status":{"category":"Unable to prosecute suspect","date":"2025-06"},"persistent_id":"c576540b0929c66d6cd48f7fecaefbb7239505ba4f89567a24e9ecd936059fce","id":127397033,"location_subtype":"","month":"2025-04"},{"category":"violent-crime","location_type":"Force","location":{"latitude":"51.345380","street":{"id":1817908,"name":"On or near Station Approach"},"longitude":"-2.252358"},"context":"","outcome_status":{"category":"Unable to prosecute suspect","date":"2025-07"},"persistent_id":"eb85aa70da27739bf798af02b177d4eb900e8b6036c5fb4e896444a9e09a3e50","id":127400354,"location_subtype":"","month":"2025-04"},{"category":"violent-crime","location_type":"Force","location":{"latitude":"51.339601","street":{"id":1817933,"name":"On or near Parking Area"},"longitude":"-2.251020"},"context":"","outcome_status":{"category":"Further investigation is not in the public interest","date":"2025-05"},"persistent_id":"c85ab34e541ac4618c246426e320a8ab481cebf296cf67f68db755f5cb1f6285","id":127400340,"location_subtype":"","month":"2025-04"},{"category":"violent-crime","location_type":"Force","location":{"latitude":"51.349935","street":{"id":1817903,"name":"On or near Conigre Hill"},"longitude":"-2.253905"},"context":"","outcome_status":{"category":"Unable to prosecute suspect","date":"2025-05"},"persistent_id":"95c7cda3c57e72eb01f40e97a98825f9bd69a4f40fa49d7bb4bd959144b3f9db","id":127400905,"location_subtype":"","month":"2025-04"},{"category":"violent-crime","location_type":"Force","location":{"latitude":"51.351528","street":{"id":1817816,"name":"On or near Bear Close"},"longitude":"-2.261697"},"context":"","outcome_status":{"category":"Further investigation is not in the public interest","date":"2025-05"},"persistent_id":"133ae61bf20d74f72828fc39b642c98358bc001a9bf225270244b6d262d7c09a","id":127404606,"location_subtype":"","month":"2025-04"},{"category":"violent-crime","location_type":"Force","location":{"latitude":"51.342265","street":{"id":1818004,"name":"On or near Downavon"},"longitude":"-2.245478"},"context":"","outcome_status":{"category":"Unable to prosecute suspect","date":"2025-05"},"persistent_id":"92f3519194ecf67bae89331814570a01f9b4acea6b4dcc04dc73f2d344ab258b","id":127405775,"location_subtype":"","month":"2025-04"},{"category":"violent-crime","location_type":"Force","location":{"latitude":"51.341319","street":{"id":1817930,"name":"On or near Kennet Gardens"},"longitude":"-2.251000"},"context":"","outcome_status":{"category":"Unable to prosecute suspect","date":"2025-08"},"persistent_id":"70a7eddf02a6ed5fb8a5571bdb3af0cc43ea97ae0c16418bc549ab74784fe6d6","id":127397289,"location_subtype":"","month":"2025-04"},{"category":"violent-crime","location_type":"Force","location":{"latitude":"51.339601","street":{"id":1817933,"name":"On or near Parking Area"},"longitude":"-2.251020"},"context":"","outcome_status":{"category":"Further investigation is not in the public interest","date":"2025-05"},"persistent_id":"50fa77f1a38ef88dce9bf4438d5853731ddaadc6f49a1306ca54a7c14a6b560a","id":127400412,"location_subtype":"","month":"2025-04"},{"category":"violent-crime","location_type":"Force","location":{"latitude":"51.350693","street":{"id":1817864,"name":"On or near Elmfield"},"longitude":"-2.257068"},"context":"","outcome_status":{"category":"Investigation complete; no suspect identified","date":"2025-10"},"persistent_id":"c841ed97e76bb8148db78f7ddf820aa65e59baff7951cf430cc2bf7416369a50","id":127397944,"location_subtype":"","month":"2025-04"},{"category":"violent-crime","location_type":"Force","location":{"latitude":"51.345765","street":{"id":1817954,"name":"On or near Bridge Street"},"longitude":"-2.248871"},"context":"","outcome_status":{"category":"Status update unavailable","date":"2025-08"},"persistent_id":"8042c399315266092df91e0c2a7f46a983638f92cd22f91af1290ccb60ee164a","id":127406720,"location_subtype":"","month":"2025-04"},{"category":"violent-crime","location_type":"Force","location":{"latitude":"51.353282","street":{"id":1817806,"name":"On or near The Old Batch"},"longitude":"-2.261448"},"context":"","outcome_status":{"category":"Unable to prosecute suspect","date":"2025-07"},"persistent_id":"be8f40812a040751e346a91ec00fef9a41210f7e7c1f23748db926a6c68532da","id":127403225,"location_subtype":"","month":"2025-04"}]