[{"category":"anti-social-behaviour","location_type":"Force","location":{"latitude":"51.208385","street":{"id":2275862,"name":"On or near Priest Row"},"longitude":"-2.649796"},"context":"","outcome_status":null,"persistent_id":"","id":129955217,"location_subtype":"","month":"2025-07"},{"category":"anti-social-behaviour","location_type":"Force","location":{"latitude":"51.206358","street":{"id":2275785,"name":"On or near Supermarket"},"longitude":"-2.652115"},"context":"","outcome_status":null,"persistent_id":"","id":129956743,"location_subtype":"","month":"2025-07"},{"category":"anti-social-behaviour","location_type":"Force","location":{"latitude":"51.205681","street":{"id":2275649,"name":"On or near Sheldon Drive"},"longitude":"-2.655899"},"context":"","outcome_status":null,"persistent_id":"","id":129957163,"location_subtype":"","month":"2025-07"},{"category":"anti-social-behaviour","location_type":"Force","location":{"latitude":"51.206358","street":{"id":2275785,"name":"On or near Supermarket"},"longitude":"-2.652115"},"context":"","outcome_status":null,"persistent_id":"","id":129957051,"location_subtype":"","month":"2025-07"},{"category":"anti-social-behaviour","location_type":"Force","location":{"latitude":"51.209470","street":{"id":2275713,"name":"On or near A39"},"longitude":"-2.653619"},"context":"","outcome_status":null,"persistent_id":"","id":129956690,"location_subtype":"","month":"2025-07"},{"category":"anti-social-behaviour","location_type":"Force","location":{"latitude":"51.209417","street":{"id":2276027,"name":"On or near Parking Area"},"longitude":"-2.645273"},"context":"","outcome_status":null,"persistent_id":"","id":129956321,"location_subtype":"","month":"2025-07"},{"category":"anti-social-behaviour","location_type":"Force","location":{"latitude":"51.200700","street":{"id":2275804,"name":"On or near Moss Close"},"longitude":"-2.650804"},"context":"","outcome_status":null,"persistent_id":"","id":129955759,"location_subtype":"","month":"2025-07"},{"category":"anti-social-behaviour","location_type":"Force","location":{"latitude":"51.210158","street":{"id":2275782,"name":"On or near Parking Area"},"longitude":"-2.651267"},"context":"","outcome_status":null,"persistent_id":"","id":129954919,"location_subtype":"","month":"2025-07"},{"category":"burglary","location_type":"Force","location":{"latitude":"51.201759","street":{"id":2275696,"name":"On or near Wand Road"},"longitude":"-2.654426"},"context":"","outcome_status":{"category":"Status update unavailable","date":"2025-11"},"persistent_id":"e3ff2ca5635353182d36acd742aa37f43e3256c59e0b955fff988eb05f70121b","id":129967287,"location_subtype":"","month":"2025-07"},{"category":"burglary","location_type":"Force","location":{"latitude":"51.210849","street":{"id":2275257,"name":"On or near Wheeler Grove"},"longitude":"-2.665822"},"context":"","outcome_status":{"category":"Status update unavailable","date":"2025-11"},"persistent_id":"423ebb135e6fe9ca6452c2743a9eea6db84acdeb07ceb7dda7bfed7a5b304941","id":129969849,"location_subtype":"","month":"2025-07"},{"category":"criminal-damage-arson","location_type":"Force","location":{"latitude":"51.208643","street":{"id":2275980,"name":"On or near High Street"},"longitude":"-2.647166"},"context":"","outcome_status":{"category":"Unable to prosecute suspect","date":"2025-08"},"persistent_id":"278a8e63b3d00462fe4d2a63aff5d3f754b3dea5ace959d203474714c97ac69f","id":129964055,"location_subtype":"","month":"2025-07"},{"category":"criminal-damage-arson","location_type":"Force","location":{"latitude":"51.209260","street":{"id":2275660,"name":"On or near A371"},"longitude":"-2.655749"},"context":"","outcome_status":{"category":"Status update unavailable","date":"2025-11"},"persistent_id":"1bd840661c489075dbf96bab05884f7beee33e8a40b7c814c8101ad6eec11a31","id":129972408,"location_subtype":"","month":"2025-07"},{"category":"criminal-damage-arson","location_type":"Force","location":{"latitude":"51.205921","street":{"id":2275573,"name":"On or near Barley Close"},"longitude":"-2.657964"},"context":"","outcome_status":{"category":"Investigation complete; no suspect identified","date":"2025-07"},"persistent_id":"1e74e0e36e7cbca9f9b316127ba16644b13ada7fc2796ce5bee75d9662284b06","id":129961063,"location_subtype":"","month":"2025-07"},{"category":"criminal-damage-arson","location_type":"Force","location":{"latitude":"51.205359","street":{"id":2275867,"name":"On or near Southover"},"longitude":"-2.649052"},"context":"","outcome_status":{"category":"Status update unavailable","date":"2025-11"},"persistent_id":"05cd34e30c8bd8f4db2e452f7fbe209a5762226518553b92192a5f7b047ffde1","id":129960876,"location_subtype":"","month":"2025-07"},{"category":"criminal-damage-arson","location_type":"Force","location":{"latitude":"51.208810","street":{"id":2276054,"name":"On or near Townhall Buildings"},"longitude":"-2.644620"},"context":"","outcome_status":{"category":"Status update unavailable","date":"2025-11"},"persistent_id":"2717996c7a5dbac3a80089104ffd513e6f1ea99e5df16918fb0b7a7306dfb92b","id":129963461,"location_subtype":"","month":"2025-07"},{"category":"criminal-damage-arson","location_type":"Force","location":{"latitude":"51.209260","street":{"id":2275660,"name":"On or near A371"},"longitude":"-2.655749"},"context":"","outcome_status":{"category":"Status update unavailable","date":"2025-11"},"persistent_id":"9d6ba87d6f1cd1ac8864892304ef77c66359ff45f2946d327403810eb20d5feb","id":129966769,"location_subtype":"","month":"2025-07"},{"category":"criminal-damage-arson","location_type":"Force","location":{"latitude":"51.206145","street":{"id":2275919,"name":"On or near Becket Place"},"longitude":"-2.648433"},"context":"","outcome_status":{"category":"Status update unavailable","date":"2025-11"},"persistent_id":"c6859884dcca7b529a82d6e2568ea881151cedcdea69dcc8cd20ead87aca07f2","id":129965441,"location_subtype":"","month":"2025-07"},{"category":"drugs","location_type":"Force","location":{"latitude":"51.215321","street":{"id":2275215,"name":"On or near Arthurs Point Drive"},"longitude":"-2.666788"},"context":"","outcome_status":{"category":"Further action is not in the public interest","date":"2025-07"},"persistent_id":"abdc9c710da1aa20c01b38b25e2786aec258ee6b555d88da15b7e5872f98608c","id":129960834,"location_subtype":"","month":"2025-07"},{"category":"other-theft","location_type":"Force","location":{"latitude":"51.206358","street":{"id":2275785,"name":"On or near Supermarket"},"longitude":"-2.652115"},"context":"","outcome_status":{"category":"Unable to prosecute suspect","date":"2025-12"},"persistent_id":"72bfc2c48c5ffb32e1217566bded6cddf9b4bfaad1ef2859fafef40b42877561","id":129964569,"location_subtype":"","month":"2025-07"},{"category":"other-theft","location_type":"Force","location":{"latitude":"51.208385","street":{"id":2275862,"name":"On or near Priest Row"},"longitude":"-2.649796"},"context":"","outcome_status":{"category":"Status update unavailable","date":"2025-11"},"persistent_id":"52e219d5c548acebbdffdab3befe40b61e7ebc5c02432ea33eee7f4fb7b2ba74","id":129966644,"location_subtype":"","month":"2025-07"},{"category":"other-theft","location_type":"Force","location":{"latitude":"51.213404","street":{"id":2276350,"name":"On or near Petrol Station"},"longitude":"-2.634863"},"context":"","outcome_status":{"category":"Status update unavailable","date":"2025-11"},"persistent_id":"5581db3ae54e1cfe6526fbc530a38803bca576dea878a8556f7efdc140207ed6","id":129965104,"location_subtype":"","month":"2025-07"},{"category":"other-theft","location_type":"Force","location":{"latitude":"51.206358","street":{"id":2275785,"name":"On or near Supermarket"},"longitude":"-2.652115"},"context":"","outcome_status":{"category":"Status update unavailable","date":"2025-11"},"persistent_id":"112e26b0bdd097790c162f357c15330287ef177f9ee789fd8d1c6de32a6526cb","id":129965070,"location_subtype":"","month":"2025-07"},{"category":"other-theft","location_type":"Force","location":{"latitude":"51.206358","street":{"id":2275785,"name":"On or near Supermarket"},"longitude":"-2.652115"},"context":"","outcome_status":{"category":"Status update unavailable","date":"2025-11"},"persistent_id":"a21f787a94904ff3fa146c856e093d8a1d5e22cebd358a0062807529054dd1bb","id":129960743,"location_subtype":"","month":"2025-07"},{"category":"other-theft","location_type":"Force","location":{"latitude":"51.206358","street":{"id":2275785,"name":"On or near Supermarket"},"longitude":"-2.652115"},"context":"","outcome_status":{"category":"Status update unavailable","date":"2025-11"},"persistent_id":"7461357f4e7b5005d44f2526274ed0d87c73fea9b49a371b3f66fb89a7fc493f","id":129962002,"location_subtype":"","month":"2025-07"},{"category":"other-theft","location_type":"Force","location":{"latitude":"51.206358","street":{"id":2275785,"name":"On or near Supermarket"},"longitude":"-2.652115"},"context":"","outcome_status":{"category":"Status update unavailable","date":"2025-11"},"persistent_id":"4d32c6cdef5df19c9f2aae95a8077bc85d522e327f0d338d350f160f790975d2","id":129962716,"location_subtype":"","month":"2025-07"},{"category":"other-theft","location_type":"Force","location":{"latitude":"51.213404","street":{"id":2276350,"name":"On or near Petrol Station"},"longitude":"-2.634863"},"context":"","outcome_status":{"category":"Investigation complete; no suspect identified","date":"2025-07"},"persistent_id":"e6e229c6f949ffd0baa01d9326cac5d4bc7ce3b259e8912be014f374ec821fe9","id":129969655,"location_subtype":"","month":"2025-07"},{"category":"public-order","location_type":"Force","location":{"latitude":"51.208643","street":{"id":2275980,"name":"On or near High Street"},"longitude":"-2.647166"},"context":"","outcome_status":{"category":"Investigation complete; no suspect identified","date":"2025-07"},"persistent_id":"46ebdf7b07657190be9ce9daa0b012b1dea916fc78a72e316f4feb9cbc01f537","id":129958068,"location_subtype":"","month":"2025-07"},{"category":"public-order","location_type":"Force","location":{"latitude":"51.207351","street":{"id":2275781,"name":"On or near Bus/coach Station"},"longitude":"-2.651328"},"context":"","outcome_status":{"category":"Unable to prosecute suspect","date":"2025-07"},"persistent_id":"30ac6976189bf2cc3d1e526ae3ded02a17b2ae0863cc0f7723cca4a6829cbcd0","id":129967481,"location_subtype":"","month":"2025-07"},{"category":"public-order","location_type":"Force","location":{"latitude":"51.207575","street":{"id":2275968,"name":"On or near South Street"},"longitude":"-2.646779"},"context":"","outcome_status":{"category":"Status update unavailable","date":"2025-11"},"persistent_id":"52e83d7811321b5df9aac73fa776376d0da2d05153f5b902bb7aacb1471638a8","id":129957596,"location_subtype":"","month":"2025-07"},{"category":"public-order","location_type":"Force","location":{"latitude":"51.207584","street":{"id":2275927,"name":"On or near Broad Street"},"longitude":"-2.648382"},"context":"","outcome_status":{"category":"Unable to prosecute suspect","date":"2025-08"},"persistent_id":"f1caabb34bba433c9920a3d94cd3d25afdbcb6c67fbd1d69be3c82de4aae3b67","id":129967160,"location_subtype":"","month":"2025-07"},{"category":"public-order","location_type":"Force","location":{"latitude":"51.209047","street":{"id":2275903,"name":"On or near Parking Area"},"longitude":"-2.648889"},"context":"","outcome_status":{"category":"Status update unavailable","date":"2025-11"},"persistent_id":"fc4a057935e5453d87154fe5726f958ecc51c830382da9a0553736fcb285da57","id":129968517,"location_subtype":"","month":"2025-07"},{"category":"public-order","location_type":"Force","location":{"latitude":"51.208922","street":{"id":2275780,"name":"On or near Petrol Station"},"longitude":"-2.651865"},"context":"","outcome_status":{"category":"Status update unavailable","date":"2025-11"},"persistent_id":"d80ba1791a08a07693a57267b550326ac5be7142decad75ea75c48d944bfc242","id":129965600,"location_subtype":"","month":"2025-07"},{"category":"public-order","location_type":"Force","location":{"latitude":"51.202370","street":{"id":2275629,"name":"On or near Glastonbury Road"},"longitude":"-2.656167"},"context":"","outcome_status":{"category":"Unable to prosecute suspect","date":"2025-07"},"persistent_id":"c2ba3bb85b784123613c944e3a5f512803dfb0ff82111e83c6bf8601e1d80455","id":129962575,"location_subtype":"","month":"2025-07"},{"category":"robbery","location_type":"Force","location":{"latitude":"51.208063","street":{"id":2276061,"name":"On or near Sports/recreation Area"},"longitude":"-2.644038"},"context":"","outcome_status":{"category":"Unable to prosecute suspect","date":"2025-07"},"persistent_id":"2f1bd283794abf4a163fe7c80b0dd8d0494eb053413c9626f075007754a8aad6","id":129961461,"location_subtype":"","month":"2025-07"},{"category":"shoplifting","location_type":"Force","location":{"latitude":"51.206114","street":{"id":2275405,"name":"On or near Bignal Rand Close"},"longitude":"-2.661974"},"context":"","outcome_status":{"category":"Status update unavailable","date":"2025-11"},"persistent_id":"539677ce0d22c4ccb176e7893022ba7f1fe7f34b313a6ab3414463ba3cfd345c","id":129967459,"location_subtype":"","month":"2025-07"},{"category":"shoplifting","location_type":"Force","location":{"latitude":"51.209417","street":{"id":2276027,"name":"On or near Parking Area"},"longitude":"-2.645273"},"context":"","outcome_status":{"category":"Status update unavailable","date":"2025-11"},"persistent_id":"5bd085e0ebc2cf2fdeadef53d60d8993ed7d9aaa0d2349f39e55cc8aed51aa17","id":129959485,"location_subtype":"","month":"2025-07"},{"category":"shoplifting","location_type":"Force","location":{"latitude":"51.205821","street":{"id":2275736,"name":"On or near West Street"},"longitude":"-2.653324"},"context":"","outcome_status":{"category":"Status update unavailable","date":"2025-11"},"persistent_id":"53b85791c8f59f33e40f89fea919dbf887e5f2139a8fdd5e1664b56f29ce08b0","id":129958922,"location_subtype":"","month":"2025-07"},{"category":"shoplifting","location_type":"Force","location":{"latitude":"51.208643","street":{"id":2275980,"name":"On or near High Street"},"longitude":"-2.647166"},"context":"","outcome_status":{"category":"Status update unavailable","date":"2025-11"},"persistent_id":"836fa7b06c9f60af990744e99bab88dbcc990d65c5e6b386e07aa434eb542684","id":129962960,"location_subtype":"","month":"2025-07"},{"category":"shoplifting","location_type":"Force","location":{"latitude":"51.206358","street":{"id":2275785,"name":"On or near Supermarket"},"longitude":"-2.652115"},"context":"","outcome_status":{"category":"Further investigation is not in the public interest","date":"2025-07"},"persistent_id":"bd448e20eac0c33cc637855c42d814fe6586c027f024da3706761e0b4168d6c4","id":129964403,"location_subtype":"","month":"2025-07"},{"category":"shoplifting","location_type":"Force","location":{"latitude":"51.208643","street":{"id":2275980,"name":"On or near High Street"},"longitude":"-2.647166"},"context":"","outcome_status":{"category":"Status update unavailable","date":"2025-11"},"persistent_id":"0035751fd575f18dcef9a90839561ed6f67a9a3d705602f339d9cb7bf8431b58","id":129968638,"location_subtype":"","month":"2025-07"},{"category":"shoplifting","location_type":"Force","location":{"latitude":"51.206358","street":{"id":2275785,"name":"On or near Supermarket"},"longitude":"-2.652115"},"context":"","outcome_status":{"category":"Status update unavailable","date":"2025-11"},"persistent_id":"461259400be94f94b9456904a995c2a8107771c0df1cf91de7735ab2462da648","id":129969660,"location_subtype":"","month":"2025-07"},{"category":"shoplifting","location_type":"Force","location":{"latitude":"51.205359","street":{"id":2275867,"name":"On or near Southover"},"longitude":"-2.649052"},"context":"","outcome_status":{"category":"Unable to prosecute suspect","date":"2025-12"},"persistent_id":"fac9d55c8ec3cecd3c2699fd4822c5d2fe90ce678f1db8221c8f193a2d38c512","id":129960445,"location_subtype":"","month":"2025-07"},{"category":"shoplifting","location_type":"Force","location":{"latitude":"51.206358","street":{"id":2275785,"name":"On or near Supermarket"},"longitude":"-2.652115"},"context":"","outcome_status":{"category":"Further investigation is not in the public interest","date":"2025-07"},"persistent_id":"20084a97cfca1f58b9d8adf12ab1be2035f12e9d690d770b34a2e2cdb4ae7daa","id":129964475,"location_subtype":"","month":"2025-07"},{"category":"vehicle-crime","location_type":"Force","location":{"latitude":"51.209787","street":{"id":2275422,"name":"On or near Barnard Court"},"longitude":"-2.661254"},"context":"","outcome_status":{"category":"Investigation complete; no suspect identified","date":"2025-07"},"persistent_id":"c9ad80a4db5008f1e0d37c493d322d42618c11e7a7b6359e2c1189e2097a73ff","id":129958898,"location_subtype":"","month":"2025-07"},{"category":"violent-crime","location_type":"Force","location":{"latitude":"51.214154","street":{"id":2276372,"name":"On or near Paray Drive"},"longitude":"-2.634243"},"context":"","outcome_status":{"category":"Status update unavailable","date":"2025-11"},"persistent_id":"2275d064fb6e36efe8e914004959a58394e242d0bdc3844c77f7a64b32fc5c1b","id":129964050,"location_subtype":"","month":"2025-07"},{"category":"violent-crime","location_type":"Force","location":{"latitude":"51.209417","street":{"id":2276027,"name":"On or near Parking Area"},"longitude":"-2.645273"},"context":"","outcome_status":{"category":"Unable to prosecute suspect","date":"2025-07"},"persistent_id":"ddadd46b3d1ab59bbebfe9c24ad29ff8f5693d425f6be5184e6280108bb6d90e","id":129968797,"location_subtype":"","month":"2025-07"},{"category":"violent-crime","location_type":"Force","location":{"latitude":"51.209417","street":{"id":2276027,"name":"On or near Parking Area"},"longitude":"-2.645273"},"context":"","outcome_status":{"category":"Unable to prosecute suspect","date":"2025-07"},"persistent_id":"783346805467ce4f0a607de31abdc202e0c6f83c09f18549174265bc6afeecd8","id":129968636,"location_subtype":"","month":"2025-07"},{"category":"violent-crime","location_type":"Force","location":{"latitude":"51.209417","street":{"id":2276027,"name":"On or near Parking Area"},"longitude":"-2.645273"},"context":"","outcome_status":{"category":"Status update unavailable","date":"2025-11"},"persistent_id":"0f5eebc2046e105553d504dbce4bce38b0b5b436c8946fbfadea5c5904ac8bc6","id":129968792,"location_subtype":"","month":"2025-07"},{"category":"violent-crime","location_type":"Force","location":{"latitude":"51.212876","street":{"id":2275662,"name":"On or near Kennion Road"},"longitude":"-2.655557"},"context":"","outcome_status":{"category":"Unable to prosecute suspect","date":"2025-07"},"persistent_id":"832860a2aaabc3be8de936f6c82485bc0ad3044a2e51f321ee129b6ab287e6f1","id":129969343,"location_subtype":"","month":"2025-07"},{"category":"violent-crime","location_type":"Force","location":{"latitude":"51.214980","street":{"id":2275024,"name":"On or near Sports/recreation Area"},"longitude":"-2.673159"},"context":"","outcome_status":{"category":"Unable to prosecute suspect","date":"2025-07"},"persistent_id":"305307f1fd870851b8d265a39cf6b576bc03c45956053513ef8b0472311f7840","id":129963853,"location_subtype":"","month":"2025-07"},{"category":"violent-crime","location_type":"Force","location":{"latitude":"51.201088","street":{"id":2275706,"name":"On or near Wilson Close"},"longitude":"-2.653787"},"context":"","outcome_status":{"category":"Unable to prosecute suspect","date":"2025-09"},"persistent_id":"01f8ce682601ebadc3f2a1092cbc0384623d1d4cbdd00e7437e710655b4f2bca","id":129963193,"location_subtype":"","month":"2025-07"},{"category":"violent-crime","location_type":"Force","location":{"latitude":"51.209260","street":{"id":2275660,"name":"On or near A371"},"longitude":"-2.655749"},"context":"","outcome_status":{"category":"Status update unavailable","date":"2025-11"},"persistent_id":"0a940e06705cf983dc7a22a6cf56d56ccfc890efe890500fddb617750d93dca0","id":129970689,"location_subtype":"","month":"2025-07"},{"category":"violent-crime","location_type":"Force","location":{"latitude":"51.205423","street":{"id":2275757,"name":"On or near Webb's Close"},"longitude":"-2.652174"},"context":"","outcome_status":{"category":"Investigation complete; no suspect identified","date":"2025-07"},"persistent_id":"479f60f5e3156c837215d94e53bf9466064201acb7ebc0f3023adbaab470ae69","id":129972102,"location_subtype":"","month":"2025-07"},{"category":"violent-crime","location_type":"Force","location":{"latitude":"51.208884","street":{"id":2275186,"name":"On or near A371"},"longitude":"-2.668184"},"context":"","outcome_status":{"category":"Unable to prosecute suspect","date":"2025-08"},"persistent_id":"e2c0e13f7649da0010a31ffaccc8b8fb3b851b756ef349ef125452a1750db795","id":129972328,"location_subtype":"","month":"2025-07"},{"category":"violent-crime","location_type":"Force","location":{"latitude":"51.208884","street":{"id":2275186,"name":"On or near A371"},"longitude":"-2.668184"},"context":"","outcome_status":{"category":"Unable to prosecute suspect","date":"2025-08"},"persistent_id":"cb75dfe3dc82c760e24654d5ede51b9bd729eebd1a07b023cba84e4aa6d3cc7a","id":129972336,"location_subtype":"","month":"2025-07"},{"category":"violent-crime","location_type":"Force","location":{"latitude":"51.208884","street":{"id":2275186,"name":"On or near A371"},"longitude":"-2.668184"},"context":"","outcome_status":{"category":"Unable to prosecute suspect","date":"2025-08"},"persistent_id":"51d255f6084bc9651f01a0db041fb2c59da40752fa93034315cf452618f7a5bc","id":129972350,"location_subtype":"","month":"2025-07"},{"category":"violent-crime","location_type":"Force","location":{"latitude":"51.215676","street":{"id":2275313,"name":"On or near Penleigh Road"},"longitude":"-2.664445"},"context":"","outcome_status":{"category":"Status update unavailable","date":"2025-11"},"persistent_id":"88ae33d7043708680fd096d576611ab9874f47b1c8968ed1cd4eda9f1a7c094e","id":129972372,"location_subtype":"","month":"2025-07"},{"category":"violent-crime","location_type":"Force","location":{"latitude":"51.208121","street":{"id":2275399,"name":"On or near Coronation Road"},"longitude":"-2.661631"},"context":"","outcome_status":{"category":"Unable to prosecute suspect","date":"2025-08"},"persistent_id":"f10519fbe70d0e8e3c4e028f24ac62e459d5af84aaa73e28acb8846a0bd6224a","id":129962343,"location_subtype":"","month":"2025-07"},{"category":"violent-crime","location_type":"Force","location":{"latitude":"51.208922","street":{"id":2275780,"name":"On or near Petrol Station"},"longitude":"-2.651865"},"context":"","outcome_status":{"category":"Unable to prosecute suspect","date":"2025-12"},"persistent_id":"a6d14fc1077a2b4a610888cd739166935e8071ce6f7f0921ca2dc7ebec71d096","id":129960958,"location_subtype":"","month":"2025-07"},{"category":"violent-crime","location_type":"Force","location":{"latitude":"51.215321","street":{"id":2275215,"name":"On or near Arthurs Point Drive"},"longitude":"-2.666788"},"context":"","outcome_status":{"category":"Status update unavailable","date":"2025-11"},"persistent_id":"d20895db3b2948e2266c52818ca7e06bef1e3d407d139b5b4ada350b43e07eac","id":129964659,"location_subtype":"","month":"2025-07"},{"category":"violent-crime","location_type":"Force","location":{"latitude":"51.214810","street":{"id":2276103,"name":"On or near Stoberry Crescent"},"longitude":"-2.642556"},"context":"","outcome_status":{"category":"Unable to prosecute suspect","date":"2025-07"},"persistent_id":"459b995de93933314748059cce255c7f07814a803dbc8b7a5767b53924c89025","id":129960723,"location_subtype":"","month":"2025-07"},{"category":"violent-crime","location_type":"Force","location":{"latitude":"51.215321","street":{"id":2275215,"name":"On or near Arthurs Point Drive"},"longitude":"-2.666788"},"context":"","outcome_status":{"category":"Status update unavailable","date":"2025-11"},"persistent_id":"30e71bd3c5656c02a36ca981bf8410fdd1010f1fa6fbb79316a673e768932f5e","id":129960680,"location_subtype":"","month":"2025-07"},{"category":"violent-crime","location_type":"Force","location":{"latitude":"51.215483","street":{"id":2275947,"name":"On or near Old Bristol Road"},"longitude":"-2.645987"},"context":"","outcome_status":{"category":"Unable to prosecute suspect","date":"2025-10"},"persistent_id":"b3e827d4506cedb3aceb186b137041c63669e4d42d6f6349e28ed8d155cb53b7","id":129965178,"location_subtype":"","month":"2025-07"},{"category":"violent-crime","location_type":"Force","location":{"latitude":"51.215321","street":{"id":2275215,"name":"On or near Arthurs Point Drive"},"longitude":"-2.666788"},"context":"","outcome_status":{"category":"Status update unavailable","date":"2025-11"},"persistent_id":"df73d6afb73896f74e263edbab13f0f6126e0fab11030500985539ede6453da1","id":129960449,"location_subtype":"","month":"2025-07"},{"category":"violent-crime","location_type":"Force","location":{"latitude":"51.202370","street":{"id":2275629,"name":"On or near Glastonbury Road"},"longitude":"-2.656167"},"context":"","outcome_status":{"category":"Status update unavailable","date":"2025-11"},"persistent_id":"933737a9854c6145953bd52647cbae6593d58bb0c61a1729bdd38c3d27f88bb5","id":129967856,"location_subtype":"","month":"2025-07"},{"category":"violent-crime","location_type":"Force","location":{"latitude":"51.205423","street":{"id":2275757,"name":"On or near Webb's Close"},"longitude":"-2.652174"},"context":"","outcome_status":{"category":"Unable to prosecute suspect","date":"2025-07"},"persistent_id":"63d06e14835c3f6e2d4c809e19d13ab5f7f566b10339676060f67f036d56bffe","id":129972069,"location_subtype":"","month":"2025-07"},{"category":"violent-crime","location_type":"Force","location":{"latitude":"51.210260","street":{"id":2275377,"name":"On or near Perkins Court"},"longitude":"-2.663437"},"context":"","outcome_status":{"category":"Unable to prosecute suspect","date":"2025-07"},"persistent_id":"c1021cf6bd4df186e07b195350a78ef5cf6a4bad14e82ed6f6e2dbab4acf3abe","id":129958840,"location_subtype":"","month":"2025-07"},{"category":"violent-crime","location_type":"Force","location":{"latitude":"51.210260","street":{"id":2275377,"name":"On or near Perkins Court"},"longitude":"-2.663437"},"context":"","outcome_status":{"category":"Unable to prosecute suspect","date":"2025-07"},"persistent_id":"378224ac20f7ed6c2b33a206935bc4d97111ec1ee056d6559c7e4b7c638e8526","id":129958845,"location_subtype":"","month":"2025-07"},{"category":"violent-crime","location_type":"Force","location":{"latitude":"51.210260","street":{"id":2275377,"name":"On or near Perkins Court"},"longitude":"-2.663437"},"context":"","outcome_status":{"category":"Unable to prosecute suspect","date":"2025-07"},"persistent_id":"ca0e3d9fe00374b5cc87a29673586ca8c5a3975ba1f8577f9dc8d11f249ed809","id":129958849,"location_subtype":"","month":"2025-07"},{"category":"violent-crime","location_type":"Force","location":{"latitude":"51.205810","street":{"id":2275525,"name":"On or near Nightingale Close"},"longitude":"-2.660009"},"context":"","outcome_status":{"category":"Unable to prosecute suspect","date":"2025-07"},"persistent_id":"0c5ae9560d0ec30855fde315f36a114ed030b9edcd1740eb1f3f62ff20e7d4af","id":129959837,"location_subtype":"","month":"2025-07"},{"category":"violent-crime","location_type":"Force","location":{"latitude":"51.216057","street":{"id":2275389,"name":"On or near Griffin Close"},"longitude":"-2.662403"},"context":"","outcome_status":{"category":"Unable to prosecute suspect","date":"2025-07"},"persistent_id":"2c3ac48da334132a4941000f20102ae6112e8220a678204f61c03c9384b0ba11","id":129960044,"location_subtype":"","month":"2025-07"},{"category":"violent-crime","location_type":"Force","location":{"latitude":"51.209459","street":{"id":2275311,"name":"On or near Algar Court"},"longitude":"-2.663554"},"context":"","outcome_status":{"category":"Unable to prosecute suspect","date":"2025-07"},"persistent_id":"26b1ae833eab88364a43c9cab2b02052f9ce61ec7a657a0a4c5460b12a08c820","id":129971195,"location_subtype":"","month":"2025-07"},{"category":"violent-crime","location_type":"Force","location":{"latitude":"51.208884","street":{"id":2275186,"name":"On or near A371"},"longitude":"-2.668184"},"context":"","outcome_status":{"category":"Court result unavailable","date":"2026-01"},"persistent_id":"c483e6ab06b05eb910f0dcc99ac32b048b8e73fead3213fb8ee842d67a5742bb","id":129960814,"location_subtype":"","month":"2025-07"},{"category":"violent-crime","location_type":"Force","location":{"latitude":"51.213335","street":{"id":2275564,"name":"On or near Mary Road"},"longitude":"-2.657081"},"context":"","outcome_status":{"category":"Awaiting court outcome","date":"2025-12"},"persistent_id":"cf830c90bfa95b228134e3ed383e5b1338aa2ef390616480b107577d06c514e2","id":129971143,"location_subtype":"","month":"2025-07"},{"category":"violent-crime","location_type":"Force","location":{"latitude":"51.201309","street":{"id":2275771,"name":"On or near Beadon Drive"},"longitude":"-2.651285"},"context":"","outcome_status":{"category":"Unable to prosecute suspect","date":"2026-01"},"persistent_id":"ce045038c2173307e7ffbcb43ad91fe6a47d98b88d83d37f3cf9f010bc8fabe1","id":129966495,"location_subtype":"","month":"2025-07"},{"category":"violent-crime","location_type":"Force","location":{"latitude":"51.208884","street":{"id":2275186,"name":"On or near A371"},"longitude":"-2.668184"},"context":"","outcome_status":{"category":"Unable to prosecute suspect","date":"2025-07"},"persistent_id":"b994f1bdf2a1914c92edc0a6c0859f5bcab2249c96a728efa04405ccb3a107c7","id":129957766,"location_subtype":"","month":"2025-07"},{"category":"violent-crime","location_type":"Force","location":{"latitude":"51.215885","street":{"id":2275298,"name":"On or near Nimrod Way"},"longitude":"-2.664090"},"context":"","outcome_status":{"category":"Unable to prosecute suspect","date":"2025-07"},"persistent_id":"dab241a42899dd1c5596f544aef7d38590466e98b84faa25566e34401dc71dae","id":129967375,"location_subtype":"","month":"2025-07"},{"category":"violent-crime","location_type":"Force","location":{"latitude":"51.206705","street":{"id":2275482,"name":"On or near Burcott Road"},"longitude":"-2.660752"},"context":"","outcome_status":{"category":"Status update unavailable","date":"2025-11"},"persistent_id":"d82ba0c2aa5d0c9e7b23d852f86437f1334bd014ae2dec1ccc82caa4e8c6e9a6","id":129961919,"location_subtype":"","month":"2025-07"},{"category":"violent-crime","location_type":"Force","location":{"latitude":"51.208643","street":{"id":2275980,"name":"On or near High Street"},"longitude":"-2.647166"},"context":"","outcome_status":{"category":"Status update unavailable","date":"2025-11"},"persistent_id":"df85c2abf814f319a3853ab37f1e2919ceec30663c42de22c2915f0f26026571","id":129966946,"location_subtype":"","month":"2025-07"},{"category":"violent-crime","location_type":"Force","location":{"latitude":"51.209852","street":{"id":2275955,"name":"On or near Sadler Street"},"longitude":"-2.646410"},"context":"","outcome_status":{"category":"Status update unavailable","date":"2025-11"},"persistent_id":"4ceb8e18ac1cf169ac1dcda178a25158116053ba543c97974867bc902e4b4e81","id":129966771,"location_subtype":"","month":"2025-07"},{"category":"violent-crime","location_type":"Force","location":{"latitude":"51.206368","street":{"id":2276013,"name":"On or near Silver Street"},"longitude":"-2.645416"},"context":"","outcome_status":{"category":"Status update unavailable","date":"2025-11"},"persistent_id":"c0cfb9a8a3515ebdde39af88cad5dfe024098e18e4b5a0f24b1e3436216b9147","id":129968044,"location_subtype":"","month":"2025-07"},{"category":"violent-crime","location_type":"Force","location":{"latitude":"51.208643","street":{"id":2275980,"name":"On or near High Street"},"longitude":"-2.647166"},"context":"","outcome_status":{"category":"Status update unavailable","date":"2025-11"},"persistent_id":"d92e65aa0f29ad985b8e2ed889b73bd34e3299af152fcc03a6bd209238f618d2","id":129968455,"location_subtype":"","month":"2025-07"},{"category":"other-crime","location_type":"Force","location":{"latitude":"51.206432","street":{"id":2275836,"name":"On or near Nightclub"},"longitude":"-2.650227"},"context":"","outcome_status":{"category":"Status update unavailable","date":"2025-11"},"persistent_id":"94695ed9ef32018782e4e30c4b610eed474881317e01511f7f340ddb873d2bd2","id":129966620,"location_subtype":"","month":"2025-07"}]