[{"category":"anti-social-behaviour","location_type":"Force","location":{"latitude":"51.147255","street":{"id":2274185,"name":"On or near Market Place"},"longitude":"-2.717874"},"context":"","outcome_status":null,"persistent_id":"","id":131195431,"location_subtype":"","month":"2025-09"},{"category":"anti-social-behaviour","location_type":"Force","location":{"latitude":"51.144803","street":{"id":2274168,"name":"On or near Magdalene Close"},"longitude":"-2.718822"},"context":"","outcome_status":null,"persistent_id":"","id":131196160,"location_subtype":"","month":"2025-09"},{"category":"anti-social-behaviour","location_type":"Force","location":{"latitude":"51.147573","street":{"id":2274217,"name":"On or near Supermarket"},"longitude":"-2.715777"},"context":"","outcome_status":null,"persistent_id":"","id":131195858,"location_subtype":"","month":"2025-09"},{"category":"anti-social-behaviour","location_type":"Force","location":{"latitude":"51.155245","street":{"id":2274241,"name":"On or near Newman Close"},"longitude":"-2.715596"},"context":"","outcome_status":null,"persistent_id":"","id":131196402,"location_subtype":"","month":"2025-09"},{"category":"anti-social-behaviour","location_type":"Force","location":{"latitude":"51.142010","street":{"id":2274025,"name":"On or near Street Road"},"longitude":"-2.726941"},"context":"","outcome_status":null,"persistent_id":"","id":131196119,"location_subtype":"","month":"2025-09"},{"category":"anti-social-behaviour","location_type":"Force","location":{"latitude":"51.145882","street":{"id":2274164,"name":"On or near Mayfield Close"},"longitude":"-2.718753"},"context":"","outcome_status":null,"persistent_id":"","id":131196290,"location_subtype":"","month":"2025-09"},{"category":"anti-social-behaviour","location_type":"Force","location":{"latitude":"51.147255","street":{"id":2274185,"name":"On or near Market Place"},"longitude":"-2.717874"},"context":"","outcome_status":null,"persistent_id":"","id":131196627,"location_subtype":"","month":"2025-09"},{"category":"anti-social-behaviour","location_type":"Force","location":{"latitude":"51.147255","street":{"id":2274185,"name":"On or near Market Place"},"longitude":"-2.717874"},"context":"","outcome_status":null,"persistent_id":"","id":131195107,"location_subtype":"","month":"2025-09"},{"category":"anti-social-behaviour","location_type":"Force","location":{"latitude":"51.143635","street":{"id":2274197,"name":"On or near Fisher's Hill"},"longitude":"-2.717117"},"context":"","outcome_status":null,"persistent_id":"","id":131196338,"location_subtype":"","month":"2025-09"},{"category":"anti-social-behaviour","location_type":"Force","location":{"latitude":"51.142889","street":{"id":2274013,"name":"On or near Fawn Close"},"longitude":"-2.727298"},"context":"","outcome_status":null,"persistent_id":"","id":131196368,"location_subtype":"","month":"2025-09"},{"category":"anti-social-behaviour","location_type":"Force","location":{"latitude":"51.147255","street":{"id":2274185,"name":"On or near Market Place"},"longitude":"-2.717874"},"context":"","outcome_status":null,"persistent_id":"","id":131196839,"location_subtype":"","month":"2025-09"},{"category":"anti-social-behaviour","location_type":"Force","location":{"latitude":"51.147573","street":{"id":2274217,"name":"On or near Supermarket"},"longitude":"-2.715777"},"context":"","outcome_status":null,"persistent_id":"","id":131196525,"location_subtype":"","month":"2025-09"},{"category":"anti-social-behaviour","location_type":"Force","location":{"latitude":"51.147573","street":{"id":2274217,"name":"On or near Supermarket"},"longitude":"-2.715777"},"context":"","outcome_status":null,"persistent_id":"","id":131195227,"location_subtype":"","month":"2025-09"},{"category":"anti-social-behaviour","location_type":"Force","location":{"latitude":"51.147874","street":{"id":2274258,"name":"On or near High Street"},"longitude":"-2.715095"},"context":"","outcome_status":null,"persistent_id":"","id":131196972,"location_subtype":"","month":"2025-09"},{"category":"anti-social-behaviour","location_type":"Force","location":{"latitude":"51.147796","street":{"id":2274207,"name":"On or near Shopping Area"},"longitude":"-2.717099"},"context":"","outcome_status":null,"persistent_id":"","id":131197058,"location_subtype":"","month":"2025-09"},{"category":"anti-social-behaviour","location_type":"Force","location":{"latitude":"51.146700","street":{"id":2274082,"name":"On or near Benedict Street"},"longitude":"-2.723198"},"context":"","outcome_status":null,"persistent_id":"","id":131196885,"location_subtype":"","month":"2025-09"},{"category":"anti-social-behaviour","location_type":"Force","location":{"latitude":"51.145882","street":{"id":2274164,"name":"On or near Mayfield Close"},"longitude":"-2.718753"},"context":"","outcome_status":null,"persistent_id":"","id":131197161,"location_subtype":"","month":"2025-09"},{"category":"anti-social-behaviour","location_type":"Force","location":{"latitude":"51.148479","street":{"id":2274147,"name":"On or near Monmouth Close"},"longitude":"-2.720480"},"context":"","outcome_status":null,"persistent_id":"","id":131195175,"location_subtype":"","month":"2025-09"},{"category":"anti-social-behaviour","location_type":"Force","location":{"latitude":"51.147255","street":{"id":2274185,"name":"On or near Market Place"},"longitude":"-2.717874"},"context":"","outcome_status":null,"persistent_id":"","id":131195361,"location_subtype":"","month":"2025-09"},{"category":"anti-social-behaviour","location_type":"Force","location":{"latitude":"51.147255","street":{"id":2274185,"name":"On or near Market Place"},"longitude":"-2.717874"},"context":"","outcome_status":null,"persistent_id":"","id":131195409,"location_subtype":"","month":"2025-09"},{"category":"anti-social-behaviour","location_type":"Force","location":{"latitude":"51.147255","street":{"id":2274185,"name":"On or near Market Place"},"longitude":"-2.717874"},"context":"","outcome_status":null,"persistent_id":"","id":131195207,"location_subtype":"","month":"2025-09"},{"category":"anti-social-behaviour","location_type":"Force","location":{"latitude":"51.144890","street":{"id":2274138,"name":"On or near Oriel Drive"},"longitude":"-2.720768"},"context":"","outcome_status":null,"persistent_id":"","id":131196145,"location_subtype":"","month":"2025-09"},{"category":"anti-social-behaviour","location_type":"Force","location":{"latitude":"51.147255","street":{"id":2274185,"name":"On or near Market Place"},"longitude":"-2.717874"},"context":"","outcome_status":null,"persistent_id":"","id":131195670,"location_subtype":"","month":"2025-09"},{"category":"anti-social-behaviour","location_type":"Force","location":{"latitude":"51.147573","street":{"id":2274217,"name":"On or near Supermarket"},"longitude":"-2.715777"},"context":"","outcome_status":null,"persistent_id":"","id":131195669,"location_subtype":"","month":"2025-09"},{"category":"anti-social-behaviour","location_type":"Force","location":{"latitude":"51.147377","street":{"id":2274151,"name":"On or near Parking Area"},"longitude":"-2.719920"},"context":"","outcome_status":null,"persistent_id":"","id":131195584,"location_subtype":"","month":"2025-09"},{"category":"burglary","location_type":"Force","location":{"latitude":"51.147762","street":{"id":2274100,"name":"On or near Bella View Gardens"},"longitude":"-2.723157"},"context":"","outcome_status":{"category":"Investigation complete; no suspect identified","date":"2025-10"},"persistent_id":"f05b5945bde8f320da550d5e6a0a78b7a88373e6c255ddd4d113cfc90d1f59e8","id":131203241,"location_subtype":"","month":"2025-09"},{"category":"criminal-damage-arson","location_type":"Force","location":{"latitude":"51.149219","street":{"id":2274156,"name":"On or near Northload Street"},"longitude":"-2.720049"},"context":"","outcome_status":{"category":"Unable to prosecute suspect","date":"2025-09"},"persistent_id":"7bdaf4d43684181da19fba8b178f4a1350a5234eb20793f607626ebbed36978d","id":131205689,"location_subtype":"","month":"2025-09"},{"category":"criminal-damage-arson","location_type":"Force","location":{"latitude":"51.144890","street":{"id":2274138,"name":"On or near Oriel Drive"},"longitude":"-2.720768"},"context":"","outcome_status":{"category":"Status update unavailable","date":"2026-01"},"persistent_id":"344684c5de046dd0d7f82a04192c958dfae071fc0640d4dd74c03d7a4c91a8e2","id":131197880,"location_subtype":"","month":"2025-09"},{"category":"criminal-damage-arson","location_type":"Force","location":{"latitude":"51.146485","street":{"id":2273961,"name":"On or near Park Farm Road"},"longitude":"-2.727454"},"context":"","outcome_status":{"category":"Status update unavailable","date":"2026-01"},"persistent_id":"3e6b8d847eabb64b9f1d227e4259aab75ccd3598f6388549643343ad011e9e6d","id":131208440,"location_subtype":"","month":"2025-09"},{"category":"criminal-damage-arson","location_type":"Force","location":{"latitude":"51.144890","street":{"id":2274138,"name":"On or near Oriel Drive"},"longitude":"-2.720768"},"context":"","outcome_status":{"category":"Status update unavailable","date":"2026-01"},"persistent_id":"29a0d94d7ec479d710309029346e6f84ebb0da8ccb6c7a0a230769ad14a8c8b0","id":131203838,"location_subtype":"","month":"2025-09"},{"category":"criminal-damage-arson","location_type":"Force","location":{"latitude":"51.145772","street":{"id":2274182,"name":"On or near Magdalene Street"},"longitude":"-2.717622"},"context":"","outcome_status":{"category":"Status update unavailable","date":"2026-01"},"persistent_id":"8a380cba09c1b98865a0e3dd067783673ffe4929d629b5118ce83db8316b08f2","id":131203864,"location_subtype":"","month":"2025-09"},{"category":"criminal-damage-arson","location_type":"Force","location":{"latitude":"51.145516","street":{"id":2274070,"name":"On or near St Gilda's Way"},"longitude":"-2.722793"},"context":"","outcome_status":{"category":"Status update unavailable","date":"2026-01"},"persistent_id":"42fa2fa799dec8e8d6163cc58cdf8a1be497f1e6ad61d0d95db3dcbf2830a2b5","id":131200513,"location_subtype":"","month":"2025-09"},{"category":"drugs","location_type":"Force","location":{"latitude":"51.151120","street":{"id":2274166,"name":"On or near Landmead"},"longitude":"-2.719521"},"context":"","outcome_status":{"category":"Status update unavailable","date":"2026-01"},"persistent_id":"3a4e95ce6538f2b9412af0a4aec87c1586c383ad50e58824fbb3f4c6be37e178","id":131205943,"location_subtype":"","month":"2025-09"},{"category":"other-theft","location_type":"Force","location":{"latitude":"51.144803","street":{"id":2274168,"name":"On or near Magdalene Close"},"longitude":"-2.718822"},"context":"","outcome_status":{"category":"Status update unavailable","date":"2026-01"},"persistent_id":"057a7ed046048d890d220a4e442f8d0aa7a0fb5b8300f9c654783b1802d32da5","id":131209605,"location_subtype":"","month":"2025-09"},{"category":"other-theft","location_type":"Force","location":{"latitude":"51.147874","street":{"id":2274258,"name":"On or near High Street"},"longitude":"-2.715095"},"context":"","outcome_status":{"category":"Investigation complete; no suspect identified","date":"2025-10"},"persistent_id":"d68e2d6750be88423ec5397d877f7aa24d79bb351128fdeedd79556f942b5e38","id":131201087,"location_subtype":"","month":"2025-09"},{"category":"other-theft","location_type":"Force","location":{"latitude":"51.146179","street":{"id":2274172,"name":"On or near Heritage Court"},"longitude":"-2.718829"},"context":"","outcome_status":{"category":"Investigation complete; no suspect identified","date":"2025-10"},"persistent_id":"6bc8e1c4c1ccbf7a48a3bb121f99dea6afaf2c2eee0aac8e867c704693f68142","id":131210099,"location_subtype":"","month":"2025-09"},{"category":"other-theft","location_type":"Force","location":{"latitude":"51.140679","street":{"id":2274340,"name":"On or near Polden View"},"longitude":"-2.709481"},"context":"","outcome_status":{"category":"Status update unavailable","date":"2026-01"},"persistent_id":"83064febdeb04f3f467e0bb59a7992697fb8e1f712f6f9a968a908d256b118fa","id":131203930,"location_subtype":"","month":"2025-09"},{"category":"other-theft","location_type":"Force","location":{"latitude":"51.147377","street":{"id":2274151,"name":"On or near Parking Area"},"longitude":"-2.719920"},"context":"","outcome_status":{"category":"Investigation complete; no suspect identified","date":"2025-10"},"persistent_id":"b61dc6c4c450ac89aebb286702d56fd37bf7c5a12b7ff40a5744e92c964c54c9","id":131199498,"location_subtype":"","month":"2025-09"},{"category":"other-theft","location_type":"Force","location":{"latitude":"51.142889","street":{"id":2274013,"name":"On or near Fawn Close"},"longitude":"-2.727298"},"context":"","outcome_status":{"category":"Status update unavailable","date":"2026-01"},"persistent_id":"4cddd1ef5b897aaf471500703fe1321a9c25f1bad05e765c4cdd660b3c1be6ed","id":131199139,"location_subtype":"","month":"2025-09"},{"category":"other-theft","location_type":"Force","location":{"latitude":"51.147874","street":{"id":2274258,"name":"On or near High Street"},"longitude":"-2.715095"},"context":"","outcome_status":{"category":"Unable to prosecute suspect","date":"2025-10"},"persistent_id":"027b088ef287b476eb6a9c6fa9284c103511f726b342162e3595271fbfdf8c0f","id":131208835,"location_subtype":"","month":"2025-09"},{"category":"other-theft","location_type":"Force","location":{"latitude":"51.143635","street":{"id":2274197,"name":"On or near Fisher's Hill"},"longitude":"-2.717117"},"context":"","outcome_status":{"category":"Investigation complete; no suspect identified","date":"2025-10"},"persistent_id":"82a58e3a7aedb509b27a3aa9378f6530badde2771880f28623f22a0a2f2f4529","id":131209493,"location_subtype":"","month":"2025-09"},{"category":"possession-of-weapons","location_type":"Force","location":{"latitude":"51.147874","street":{"id":2274258,"name":"On or near High Street"},"longitude":"-2.715095"},"context":"","outcome_status":{"category":"Status update unavailable","date":"2026-01"},"persistent_id":"fd53caa977d21acc2a4b1c0503da0f464bf43cebfc62b46259d574f1e6db9f46","id":131208482,"location_subtype":"","month":"2025-09"},{"category":"public-order","location_type":"Force","location":{"latitude":"51.144803","street":{"id":2274168,"name":"On or near Magdalene Close"},"longitude":"-2.718822"},"context":"","outcome_status":{"category":"Unable to prosecute suspect","date":"2025-09"},"persistent_id":"a3f21cf340da5b640aaad136eaf786a0b7e980c8e0063cdd52e05a825b386efd","id":131198625,"location_subtype":"","month":"2025-09"},{"category":"public-order","location_type":"Force","location":{"latitude":"51.147874","street":{"id":2274258,"name":"On or near High Street"},"longitude":"-2.715095"},"context":"","outcome_status":{"category":"Status update unavailable","date":"2026-01"},"persistent_id":"2e036c3ac2b97dc9d8450645ea4477aa5d0c883162ad614a2382791c90a72dab","id":131205466,"location_subtype":"","month":"2025-09"},{"category":"public-order","location_type":"Force","location":{"latitude":"51.151347","street":{"id":2274358,"name":"On or near Windmill Hill Road"},"longitude":"-2.708944"},"context":"","outcome_status":{"category":"Unable to prosecute suspect","date":"2025-09"},"persistent_id":"8af5d95c03cbc731dc597934d23baadee8ad40d52fbd821078859e517b0e6afb","id":131201860,"location_subtype":"","month":"2025-09"},{"category":"public-order","location_type":"Force","location":{"latitude":"51.146179","street":{"id":2274172,"name":"On or near Heritage Court"},"longitude":"-2.718829"},"context":"","outcome_status":{"category":"Investigation complete; no suspect identified","date":"2025-10"},"persistent_id":"dd9a0453d7fe54db6384c86d79e323edb966ec35b4c3dc4f2886be533bbb5e6c","id":131203374,"location_subtype":"","month":"2025-09"},{"category":"public-order","location_type":"Force","location":{"latitude":"51.143635","street":{"id":2274197,"name":"On or near Fisher's Hill"},"longitude":"-2.717117"},"context":"","outcome_status":{"category":"Unable to prosecute suspect","date":"2025-09"},"persistent_id":"23e74eda50932a88aa9073c78bf1735ebd9e925bb940866545d4c88b40e52ea7","id":131203403,"location_subtype":"","month":"2025-09"},{"category":"public-order","location_type":"Force","location":{"latitude":"51.145772","street":{"id":2274182,"name":"On or near Magdalene Street"},"longitude":"-2.717622"},"context":"","outcome_status":{"category":"Status update unavailable","date":"2026-01"},"persistent_id":"c43c50ef653d83c33b94d0e1586ea4455a68c0dd73aeb3d7a9b0c7b2cf4ef88e","id":131207112,"location_subtype":"","month":"2025-09"},{"category":"public-order","location_type":"Force","location":{"latitude":"51.147874","street":{"id":2274258,"name":"On or near High Street"},"longitude":"-2.715095"},"context":"","outcome_status":{"category":"Status update unavailable","date":"2026-01"},"persistent_id":"c83836d2928ab07d6471853f35b58235c93d08ad178b7c19742160e2f9c12119","id":131206474,"location_subtype":"","month":"2025-09"},{"category":"public-order","location_type":"Force","location":{"latitude":"51.147377","street":{"id":2274151,"name":"On or near Parking Area"},"longitude":"-2.719920"},"context":"","outcome_status":{"category":"Investigation complete; no suspect identified","date":"2025-09"},"persistent_id":"480e95ca348de498091f105d3c6edd002856d28eb0c08894a2e7b34ea8ec9359","id":131206518,"location_subtype":"","month":"2025-09"},{"category":"public-order","location_type":"Force","location":{"latitude":"51.147573","street":{"id":2274217,"name":"On or near Supermarket"},"longitude":"-2.715777"},"context":"","outcome_status":{"category":"Investigation complete; no suspect identified","date":"2025-09"},"persistent_id":"5a02873d271148a9a210229f4c8ca1432f61d04f0dc0c7b98e6672bfe20045fa","id":131205029,"location_subtype":"","month":"2025-09"},{"category":"public-order","location_type":"Force","location":{"latitude":"51.147377","street":{"id":2274151,"name":"On or near Parking Area"},"longitude":"-2.719920"},"context":"","outcome_status":{"category":"Status update unavailable","date":"2026-01"},"persistent_id":"5b4624ca2ed500e10c8475cfc70c64f15a4b397c76769e5d95b88248fadc751f","id":131204004,"location_subtype":"","month":"2025-09"},{"category":"public-order","location_type":"Force","location":{"latitude":"51.147255","street":{"id":2274185,"name":"On or near Market Place"},"longitude":"-2.717874"},"context":"","outcome_status":{"category":"Status update unavailable","date":"2026-01"},"persistent_id":"892dc0a132d586953bf3762ca54ea92a939d3bb5ecd27361535b6b9c0ce2fcd9","id":131203396,"location_subtype":"","month":"2025-09"},{"category":"public-order","location_type":"Force","location":{"latitude":"51.147255","street":{"id":2274185,"name":"On or near Market Place"},"longitude":"-2.717874"},"context":"","outcome_status":{"category":"Status update unavailable","date":"2026-01"},"persistent_id":"a5633e764fa0d3c35f57d4461905e3d750802a68796387ff7945a064c6490227","id":131203036,"location_subtype":"","month":"2025-09"},{"category":"public-order","location_type":"Force","location":{"latitude":"51.147255","street":{"id":2274185,"name":"On or near Market Place"},"longitude":"-2.717874"},"context":"","outcome_status":{"category":"Status update unavailable","date":"2026-01"},"persistent_id":"51740354df3b40d91464a5c8e95fed02c079271a281752af553801d0d6673989","id":131201397,"location_subtype":"","month":"2025-09"},{"category":"public-order","location_type":"Force","location":{"latitude":"51.147934","street":{"id":2274259,"name":"On or near Victoria Buildings"},"longitude":"-2.714153"},"context":"","outcome_status":{"category":"Unable to prosecute suspect","date":"2025-12"},"persistent_id":"d10f8d06091a0e1362c2e0b2bc0c8ea7757d981b64db35322700fc62fff4b923","id":131200559,"location_subtype":"","month":"2025-09"},{"category":"public-order","location_type":"Force","location":{"latitude":"51.144803","street":{"id":2274168,"name":"On or near Magdalene Close"},"longitude":"-2.718822"},"context":"","outcome_status":{"category":"Unable to prosecute suspect","date":"2025-09"},"persistent_id":"5196888387495de9814ac11989e0c5ab62f727de9b496c6897c4bc7cab39512c","id":131204050,"location_subtype":"","month":"2025-09"},{"category":"public-order","location_type":"Force","location":{"latitude":"51.144803","street":{"id":2274168,"name":"On or near Magdalene Close"},"longitude":"-2.718822"},"context":"","outcome_status":{"category":"Status update unavailable","date":"2026-01"},"persistent_id":"9b4baafff1aa7d4ce6f5e320c344ec5878bc90de21b8ece4476f8e34fc275a26","id":131199172,"location_subtype":"","month":"2025-09"},{"category":"public-order","location_type":"Force","location":{"latitude":"51.147796","street":{"id":2274207,"name":"On or near Shopping Area"},"longitude":"-2.717099"},"context":"","outcome_status":{"category":"Unable to prosecute suspect","date":"2025-09"},"persistent_id":"177aa5fa3040db54ab17ea9d4710098bf18eacc0b7744402ccf717380e56aa3b","id":131198700,"location_subtype":"","month":"2025-09"},{"category":"public-order","location_type":"Force","location":{"latitude":"51.147796","street":{"id":2274207,"name":"On or near Shopping Area"},"longitude":"-2.717099"},"context":"","outcome_status":{"category":"Status update unavailable","date":"2026-01"},"persistent_id":"a7d91c7ca6d2eaecb85d75e8584c306e8e37f01c09662d41f2d7bfd025be6a3b","id":131198546,"location_subtype":"","month":"2025-09"},{"category":"public-order","location_type":"Force","location":{"latitude":"51.147255","street":{"id":2274185,"name":"On or near Market Place"},"longitude":"-2.717874"},"context":"","outcome_status":{"category":"Unable to prosecute suspect","date":"2025-09"},"persistent_id":"f6402dd5629d39ac698ba28609d553f1de4fce1966b2a8868167c8893e927dfb","id":131198163,"location_subtype":"","month":"2025-09"},{"category":"public-order","location_type":"Force","location":{"latitude":"51.149932","street":{"id":2274159,"name":"On or near King Street"},"longitude":"-2.719717"},"context":"","outcome_status":{"category":"Status update unavailable","date":"2026-01"},"persistent_id":"ba22643e12e62b93df9a9c0591b5d0bc79f60ceb6f31130c35cf52d95b909d20","id":131197451,"location_subtype":"","month":"2025-09"},{"category":"shoplifting","location_type":"Force","location":{"latitude":"51.147573","street":{"id":2274217,"name":"On or near Supermarket"},"longitude":"-2.715777"},"context":"","outcome_status":{"category":"Status update unavailable","date":"2026-01"},"persistent_id":"dbe8e6f63de6ed39d364d8ff134eabfff9db3be5eab1eead1e5775797375087a","id":131203118,"location_subtype":"","month":"2025-09"},{"category":"shoplifting","location_type":"Force","location":{"latitude":"51.144803","street":{"id":2274168,"name":"On or near Magdalene Close"},"longitude":"-2.718822"},"context":"","outcome_status":{"category":"Investigation complete; no suspect identified","date":"2025-09"},"persistent_id":"b4473d9f526d13b4161f7eeaf0c78f76873f84943dba67b1e4e735f180b792c5","id":131206114,"location_subtype":"","month":"2025-09"},{"category":"shoplifting","location_type":"Force","location":{"latitude":"51.144803","street":{"id":2274168,"name":"On or near Magdalene Close"},"longitude":"-2.718822"},"context":"","outcome_status":{"category":"Status update unavailable","date":"2026-01"},"persistent_id":"4e5c81825d9cac2683c52baaab7f88d09f77836fe1763b84d561585420374475","id":131206047,"location_subtype":"","month":"2025-09"},{"category":"shoplifting","location_type":"Force","location":{"latitude":"51.147796","street":{"id":2274207,"name":"On or near Shopping Area"},"longitude":"-2.717099"},"context":"","outcome_status":{"category":"Status update unavailable","date":"2026-01"},"persistent_id":"19f40a0c10ee3c0d9a55a3cfee1e047ed28800671db09b7eb59abb350eb021ba","id":131198028,"location_subtype":"","month":"2025-09"},{"category":"shoplifting","location_type":"Force","location":{"latitude":"51.147573","street":{"id":2274217,"name":"On or near Supermarket"},"longitude":"-2.715777"},"context":"","outcome_status":{"category":"Status update unavailable","date":"2026-01"},"persistent_id":"70798a324d2c9bb6889390928b95520d7ead02426e184a3e912b7b1bdbc9bc53","id":131200453,"location_subtype":"","month":"2025-09"},{"category":"shoplifting","location_type":"Force","location":{"latitude":"51.147377","street":{"id":2274151,"name":"On or near Parking Area"},"longitude":"-2.719920"},"context":"","outcome_status":{"category":"Status update unavailable","date":"2026-01"},"persistent_id":"7da5a3e1054d4c58b1158a95310e8b1846e9910458e126f1623cc8438969e9c9","id":131204414,"location_subtype":"","month":"2025-09"},{"category":"shoplifting","location_type":"Force","location":{"latitude":"51.144803","street":{"id":2274168,"name":"On or near Magdalene Close"},"longitude":"-2.718822"},"context":"","outcome_status":{"category":"Status update unavailable","date":"2026-01"},"persistent_id":"aabd67c3400973228d0184b101a90959374e777dd98088f9294de4a6e809cd14","id":131197899,"location_subtype":"","month":"2025-09"},{"category":"shoplifting","location_type":"Force","location":{"latitude":"51.144803","street":{"id":2274168,"name":"On or near Magdalene Close"},"longitude":"-2.718822"},"context":"","outcome_status":{"category":"Status update unavailable","date":"2026-01"},"persistent_id":"2ffce53a9d1f2ff70cca1167c7d8573567bf660078524a98cfd53365ac064be9","id":131202274,"location_subtype":"","month":"2025-09"},{"category":"shoplifting","location_type":"Force","location":{"latitude":"51.144803","street":{"id":2274168,"name":"On or near Magdalene Close"},"longitude":"-2.718822"},"context":"","outcome_status":{"category":"Status update unavailable","date":"2026-01"},"persistent_id":"52b8b51a7b90ac4915ddb143e102cae2703a16cac751a0358bec4905b6f9a460","id":131206054,"location_subtype":"","month":"2025-09"},{"category":"shoplifting","location_type":"Force","location":{"latitude":"51.147377","street":{"id":2274151,"name":"On or near Parking Area"},"longitude":"-2.719920"},"context":"","outcome_status":{"category":"Investigation complete; no suspect identified","date":"2025-09"},"persistent_id":"a766a36d13eb9a6485555b8bf06339d3ae05a98c32287ed3868a3286946d5efa","id":131198936,"location_subtype":"","month":"2025-09"},{"category":"shoplifting","location_type":"Force","location":{"latitude":"51.144803","street":{"id":2274168,"name":"On or near Magdalene Close"},"longitude":"-2.718822"},"context":"","outcome_status":{"category":"Investigation complete; no suspect identified","date":"2025-10"},"persistent_id":"bbe0e951eec9b917a803cd59a88f2351ae39b11846936c96e16eb2aaf03a6659","id":131202356,"location_subtype":"","month":"2025-09"},{"category":"vehicle-crime","location_type":"Force","location":{"latitude":"51.144360","street":{"id":2274145,"name":"On or near Petrol Station"},"longitude":"-2.720602"},"context":"","outcome_status":{"category":"Status update unavailable","date":"2026-01"},"persistent_id":"3cf389e9c6b6bb60d79cade8c2390918b2da3f69cba1077f7ea6434a1a64fbc2","id":131203051,"location_subtype":"","month":"2025-09"},{"category":"violent-crime","location_type":"Force","location":{"latitude":"51.144952","street":{"id":2274329,"name":"On or near Chilkwell Street"},"longitude":"-2.710633"},"context":"","outcome_status":{"category":"Status update unavailable","date":"2026-01"},"persistent_id":"8604550e28a978b6d55f219559e9467724d753faf6e8b66c13e4d073a5166393","id":131207854,"location_subtype":"","month":"2025-09"},{"category":"violent-crime","location_type":"Force","location":{"latitude":"51.147796","street":{"id":2274207,"name":"On or near Shopping Area"},"longitude":"-2.717099"},"context":"","outcome_status":{"category":"Status update unavailable","date":"2026-01"},"persistent_id":"e07d1e69bc25ec4d07e40e3e236e8bc48f286e36f1c707326003ad882bd95bd7","id":131209522,"location_subtype":"","month":"2025-09"},{"category":"violent-crime","location_type":"Force","location":{"latitude":"51.153742","street":{"id":2274146,"name":"On or near Boughton Road"},"longitude":"-2.720105"},"context":"","outcome_status":{"category":"Unable to prosecute suspect","date":"2025-10"},"persistent_id":"74d2c2a8b8cab688a7a0f8c32a27338aaac5886730a9065a059b3326ad194492","id":131208012,"location_subtype":"","month":"2025-09"},{"category":"violent-crime","location_type":"Force","location":{"latitude":"51.149739","street":{"id":2274190,"name":"On or near Norbins Road"},"longitude":"-2.717483"},"context":"","outcome_status":{"category":"Unable to prosecute suspect","date":"2025-10"},"persistent_id":"32647e1fdb570540ffdb25172f73e9d9e44763fd6777b238f51acc5f64dbbc67","id":131208836,"location_subtype":"","month":"2025-09"},{"category":"violent-crime","location_type":"Force","location":{"latitude":"51.147874","street":{"id":2274258,"name":"On or near High Street"},"longitude":"-2.715095"},"context":"","outcome_status":{"category":"Unable to prosecute suspect","date":"2025-10"},"persistent_id":"4a2a41fd8e2079b281171815e96ee3bddc655008bcee107fadf6acdecbcfa0d8","id":131208037,"location_subtype":"","month":"2025-09"},{"category":"violent-crime","location_type":"Force","location":{"latitude":"51.146485","street":{"id":2273961,"name":"On or near Park Farm Road"},"longitude":"-2.727454"},"context":"","outcome_status":{"category":"Status update unavailable","date":"2026-01"},"persistent_id":"f097f03dac95e40b9bd2244a0fc0ce7acc652815413992f9518075cfd1602757","id":131208429,"location_subtype":"","month":"2025-09"},{"category":"violent-crime","location_type":"Force","location":{"latitude":"51.152619","street":{"id":2274284,"name":"On or near Hamlyn Road"},"longitude":"-2.712681"},"context":"","outcome_status":{"category":"Unable to prosecute suspect","date":"2025-12"},"persistent_id":"cca79b91bf0de08ef8e411b5afe6c819281d69b42c41c15f7e0c54845d2b3c6b","id":131202245,"location_subtype":"","month":"2025-09"},{"category":"violent-crime","location_type":"Force","location":{"latitude":"51.147255","street":{"id":2274185,"name":"On or near Market Place"},"longitude":"-2.717874"},"context":"","outcome_status":{"category":"Status update unavailable","date":"2026-01"},"persistent_id":"33999e4fa3effb93b6cd3e1dedd2062ebbb8da1456a69ed2bc541a9a75051205","id":131201850,"location_subtype":"","month":"2025-09"},{"category":"violent-crime","location_type":"Force","location":{"latitude":"51.142889","street":{"id":2274013,"name":"On or near Fawn Close"},"longitude":"-2.727298"},"context":"","outcome_status":{"category":"Action to be taken by another organisation","date":"2025-09"},"persistent_id":"9ace325381192aabd3e587159c56c9717a6e397080d8f280620ab74899ef1ad9","id":131198679,"location_subtype":"","month":"2025-09"},{"category":"violent-crime","location_type":"Force","location":{"latitude":"51.147172","street":{"id":2274081,"name":"On or near Carmine Close"},"longitude":"-2.724020"},"context":"","outcome_status":{"category":"Status update unavailable","date":"2026-01"},"persistent_id":"29f3f1cc877f23c967519ee9e2e0b4020596072e29eea946f128bfd62ec10bae","id":131198822,"location_subtype":"","month":"2025-09"},{"category":"violent-crime","location_type":"Force","location":{"latitude":"51.152877","street":{"id":2274333,"name":"On or near Monington Road"},"longitude":"-2.710197"},"context":"","outcome_status":{"category":"Unable to prosecute suspect","date":"2025-09"},"persistent_id":"cab2e21a614db2c0cf31f266556cf84a10e0124711c1480ffee9c8dac2ba9b82","id":131201963,"location_subtype":"","month":"2025-09"},{"category":"violent-crime","location_type":"Force","location":{"latitude":"51.152725","street":{"id":2274356,"name":"On or near Turstin Road"},"longitude":"-2.708565"},"context":"","outcome_status":{"category":"Investigation complete; no suspect identified","date":"2025-09"},"persistent_id":"71d06e1d2f0c7670bbc8574d978a79a0a5ff7df27d6ca95a5c10e1baa321e19e","id":131198394,"location_subtype":"","month":"2025-09"},{"category":"violent-crime","location_type":"Force","location":{"latitude":"51.147377","street":{"id":2274151,"name":"On or near Parking Area"},"longitude":"-2.719920"},"context":"","outcome_status":{"category":"Status update unavailable","date":"2026-01"},"persistent_id":"30a0426cde13f803248b5b60c4b502eebb426de93fae6854902ef7adfd7ecbd9","id":131198234,"location_subtype":"","month":"2025-09"},{"category":"violent-crime","location_type":"Force","location":{"latitude":"51.151120","street":{"id":2274166,"name":"On or near Landmead"},"longitude":"-2.719521"},"context":"","outcome_status":{"category":"Status update unavailable","date":"2026-01"},"persistent_id":"1e8b2b49ccbb3051b17774ae9a8822d0fe7306af5a40621f05b3db5a45d2f162","id":131205948,"location_subtype":"","month":"2025-09"},{"category":"violent-crime","location_type":"Force","location":{"latitude":"51.146485","street":{"id":2273961,"name":"On or near Park Farm Road"},"longitude":"-2.727454"},"context":"","outcome_status":{"category":"Further investigation is not in the public interest","date":"2025-11"},"persistent_id":"8686d5c5ffdafe5eba2aa0c94bbb43fed43e1f799ff82fd04cb6fe9355f30911","id":131208436,"location_subtype":"","month":"2025-09"},{"category":"violent-crime","location_type":"Force","location":{"latitude":"51.144803","street":{"id":2274168,"name":"On or near Magdalene Close"},"longitude":"-2.718822"},"context":"","outcome_status":{"category":"Unable to prosecute suspect","date":"2025-10"},"persistent_id":"622ab49059c6326e2c175efa9adc13bc678585be188d8a918da99b1c4d16586e","id":131197711,"location_subtype":"","month":"2025-09"},{"category":"violent-crime","location_type":"Force","location":{"latitude":"51.152725","street":{"id":2274356,"name":"On or near Turstin Road"},"longitude":"-2.708565"},"context":"","outcome_status":{"category":"Unable to prosecute suspect","date":"2025-09"},"persistent_id":"2ba4e161b5e390772bdc6c7a3f6a95f074c9a68a9bd15c7ab6b1a148e3d35e9e","id":131197490,"location_subtype":"","month":"2025-09"},{"category":"violent-crime","location_type":"Force","location":{"latitude":"51.146005","street":{"id":2274127,"name":"On or near Chalice Park"},"longitude":"-2.720771"},"context":"","outcome_status":{"category":"Unable to prosecute suspect","date":"2025-10"},"persistent_id":"c35b2e98c22b9e58e4f3d7b3681f1f36548df4d6cf6c6a93cdd8fb21f612b405","id":131209236,"location_subtype":"","month":"2025-09"},{"category":"violent-crime","location_type":"Force","location":{"latitude":"51.151120","street":{"id":2274166,"name":"On or near Landmead"},"longitude":"-2.719521"},"context":"","outcome_status":{"category":"Unable to prosecute suspect","date":"2025-09"},"persistent_id":"87cf37cc80f81b27a5be8a2148047f8d651e56e90c6fd1a44349579e17224ccf","id":131200417,"location_subtype":"","month":"2025-09"},{"category":"violent-crime","location_type":"Force","location":{"latitude":"51.143635","street":{"id":2274197,"name":"On or near Fisher's Hill"},"longitude":"-2.717117"},"context":"","outcome_status":{"category":"Status update unavailable","date":"2026-01"},"persistent_id":"5f647e89a49076fba853837975610e681fabc48ef1fc3aa7b84efd923ac9189c","id":131203431,"location_subtype":"","month":"2025-09"},{"category":"violent-crime","location_type":"Force","location":{"latitude":"51.147573","street":{"id":2274217,"name":"On or near Supermarket"},"longitude":"-2.715777"},"context":"","outcome_status":{"category":"Status update unavailable","date":"2026-01"},"persistent_id":"6dd67d16a96c5ebcc735cb4f3a6b4dc4212517e78ff18622ef5b46975b41315e","id":131203324,"location_subtype":"","month":"2025-09"},{"category":"violent-crime","location_type":"Force","location":{"latitude":"51.147255","street":{"id":2274185,"name":"On or near Market Place"},"longitude":"-2.717874"},"context":"","outcome_status":{"category":"Unable to prosecute suspect","date":"2025-11"},"persistent_id":"b063e76fb2be39565785b64984adf3cca550afddcec88d6138e02cfda6afc180","id":131203391,"location_subtype":"","month":"2025-09"},{"category":"violent-crime","location_type":"Force","location":{"latitude":"51.153742","street":{"id":2274146,"name":"On or near Boughton Road"},"longitude":"-2.720105"},"context":"","outcome_status":{"category":"Unable to prosecute suspect","date":"2025-10"},"persistent_id":"923237dea41f10c7fe8b89ba3609011fdcc95bba28a495016325db85bcf00f45","id":131205965,"location_subtype":"","month":"2025-09"},{"category":"violent-crime","location_type":"Force","location":{"latitude":"51.147874","street":{"id":2274258,"name":"On or near High Street"},"longitude":"-2.715095"},"context":"","outcome_status":{"category":"Unable to prosecute suspect","date":"2025-10"},"persistent_id":"3d3e04879f9c5abbc643edcf16e74d8eeaafa99786ce3da5c75d9bbee77fd31d","id":131208769,"location_subtype":"","month":"2025-09"},{"category":"violent-crime","location_type":"Force","location":{"latitude":"51.146005","street":{"id":2274127,"name":"On or near Chalice Park"},"longitude":"-2.720771"},"context":"","outcome_status":{"category":"Unable to prosecute suspect","date":"2025-11"},"persistent_id":"f83b1c30931613290586dc6d52a907de0f883ea4d327419071ae338a5737b2ed","id":131211117,"location_subtype":"","month":"2025-09"},{"category":"violent-crime","location_type":"Force","location":{"latitude":"51.147255","street":{"id":2274185,"name":"On or near Market Place"},"longitude":"-2.717874"},"context":"","outcome_status":{"category":"Status update unavailable","date":"2026-01"},"persistent_id":"7794159d497ce216787c8b829518efb69462f351bae14b7c1c7fcbdd568437f6","id":131205081,"location_subtype":"","month":"2025-09"},{"category":"violent-crime","location_type":"Force","location":{"latitude":"51.152346","street":{"id":2274231,"name":"On or near St Dunstans Close"},"longitude":"-2.716094"},"context":"","outcome_status":{"category":"Status update unavailable","date":"2026-01"},"persistent_id":"dd497ea8874a849bc5dc4412d2680e563a40c0a17ddb12d67f190ca349e50bfa","id":131202458,"location_subtype":"","month":"2025-09"},{"category":"violent-crime","location_type":"Force","location":{"latitude":"51.147377","street":{"id":2274151,"name":"On or near Parking Area"},"longitude":"-2.719920"},"context":"","outcome_status":{"category":"Status update unavailable","date":"2026-01"},"persistent_id":"3c36b49c71e6c3883f4054174c7e0515edf858b7bf72be5f51b4cbb952903278","id":131198472,"location_subtype":"","month":"2025-09"},{"category":"violent-crime","location_type":"Force","location":{"latitude":"51.144890","street":{"id":2274138,"name":"On or near Oriel Drive"},"longitude":"-2.720768"},"context":"","outcome_status":{"category":"Status update unavailable","date":"2026-01"},"persistent_id":"2ce280ea33bf1a8846c478509f1f454a9709ef325019ed53e22fa44cd29cf596","id":131202708,"location_subtype":"","month":"2025-09"},{"category":"violent-crime","location_type":"Force","location":{"latitude":"51.152619","street":{"id":2274284,"name":"On or near Hamlyn Road"},"longitude":"-2.712681"},"context":"","outcome_status":{"category":"Status update unavailable","date":"2026-01"},"persistent_id":"f8db2f671f74fa54b30e9cbb62e56222ce14f925cd57e24762792dc69af48199","id":131202524,"location_subtype":"","month":"2025-09"},{"category":"violent-crime","location_type":"Force","location":{"latitude":"51.153742","street":{"id":2274146,"name":"On or near Boughton Road"},"longitude":"-2.720105"},"context":"","outcome_status":{"category":"Unable to prosecute suspect","date":"2025-10"},"persistent_id":"ce54da96af359c9ffa812832be18f10a5606bade4ddc1a0b8d97c7b861b2f18c","id":131205491,"location_subtype":"","month":"2025-09"},{"category":"violent-crime","location_type":"Force","location":{"latitude":"51.147377","street":{"id":2274151,"name":"On or near Parking Area"},"longitude":"-2.719920"},"context":"","outcome_status":{"category":"Status update unavailable","date":"2026-01"},"persistent_id":"891420679ee498f5739a7e6fc943b88604d590d6894e701608ceaa4e1b4c3ff8","id":131198495,"location_subtype":"","month":"2025-09"},{"category":"violent-crime","location_type":"Force","location":{"latitude":"51.148835","street":{"id":2274191,"name":"On or near George Street"},"longitude":"-2.718241"},"context":"","outcome_status":{"category":"Unable to prosecute suspect","date":"2025-09"},"persistent_id":"e2c32464099187721084751f33de850a773e32ffad5e9d59dd54bb446066a193","id":131200426,"location_subtype":"","month":"2025-09"},{"category":"violent-crime","location_type":"Force","location":{"latitude":"51.152877","street":{"id":2274333,"name":"On or near Monington Road"},"longitude":"-2.710197"},"context":"","outcome_status":{"category":"Awaiting court outcome","date":"2025-09"},"persistent_id":"0655c07c6538833ce9b410275b8db41373dadee7c4962ed32b592c7bab2fa604","id":131200095,"location_subtype":"","month":"2025-09"},{"category":"violent-crime","location_type":"Force","location":{"latitude":"51.147796","street":{"id":2274207,"name":"On or near Shopping Area"},"longitude":"-2.717099"},"context":"","outcome_status":{"category":"Status update unavailable","date":"2026-01"},"persistent_id":"edf08907a12fadfa23719693ac0558d3a55746dfbeff6a275bd84d2852e455f1","id":131209465,"location_subtype":"","month":"2025-09"},{"category":"violent-crime","location_type":"Force","location":{"latitude":"51.145772","street":{"id":2274182,"name":"On or near Magdalene Street"},"longitude":"-2.717622"},"context":"","outcome_status":{"category":"Status update unavailable","date":"2026-01"},"persistent_id":"52d444e74671663eb52d36e7d9eba35131157923fe3f1dd29d241185ad3bf209","id":131207172,"location_subtype":"","month":"2025-09"},{"category":"violent-crime","location_type":"Force","location":{"latitude":"51.147255","street":{"id":2274185,"name":"On or near Market Place"},"longitude":"-2.717874"},"context":"","outcome_status":{"category":"Unable to prosecute suspect","date":"2025-09"},"persistent_id":"15c8dc7c4aa8a497c8bf970be84adcae7109f64e30926398a55ca86088018ea3","id":131207497,"location_subtype":"","month":"2025-09"},{"category":"violent-crime","location_type":"Force","location":{"latitude":"51.147934","street":{"id":2274259,"name":"On or near Victoria Buildings"},"longitude":"-2.714153"},"context":"","outcome_status":{"category":"Status update unavailable","date":"2026-01"},"persistent_id":"9ddb917f3570f2249873062ad8095de56d74341406ded791342f02f21b289c4c","id":131199545,"location_subtype":"","month":"2025-09"},{"category":"violent-crime","location_type":"Force","location":{"latitude":"51.151120","street":{"id":2274166,"name":"On or near Landmead"},"longitude":"-2.719521"},"context":"","outcome_status":{"category":"Status update unavailable","date":"2026-01"},"persistent_id":"113d159153571f04da976894b1595766ca81cb10436a538be65d5a89d46f5c4f","id":131203307,"location_subtype":"","month":"2025-09"},{"category":"violent-crime","location_type":"Force","location":{"latitude":"51.143693","street":{"id":2274346,"name":"On or near St Davids Close"},"longitude":"-2.709184"},"context":"","outcome_status":{"category":"Unable to prosecute suspect","date":"2025-10"},"persistent_id":"9e71904c375de79ef16ae769216680d84d11e97aacf40774a4ffa9cf9c4616a2","id":131203128,"location_subtype":"","month":"2025-09"},{"category":"violent-crime","location_type":"Force","location":{"latitude":"51.146874","street":{"id":2274123,"name":"On or near Abbots Court"},"longitude":"-2.721327"},"context":"","outcome_status":{"category":"Unable to prosecute suspect","date":"2025-09"},"persistent_id":"07f5203d0644527f5e9c00762a2cfd534229812783200face354f1a4b86fe767","id":131201139,"location_subtype":"","month":"2025-09"},{"category":"violent-crime","location_type":"Force","location":{"latitude":"51.144803","street":{"id":2274168,"name":"On or near Magdalene Close"},"longitude":"-2.718822"},"context":"","outcome_status":{"category":"Status update unavailable","date":"2026-01"},"persistent_id":"a62f52ed038c68dc6a364165a7d6f8fa2fc58b699f3b8c345af07ded00dfea8d","id":131204344,"location_subtype":"","month":"2025-09"},{"category":"violent-crime","location_type":"Force","location":{"latitude":"51.142889","street":{"id":2274013,"name":"On or near Fawn Close"},"longitude":"-2.727298"},"context":"","outcome_status":{"category":"Status update unavailable","date":"2026-01"},"persistent_id":"89997d4716eadcd6bf4b0bdb8bc885b247cc7bd7d7c4c5946f91ff3bbe62b8b0","id":131199671,"location_subtype":"","month":"2025-09"},{"category":"violent-crime","location_type":"Force","location":{"latitude":"51.142010","street":{"id":2274025,"name":"On or near Street Road"},"longitude":"-2.726941"},"context":"","outcome_status":{"category":"Unable to prosecute suspect","date":"2025-09"},"persistent_id":"1f4b2e8af6cc7c41d4cf78a59a613ebc4040b5227c898677d9f9a696e84f2645","id":131204698,"location_subtype":"","month":"2025-09"},{"category":"violent-crime","location_type":"Force","location":{"latitude":"51.142010","street":{"id":2274025,"name":"On or near Street Road"},"longitude":"-2.726941"},"context":"","outcome_status":{"category":"Unable to prosecute suspect","date":"2025-09"},"persistent_id":"68b341b1bfd5e91f4c10433ca0a017590dbe70b199663ed2f5530c38e65b64e3","id":131204705,"location_subtype":"","month":"2025-09"},{"category":"violent-crime","location_type":"Force","location":{"latitude":"51.146700","street":{"id":2274082,"name":"On or near Benedict Street"},"longitude":"-2.723198"},"context":"","outcome_status":{"category":"Status update unavailable","date":"2026-01"},"persistent_id":"02da79a61f694e1d6ca2577d9568cf5053341255e6161a6590c1a73c4e7c710b","id":131203785,"location_subtype":"","month":"2025-09"},{"category":"violent-crime","location_type":"Force","location":{"latitude":"51.141936","street":{"id":2274312,"name":"On or near Higher Actis"},"longitude":"-2.711130"},"context":"","outcome_status":{"category":"Unable to prosecute suspect","date":"2025-09"},"persistent_id":"20dcf50eb7ea2b26170f4c385647f7600159815f0c2a809e21c73bb4da145613","id":131203455,"location_subtype":"","month":"2025-09"},{"category":"other-crime","location_type":"Force","location":{"latitude":"51.142889","street":{"id":2274013,"name":"On or near Fawn Close"},"longitude":"-2.727298"},"context":"","outcome_status":{"category":"Investigation complete; no suspect identified","date":"2025-10"},"persistent_id":"b439fc9084c27921ca304b291a380823c87b60d4d2b328c87696b3448735e82b","id":131209429,"location_subtype":"","month":"2025-09"},{"category":"other-crime","location_type":"Force","location":{"latitude":"51.149840","street":{"id":2274113,"name":"On or near Helyar Close"},"longitude":"-2.722903"},"context":"","outcome_status":{"category":"Unable to prosecute suspect","date":"2025-09"},"persistent_id":"461b262ad9c7f7e7c315eb9b2291418c52c4a1ed41e52ecc3b04c435dc9fadc3","id":131197390,"location_subtype":"","month":"2025-09"},{"category":"other-crime","location_type":"Force","location":{"latitude":"51.142010","street":{"id":2274025,"name":"On or near Street Road"},"longitude":"-2.726941"},"context":"","outcome_status":{"category":"Unable to prosecute suspect","date":"2025-09"},"persistent_id":"73907b0ba3d6ecd40831331189df70ac6eb0fee667d0a9c114dee263385e645c","id":131204376,"location_subtype":"","month":"2025-09"}]