[{"category":"anti-social-behaviour","location_type":"Force","location":{"latitude":"53.754790","street":{"id":1809718,"name":"On or near Shopping Area"},"longitude":"-2.474202"},"context":"","outcome_status":null,"persistent_id":"","id":131192493,"location_subtype":"","month":"2025-09"},{"category":"anti-social-behaviour","location_type":"Force","location":{"latitude":"53.749879","street":{"id":1810610,"name":"On or near Hamer Avenue"},"longitude":"-2.443326"},"context":"","outcome_status":null,"persistent_id":"","id":131193554,"location_subtype":"","month":"2025-09"},{"category":"anti-social-behaviour","location_type":"Force","location":{"latitude":"53.768984","street":{"id":1810090,"name":"On or near Oakwood Avenue"},"longitude":"-2.463190"},"context":"","outcome_status":null,"persistent_id":"","id":131193515,"location_subtype":"","month":"2025-09"},{"category":"anti-social-behaviour","location_type":"Force","location":{"latitude":"53.750341","street":{"id":1809499,"name":"On or near Brown Street"},"longitude":"-2.479787"},"context":"","outcome_status":null,"persistent_id":"","id":131192926,"location_subtype":"","month":"2025-09"},{"category":"anti-social-behaviour","location_type":"Force","location":{"latitude":"53.751168","street":{"id":1809706,"name":"On or near Mount Pleasant"},"longitude":"-2.475080"},"context":"","outcome_status":null,"persistent_id":"","id":131191255,"location_subtype":"","month":"2025-09"},{"category":"anti-social-behaviour","location_type":"Force","location":{"latitude":"53.751387","street":{"id":1809557,"name":"On or near Noblett Street"},"longitude":"-2.476554"},"context":"","outcome_status":null,"persistent_id":"","id":131191731,"location_subtype":"","month":"2025-09"},{"category":"anti-social-behaviour","location_type":"Force","location":{"latitude":"53.750061","street":{"id":1809461,"name":"On or near Parking Area"},"longitude":"-2.480087"},"context":"","outcome_status":null,"persistent_id":"","id":131191714,"location_subtype":"","month":"2025-09"},{"category":"anti-social-behaviour","location_type":"Force","location":{"latitude":"53.758996","street":{"id":1809967,"name":"On or near Railway Grove"},"longitude":"-2.468571"},"context":"","outcome_status":null,"persistent_id":"","id":131191493,"location_subtype":"","month":"2025-09"},{"category":"anti-social-behaviour","location_type":"Force","location":{"latitude":"53.764898","street":{"id":1809941,"name":"On or near Clarendon Road East"},"longitude":"-2.467150"},"context":"","outcome_status":null,"persistent_id":"","id":131191352,"location_subtype":"","month":"2025-09"},{"category":"anti-social-behaviour","location_type":"Force","location":{"latitude":"53.749614","street":{"id":1810226,"name":"On or near Petrol Station"},"longitude":"-2.461112"},"context":"","outcome_status":null,"persistent_id":"","id":131191298,"location_subtype":"","month":"2025-09"},{"category":"anti-social-behaviour","location_type":"Force","location":{"latitude":"53.751702","street":{"id":1810249,"name":"On or near Hill Street"},"longitude":"-2.460558"},"context":"","outcome_status":null,"persistent_id":"","id":131192685,"location_subtype":"","month":"2025-09"},{"category":"anti-social-behaviour","location_type":"Force","location":{"latitude":"53.753202","street":{"id":1809525,"name":"On or near Oriole Close"},"longitude":"-2.479092"},"context":"","outcome_status":null,"persistent_id":"","id":131192658,"location_subtype":"","month":"2025-09"},{"category":"anti-social-behaviour","location_type":"Force","location":{"latitude":"53.743731","street":{"id":1810131,"name":"On or near Nottingham Street"},"longitude":"-2.464595"},"context":"","outcome_status":null,"persistent_id":"","id":131192392,"location_subtype":"","month":"2025-09"},{"category":"anti-social-behaviour","location_type":"Force","location":{"latitude":"53.753202","street":{"id":1809525,"name":"On or near Oriole Close"},"longitude":"-2.479092"},"context":"","outcome_status":null,"persistent_id":"","id":131192801,"location_subtype":"","month":"2025-09"},{"category":"anti-social-behaviour","location_type":"Force","location":{"latitude":"53.751168","street":{"id":1809706,"name":"On or near Mount Pleasant"},"longitude":"-2.475080"},"context":"","outcome_status":null,"persistent_id":"","id":131192767,"location_subtype":"","month":"2025-09"},{"category":"anti-social-behaviour","location_type":"Force","location":{"latitude":"53.751702","street":{"id":1810249,"name":"On or near Hill Street"},"longitude":"-2.460558"},"context":"","outcome_status":null,"persistent_id":"","id":131192750,"location_subtype":"","month":"2025-09"},{"category":"anti-social-behaviour","location_type":"Force","location":{"latitude":"53.743540","street":{"id":1810150,"name":"On or near Ripon Street"},"longitude":"-2.462925"},"context":"","outcome_status":null,"persistent_id":"","id":131192311,"location_subtype":"","month":"2025-09"},{"category":"anti-social-behaviour","location_type":"Force","location":{"latitude":"53.763413","street":{"id":1810172,"name":"On or near Tintern Crescent"},"longitude":"-2.462825"},"context":"","outcome_status":null,"persistent_id":"","id":131192270,"location_subtype":"","month":"2025-09"},{"category":"anti-social-behaviour","location_type":"Force","location":{"latitude":"53.747845","street":{"id":1809482,"name":"On or near High Street"},"longitude":"-2.479137"},"context":"","outcome_status":null,"persistent_id":"","id":131192259,"location_subtype":"","month":"2025-09"},{"category":"anti-social-behaviour","location_type":"Force","location":{"latitude":"53.755661","street":{"id":1809477,"name":"On or near Whalley Street"},"longitude":"-2.480030"},"context":"","outcome_status":null,"persistent_id":"","id":131192256,"location_subtype":"","month":"2025-09"},{"category":"anti-social-behaviour","location_type":"Force","location":{"latitude":"53.742542","street":{"id":1810266,"name":"On or near Harrow Drive"},"longitude":"-2.460701"},"context":"","outcome_status":null,"persistent_id":"","id":131192214,"location_subtype":"","month":"2025-09"},{"category":"anti-social-behaviour","location_type":"Force","location":{"latitude":"53.746223","street":{"id":1809607,"name":"On or near Bridgemill Road"},"longitude":"-2.475479"},"context":"","outcome_status":null,"persistent_id":"","id":131192105,"location_subtype":"","month":"2025-09"},{"category":"anti-social-behaviour","location_type":"Force","location":{"latitude":"53.747232","street":{"id":1810507,"name":"On or near Eagle Street"},"longitude":"-2.449440"},"context":"","outcome_status":null,"persistent_id":"","id":131192085,"location_subtype":"","month":"2025-09"},{"category":"anti-social-behaviour","location_type":"Force","location":{"latitude":"53.751702","street":{"id":1810249,"name":"On or near Hill Street"},"longitude":"-2.460558"},"context":"","outcome_status":null,"persistent_id":"","id":131192082,"location_subtype":"","month":"2025-09"},{"category":"anti-social-behaviour","location_type":"Force","location":{"latitude":"53.747493","street":{"id":1810295,"name":"On or near Cherry Close"},"longitude":"-2.458738"},"context":"","outcome_status":null,"persistent_id":"","id":131192080,"location_subtype":"","month":"2025-09"},{"category":"anti-social-behaviour","location_type":"Force","location":{"latitude":"53.764376","street":{"id":1809563,"name":"On or near Briar Road"},"longitude":"-2.476261"},"context":"","outcome_status":null,"persistent_id":"","id":131192038,"location_subtype":"","month":"2025-09"},{"category":"anti-social-behaviour","location_type":"Force","location":{"latitude":"53.753669","street":{"id":1810460,"name":"On or near Thornley Avenue"},"longitude":"-2.449084"},"context":"","outcome_status":null,"persistent_id":"","id":131191946,"location_subtype":"","month":"2025-09"},{"category":"anti-social-behaviour","location_type":"Force","location":{"latitude":"53.746721","street":{"id":1810187,"name":"On or near Rivington Close"},"longitude":"-2.463142"},"context":"","outcome_status":null,"persistent_id":"","id":131191790,"location_subtype":"","month":"2025-09"},{"category":"anti-social-behaviour","location_type":"Force","location":{"latitude":"53.745961","street":{"id":1810145,"name":"On or near Lambeth Close"},"longitude":"-2.464377"},"context":"","outcome_status":null,"persistent_id":"","id":131191465,"location_subtype":"","month":"2025-09"},{"category":"anti-social-behaviour","location_type":"Force","location":{"latitude":"53.751168","street":{"id":1809706,"name":"On or near Mount Pleasant"},"longitude":"-2.475080"},"context":"","outcome_status":null,"persistent_id":"","id":131191449,"location_subtype":"","month":"2025-09"},{"category":"anti-social-behaviour","location_type":"Force","location":{"latitude":"53.744258","street":{"id":1809883,"name":"On or near Leeds Close"},"longitude":"-2.470181"},"context":"","outcome_status":null,"persistent_id":"","id":131191183,"location_subtype":"","month":"2025-09"},{"category":"anti-social-behaviour","location_type":"Force","location":{"latitude":"53.753669","street":{"id":1810460,"name":"On or near Thornley Avenue"},"longitude":"-2.449084"},"context":"","outcome_status":null,"persistent_id":"","id":131191171,"location_subtype":"","month":"2025-09"},{"category":"anti-social-behaviour","location_type":"Force","location":{"latitude":"53.760392","street":{"id":1809992,"name":"On or near Warmden Gardens"},"longitude":"-2.467873"},"context":"","outcome_status":null,"persistent_id":"","id":131191090,"location_subtype":"","month":"2025-09"},{"category":"anti-social-behaviour","location_type":"Force","location":{"latitude":"53.753669","street":{"id":1810460,"name":"On or near Thornley Avenue"},"longitude":"-2.449084"},"context":"","outcome_status":null,"persistent_id":"","id":131191052,"location_subtype":"","month":"2025-09"},{"category":"anti-social-behaviour","location_type":"Force","location":{"latitude":"53.745711","street":{"id":1809926,"name":"On or near Strathclyde Road"},"longitude":"-2.468665"},"context":"","outcome_status":null,"persistent_id":"","id":131191150,"location_subtype":"","month":"2025-09"},{"category":"anti-social-behaviour","location_type":"Force","location":{"latitude":"53.745711","street":{"id":1809926,"name":"On or near Strathclyde Road"},"longitude":"-2.468665"},"context":"","outcome_status":null,"persistent_id":"","id":131191143,"location_subtype":"","month":"2025-09"},{"category":"anti-social-behaviour","location_type":"Force","location":{"latitude":"53.752027","street":{"id":1810565,"name":"On or near Gloucester Road"},"longitude":"-2.448202"},"context":"","outcome_status":null,"persistent_id":"","id":131194869,"location_subtype":"","month":"2025-09"},{"category":"anti-social-behaviour","location_type":"Force","location":{"latitude":"53.751702","street":{"id":1810249,"name":"On or near Hill Street"},"longitude":"-2.460558"},"context":"","outcome_status":null,"persistent_id":"","id":131194308,"location_subtype":"","month":"2025-09"},{"category":"anti-social-behaviour","location_type":"Force","location":{"latitude":"53.745933","street":{"id":1810022,"name":"On or near Shakeshaft Street"},"longitude":"-2.467015"},"context":"","outcome_status":null,"persistent_id":"","id":131192922,"location_subtype":"","month":"2025-09"},{"category":"anti-social-behaviour","location_type":"Force","location":{"latitude":"53.753202","street":{"id":1809525,"name":"On or near Oriole Close"},"longitude":"-2.479092"},"context":"","outcome_status":null,"persistent_id":"","id":131192335,"location_subtype":"","month":"2025-09"},{"category":"anti-social-behaviour","location_type":"Force","location":{"latitude":"53.742651","street":{"id":1810117,"name":"On or near Pringle Street"},"longitude":"-2.465084"},"context":"","outcome_status":null,"persistent_id":"","id":131191586,"location_subtype":"","month":"2025-09"},{"category":"anti-social-behaviour","location_type":"Force","location":{"latitude":"53.768380","street":{"id":1810206,"name":"On or near Sunny Bower Close"},"longitude":"-2.461560"},"context":"","outcome_status":null,"persistent_id":"","id":131191175,"location_subtype":"","month":"2025-09"},{"category":"anti-social-behaviour","location_type":"Force","location":{"latitude":"53.752027","street":{"id":1810565,"name":"On or near Gloucester Road"},"longitude":"-2.448202"},"context":"","outcome_status":null,"persistent_id":"","id":131194691,"location_subtype":"","month":"2025-09"},{"category":"anti-social-behaviour","location_type":"Force","location":{"latitude":"53.750061","street":{"id":1809461,"name":"On or near Parking Area"},"longitude":"-2.480087"},"context":"","outcome_status":null,"persistent_id":"","id":131195021,"location_subtype":"","month":"2025-09"},{"category":"anti-social-behaviour","location_type":"Force","location":{"latitude":"53.751250","street":{"id":1810494,"name":"On or near Worcester Road"},"longitude":"-2.449225"},"context":"","outcome_status":null,"persistent_id":"","id":131194975,"location_subtype":"","month":"2025-09"},{"category":"anti-social-behaviour","location_type":"Force","location":{"latitude":"53.746828","street":{"id":1809720,"name":"On or near Cicely Street"},"longitude":"-2.474956"},"context":"","outcome_status":null,"persistent_id":"","id":131194938,"location_subtype":"","month":"2025-09"},{"category":"anti-social-behaviour","location_type":"Force","location":{"latitude":"53.742578","street":{"id":1810263,"name":"On or near Dorchester Close"},"longitude":"-2.460837"},"context":"","outcome_status":null,"persistent_id":"","id":131194930,"location_subtype":"","month":"2025-09"},{"category":"anti-social-behaviour","location_type":"Force","location":{"latitude":"53.744047","street":{"id":1809863,"name":"On or near Reading Close"},"longitude":"-2.471376"},"context":"","outcome_status":null,"persistent_id":"","id":131194797,"location_subtype":"","month":"2025-09"},{"category":"anti-social-behaviour","location_type":"Force","location":{"latitude":"53.745826","street":{"id":1809832,"name":"On or near Bristol Close"},"longitude":"-2.471335"},"context":"","outcome_status":null,"persistent_id":"","id":131194856,"location_subtype":"","month":"2025-09"},{"category":"anti-social-behaviour","location_type":"Force","location":{"latitude":"53.754009","street":{"id":1809339,"name":"On or near Balaclava Street"},"longitude":"-2.483954"},"context":"","outcome_status":null,"persistent_id":"","id":131194509,"location_subtype":"","month":"2025-09"},{"category":"anti-social-behaviour","location_type":"Force","location":{"latitude":"53.751702","street":{"id":1810249,"name":"On or near Hill Street"},"longitude":"-2.460558"},"context":"","outcome_status":null,"persistent_id":"","id":131194282,"location_subtype":"","month":"2025-09"},{"category":"anti-social-behaviour","location_type":"Force","location":{"latitude":"53.754009","street":{"id":1809339,"name":"On or near Balaclava Street"},"longitude":"-2.483954"},"context":"","outcome_status":null,"persistent_id":"","id":131194256,"location_subtype":"","month":"2025-09"},{"category":"anti-social-behaviour","location_type":"Force","location":{"latitude":"53.757700","street":{"id":1810140,"name":"On or near Woodville Road"},"longitude":"-2.464309"},"context":"","outcome_status":null,"persistent_id":"","id":131194610,"location_subtype":"","month":"2025-09"},{"category":"anti-social-behaviour","location_type":"Force","location":{"latitude":"53.745807","street":{"id":1810492,"name":"On or near Delph Close"},"longitude":"-2.450683"},"context":"","outcome_status":null,"persistent_id":"","id":131194587,"location_subtype":"","month":"2025-09"},{"category":"anti-social-behaviour","location_type":"Force","location":{"latitude":"53.742748","street":{"id":1809987,"name":"On or near Chester Close"},"longitude":"-2.467935"},"context":"","outcome_status":null,"persistent_id":"","id":131194194,"location_subtype":"","month":"2025-09"},{"category":"anti-social-behaviour","location_type":"Force","location":{"latitude":"53.750061","street":{"id":1809461,"name":"On or near Parking Area"},"longitude":"-2.480087"},"context":"","outcome_status":null,"persistent_id":"","id":131194185,"location_subtype":"","month":"2025-09"},{"category":"anti-social-behaviour","location_type":"Force","location":{"latitude":"53.764898","street":{"id":1809941,"name":"On or near Clarendon Road East"},"longitude":"-2.467150"},"context":"","outcome_status":null,"persistent_id":"","id":131194012,"location_subtype":"","month":"2025-09"},{"category":"anti-social-behaviour","location_type":"Force","location":{"latitude":"53.747234","street":{"id":1810116,"name":"On or near Selkirk Close"},"longitude":"-2.465362"},"context":"","outcome_status":null,"persistent_id":"","id":131194005,"location_subtype":"","month":"2025-09"},{"category":"anti-social-behaviour","location_type":"Force","location":{"latitude":"53.751747","street":{"id":1809541,"name":"On or near Swift Close"},"longitude":"-2.478711"},"context":"","outcome_status":null,"persistent_id":"","id":131194319,"location_subtype":"","month":"2025-09"},{"category":"anti-social-behaviour","location_type":"Force","location":{"latitude":"53.749649","street":{"id":1809381,"name":"On or near Parking Area"},"longitude":"-2.481993"},"context":"","outcome_status":null,"persistent_id":"","id":131193971,"location_subtype":"","month":"2025-09"},{"category":"anti-social-behaviour","location_type":"Force","location":{"latitude":"53.751702","street":{"id":1810249,"name":"On or near Hill Street"},"longitude":"-2.460558"},"context":"","outcome_status":null,"persistent_id":"","id":131193930,"location_subtype":"","month":"2025-09"},{"category":"anti-social-behaviour","location_type":"Force","location":{"latitude":"53.760201","street":{"id":1810171,"name":"On or near Benson Street"},"longitude":"-2.463685"},"context":"","outcome_status":null,"persistent_id":"","id":131193891,"location_subtype":"","month":"2025-09"},{"category":"anti-social-behaviour","location_type":"Force","location":{"latitude":"53.743845","street":{"id":1809779,"name":"On or near Durham Close"},"longitude":"-2.472390"},"context":"","outcome_status":null,"persistent_id":"","id":131193835,"location_subtype":"","month":"2025-09"},{"category":"anti-social-behaviour","location_type":"Force","location":{"latitude":"53.769377","street":{"id":1809668,"name":"On or near Pearl Close"},"longitude":"-2.475332"},"context":"","outcome_status":null,"persistent_id":"","id":131194044,"location_subtype":"","month":"2025-09"},{"category":"anti-social-behaviour","location_type":"Force","location":{"latitude":"53.747493","street":{"id":1810295,"name":"On or near Cherry Close"},"longitude":"-2.458738"},"context":"","outcome_status":null,"persistent_id":"","id":131194029,"location_subtype":"","month":"2025-09"},{"category":"anti-social-behaviour","location_type":"Force","location":{"latitude":"53.751702","street":{"id":1810249,"name":"On or near Hill Street"},"longitude":"-2.460558"},"context":"","outcome_status":null,"persistent_id":"","id":131193595,"location_subtype":"","month":"2025-09"},{"category":"anti-social-behaviour","location_type":"Force","location":{"latitude":"53.753388","street":{"id":1809246,"name":"On or near Willoughby Street"},"longitude":"-2.486298"},"context":"","outcome_status":null,"persistent_id":"","id":131192600,"location_subtype":"","month":"2025-09"},{"category":"anti-social-behaviour","location_type":"Force","location":{"latitude":"53.748263","street":{"id":1810283,"name":"On or near St Margarets Way"},"longitude":"-2.459550"},"context":"","outcome_status":null,"persistent_id":"","id":131192473,"location_subtype":"","month":"2025-09"},{"category":"anti-social-behaviour","location_type":"Force","location":{"latitude":"53.759762","street":{"id":1809524,"name":"On or near Snowdon Avenue"},"longitude":"-2.479334"},"context":"","outcome_status":null,"persistent_id":"","id":131192468,"location_subtype":"","month":"2025-09"},{"category":"anti-social-behaviour","location_type":"Force","location":{"latitude":"53.751702","street":{"id":1810249,"name":"On or near Hill Street"},"longitude":"-2.460558"},"context":"","outcome_status":null,"persistent_id":"","id":131192719,"location_subtype":"","month":"2025-09"},{"category":"anti-social-behaviour","location_type":"Force","location":{"latitude":"53.744641","street":{"id":1809868,"name":"On or near Sussex Drive"},"longitude":"-2.471019"},"context":"","outcome_status":null,"persistent_id":"","id":131193107,"location_subtype":"","month":"2025-09"},{"category":"anti-social-behaviour","location_type":"Force","location":{"latitude":"53.750786","street":{"id":1809449,"name":"On or near Ainsworth Street"},"longitude":"-2.480702"},"context":"","outcome_status":null,"persistent_id":"","id":131193096,"location_subtype":"","month":"2025-09"},{"category":"anti-social-behaviour","location_type":"Force","location":{"latitude":"53.763413","street":{"id":1810172,"name":"On or near Tintern Crescent"},"longitude":"-2.462825"},"context":"","outcome_status":null,"persistent_id":"","id":131193775,"location_subtype":"","month":"2025-09"},{"category":"anti-social-behaviour","location_type":"Force","location":{"latitude":"53.762407","street":{"id":1809982,"name":"On or near Zion Road"},"longitude":"-2.467335"},"context":"","outcome_status":null,"persistent_id":"","id":131193749,"location_subtype":"","month":"2025-09"},{"category":"anti-social-behaviour","location_type":"Force","location":{"latitude":"53.751702","street":{"id":1810249,"name":"On or near Hill Street"},"longitude":"-2.460558"},"context":"","outcome_status":null,"persistent_id":"","id":131193690,"location_subtype":"","month":"2025-09"},{"category":"anti-social-behaviour","location_type":"Force","location":{"latitude":"53.751702","street":{"id":1810249,"name":"On or near Hill Street"},"longitude":"-2.460558"},"context":"","outcome_status":null,"persistent_id":"","id":131193657,"location_subtype":"","month":"2025-09"},{"category":"anti-social-behaviour","location_type":"Force","location":{"latitude":"53.765025","street":{"id":1809675,"name":"On or near Rosewood Avenue"},"longitude":"-2.475829"},"context":"","outcome_status":null,"persistent_id":"","id":131193656,"location_subtype":"","month":"2025-09"},{"category":"anti-social-behaviour","location_type":"Force","location":{"latitude":"53.748263","street":{"id":1810283,"name":"On or near St Margarets Way"},"longitude":"-2.459550"},"context":"","outcome_status":null,"persistent_id":"","id":131193614,"location_subtype":"","month":"2025-09"},{"category":"anti-social-behaviour","location_type":"Force","location":{"latitude":"53.743284","street":{"id":1810016,"name":"On or near Edith Street"},"longitude":"-2.466516"},"context":"","outcome_status":null,"persistent_id":"","id":131193435,"location_subtype":"","month":"2025-09"},{"category":"anti-social-behaviour","location_type":"Force","location":{"latitude":"53.748263","street":{"id":1810283,"name":"On or near St Margarets Way"},"longitude":"-2.459550"},"context":"","outcome_status":null,"persistent_id":"","id":131193415,"location_subtype":"","month":"2025-09"},{"category":"anti-social-behaviour","location_type":"Force","location":{"latitude":"53.769355","street":{"id":1809802,"name":"On or near Highbank"},"longitude":"-2.471857"},"context":"","outcome_status":null,"persistent_id":"","id":131193413,"location_subtype":"","month":"2025-09"},{"category":"anti-social-behaviour","location_type":"Force","location":{"latitude":"53.747845","street":{"id":1809482,"name":"On or near High Street"},"longitude":"-2.479137"},"context":"","outcome_status":null,"persistent_id":"","id":131193342,"location_subtype":"","month":"2025-09"},{"category":"burglary","location_type":"Force","location":{"latitude":"53.747694","street":{"id":1810279,"name":"On or near St Marys Close"},"longitude":"-2.460363"},"context":"","outcome_status":{"category":"Investigation complete; no suspect identified","date":"2025-09"},"persistent_id":"c516e440812b6ebba652723bc7810f8f1345b99bf3d042abc2f67946e8afbd32","id":131184800,"location_subtype":"","month":"2025-09"},{"category":"burglary","location_type":"Force","location":{"latitude":"53.748598","street":{"id":1810440,"name":"On or near Patten Street"},"longitude":"-2.454246"},"context":"","outcome_status":{"category":"Investigation complete; no suspect identified","date":"2025-09"},"persistent_id":"a0b511ae3d9c6185b37291c11ddfa919396b2e94d2e34af5812bd89ec45d737c","id":131186439,"location_subtype":"","month":"2025-09"},{"category":"burglary","location_type":"Force","location":{"latitude":"53.744258","street":{"id":1809883,"name":"On or near Leeds Close"},"longitude":"-2.470181"},"context":"","outcome_status":{"category":"Investigation complete; no suspect identified","date":"2025-09"},"persistent_id":"0dc078ee40237e16015ad42a0768555f08164c6df2c294968ba094f5ad155790","id":131183555,"location_subtype":"","month":"2025-09"},{"category":"burglary","location_type":"Force","location":{"latitude":"53.766918","street":{"id":1809693,"name":"On or near Sapphire Street"},"longitude":"-2.474515"},"context":"","outcome_status":{"category":"Investigation complete; no suspect identified","date":"2025-10"},"persistent_id":"46dbe41b3b9af5fd5725b1b75a8a7b94b26d487c8cf9d14f12091d4083dc28ea","id":131187449,"location_subtype":"","month":"2025-09"},{"category":"burglary","location_type":"Force","location":{"latitude":"53.756468","street":{"id":1810186,"name":"On or near Glenfield Close"},"longitude":"-2.462142"},"context":"","outcome_status":{"category":"Investigation complete; no suspect identified","date":"2025-09"},"persistent_id":"16d89304bcc21981e781332017fe82c90b74b1a58253f0b2119e691262d1f8eb","id":131180986,"location_subtype":"","month":"2025-09"},{"category":"criminal-damage-arson","location_type":"Force","location":{"latitude":"53.767687","street":{"id":1809688,"name":"On or near Gretna Road"},"longitude":"-2.475358"},"context":"","outcome_status":{"category":"Investigation complete; no suspect identified","date":"2025-10"},"persistent_id":"7642c29b2adf849be2a5cf63de293d7658569a78230487352ed00cfce17bb5be","id":131182422,"location_subtype":"","month":"2025-09"},{"category":"criminal-damage-arson","location_type":"Force","location":{"latitude":"53.753669","street":{"id":1810460,"name":"On or near Thornley Avenue"},"longitude":"-2.449084"},"context":"","outcome_status":{"category":"Awaiting court outcome","date":"2025-09"},"persistent_id":"b7319f4c7f2b4ef66ee4348021b664dd1b44f36cb392d1aa5001c59cb3e4a2c1","id":131185904,"location_subtype":"","month":"2025-09"},{"category":"criminal-damage-arson","location_type":"Force","location":{"latitude":"53.746262","street":{"id":1809690,"name":"On or near Cicely Court"},"longitude":"-2.474752"},"context":"","outcome_status":{"category":"Investigation complete; no suspect identified","date":"2025-09"},"persistent_id":"875268cb0d2fb37c9ccc23a61af29abe8acb3925ce2847bc3b178bf0e618c7a9","id":131189273,"location_subtype":"","month":"2025-09"},{"category":"criminal-damage-arson","location_type":"Force","location":{"latitude":"53.769377","street":{"id":1809668,"name":"On or near Pearl Close"},"longitude":"-2.475332"},"context":"","outcome_status":{"category":"Awaiting court outcome","date":"2025-09"},"persistent_id":"b7ef088cc5649e44f3c280a5f897ad945e77bd20bc02dca1eef779a7492c4c52","id":131188350,"location_subtype":"","month":"2025-09"},{"category":"criminal-damage-arson","location_type":"Force","location":{"latitude":"53.751747","street":{"id":1809541,"name":"On or near Swift Close"},"longitude":"-2.478711"},"context":"","outcome_status":{"category":"Investigation complete; no suspect identified","date":"2025-09"},"persistent_id":"0d55b3d4ad4838bd67491e0ff7673fc015e2d7fe918db276284a2785d61f27fb","id":131181859,"location_subtype":"","month":"2025-09"},{"category":"criminal-damage-arson","location_type":"Force","location":{"latitude":"53.756383","street":{"id":1809629,"name":"On or near Snow Street"},"longitude":"-2.477096"},"context":"","outcome_status":{"category":"Investigation complete; no suspect identified","date":"2025-09"},"persistent_id":"fb6c6593965f023b4fedd0edc4ad78dd9424debe1363512165104a1bd510a038","id":131183940,"location_subtype":"","month":"2025-09"},{"category":"criminal-damage-arson","location_type":"Force","location":{"latitude":"53.754790","street":{"id":1809718,"name":"On or near Shopping Area"},"longitude":"-2.474202"},"context":"","outcome_status":{"category":"Unable to prosecute suspect","date":"2025-09"},"persistent_id":"e6089d336f861d3475692627c575d63fff6a0f29de59661326dda8f71dc95969","id":131184864,"location_subtype":"","month":"2025-09"},{"category":"criminal-damage-arson","location_type":"Force","location":{"latitude":"53.759044","street":{"id":1809283,"name":"On or near Northfield Road"},"longitude":"-2.485787"},"context":"","outcome_status":{"category":"Unable to prosecute suspect","date":"2025-10"},"persistent_id":"27f344b228dc103da379c094e9afd570f3aeec9d60faadcc9e49725000faeca8","id":131186736,"location_subtype":"","month":"2025-09"},{"category":"criminal-damage-arson","location_type":"Force","location":{"latitude":"53.746262","street":{"id":1809690,"name":"On or near Cicely Court"},"longitude":"-2.474752"},"context":"","outcome_status":{"category":"Investigation complete; no suspect identified","date":"2025-10"},"persistent_id":"aac474969e511824aba5eabd930f2f956fd274ba6b08daa1e79151dca1658858","id":131189664,"location_subtype":"","month":"2025-09"},{"category":"criminal-damage-arson","location_type":"Force","location":{"latitude":"53.747232","street":{"id":1810507,"name":"On or near Eagle Street"},"longitude":"-2.449440"},"context":"","outcome_status":{"category":"Investigation complete; no suspect identified","date":"2025-09"},"persistent_id":"8b15689586ed69564235f9b7c5ce9c72b91e3feff84e797b79dfe5908c90dd2d","id":131190487,"location_subtype":"","month":"2025-09"},{"category":"criminal-damage-arson","location_type":"Force","location":{"latitude":"53.746450","street":{"id":1809523,"name":"On or near Police Station"},"longitude":"-2.479500"},"context":"","outcome_status":{"category":"Status update unavailable","date":"2026-01"},"persistent_id":"053067b610c746d8da7720d8fb6a608c57409308c662aabdd9a87147b8fbe2da","id":131189034,"location_subtype":"","month":"2025-09"},{"category":"criminal-damage-arson","location_type":"Force","location":{"latitude":"53.743540","street":{"id":1810150,"name":"On or near Ripon Street"},"longitude":"-2.462925"},"context":"","outcome_status":{"category":"Investigation complete; no suspect identified","date":"2025-10"},"persistent_id":"f35045cf9cf041e4c681ec8286cc12680cb287c0e41eba624b22f79197ac796a","id":131190774,"location_subtype":"","month":"2025-09"},{"category":"criminal-damage-arson","location_type":"Force","location":{"latitude":"53.743005","street":{"id":1810348,"name":"On or near Sherwood Road"},"longitude":"-2.457264"},"context":"","outcome_status":{"category":"Status update unavailable","date":"2026-01"},"persistent_id":"ebd8b47a5e15e8f639a92bf87a7a425850797f5525ed47e258e2729dfb466261","id":131186004,"location_subtype":"","month":"2025-09"},{"category":"criminal-damage-arson","location_type":"Force","location":{"latitude":"53.750889","street":{"id":1809399,"name":"On or near James Street"},"longitude":"-2.482083"},"context":"","outcome_status":{"category":"Investigation complete; no suspect identified","date":"2025-09"},"persistent_id":"8b5e205eef0ade98c689f62f3c9a190f01ad17c720718ad8db89c35b810924ad","id":131188176,"location_subtype":"","month":"2025-09"},{"category":"criminal-damage-arson","location_type":"Force","location":{"latitude":"53.762407","street":{"id":1809982,"name":"On or near Zion Road"},"longitude":"-2.467335"},"context":"","outcome_status":{"category":"Investigation complete; no suspect identified","date":"2025-11"},"persistent_id":"8c5b9555bdc470bd9ea85d5ea66cc7f53a538f3c87491f33f35e24ac8e36f8c0","id":131189638,"location_subtype":"","month":"2025-09"},{"category":"criminal-damage-arson","location_type":"Force","location":{"latitude":"53.743724","street":{"id":1810058,"name":"On or near Randolph Street"},"longitude":"-2.466566"},"context":"","outcome_status":{"category":"Awaiting court outcome","date":"2025-09"},"persistent_id":"027050536e5d8287c263a14635ea7139152697d10cd0732dcb83a11167c33530","id":131186775,"location_subtype":"","month":"2025-09"},{"category":"criminal-damage-arson","location_type":"Force","location":{"latitude":"53.751702","street":{"id":1810249,"name":"On or near Hill Street"},"longitude":"-2.460558"},"context":"","outcome_status":{"category":"Offender given a caution","date":"2025-09"},"persistent_id":"f96e9d9cc7ece1c27e03fe9ef0393b3f1b732d6faa431c471ca4d284ee028d3f","id":131186847,"location_subtype":"","month":"2025-09"},{"category":"criminal-damage-arson","location_type":"Force","location":{"latitude":"53.746828","street":{"id":1809720,"name":"On or near Cicely Street"},"longitude":"-2.474956"},"context":"","outcome_status":{"category":"Awaiting court outcome","date":"2025-09"},"persistent_id":"957ca79f5ff1f066ea18fd879692a025fa64a0a3de3503c8eb5bfd6a35dfb9a4","id":131181775,"location_subtype":"","month":"2025-09"},{"category":"criminal-damage-arson","location_type":"Force","location":{"latitude":"53.745421","street":{"id":1810457,"name":"On or near Hythe Close"},"longitude":"-2.452999"},"context":"","outcome_status":{"category":"Investigation complete; no suspect identified","date":"2025-09"},"persistent_id":"de94697f024d8887e0a60300d9f8134752ccaf86e740381ab7a560f2447397af","id":131182494,"location_subtype":"","month":"2025-09"},{"category":"criminal-damage-arson","location_type":"Force","location":{"latitude":"53.743001","street":{"id":1810293,"name":"On or near Woodlea Road"},"longitude":"-2.458325"},"context":"","outcome_status":{"category":"Investigation complete; no suspect identified","date":"2025-09"},"persistent_id":"5a7b67d8c5945620f830fb21c81a71d587cfcc5bfc2c44d8303ce640168cf4c7","id":131183438,"location_subtype":"","month":"2025-09"},{"category":"criminal-damage-arson","location_type":"Force","location":{"latitude":"53.758881","street":{"id":1810092,"name":"On or near St Stephen's Avenue"},"longitude":"-2.465748"},"context":"","outcome_status":{"category":"Investigation complete; no suspect identified","date":"2025-11"},"persistent_id":"07ff50001a670fb472585295f5ee98c5ad8e06f199c230e9537428535ea77db2","id":131188719,"location_subtype":"","month":"2025-09"},{"category":"criminal-damage-arson","location_type":"Force","location":{"latitude":"53.755661","street":{"id":1809477,"name":"On or near Whalley Street"},"longitude":"-2.480030"},"context":"","outcome_status":{"category":"Investigation complete; no suspect identified","date":"2025-10"},"persistent_id":"c5593744a8de270ad8132b6dadcc79748106be7a1d36cb638d8aa2ef2a187a06","id":131183938,"location_subtype":"","month":"2025-09"},{"category":"criminal-damage-arson","location_type":"Force","location":{"latitude":"53.755661","street":{"id":1809477,"name":"On or near Whalley Street"},"longitude":"-2.480030"},"context":"","outcome_status":{"category":"Unable to prosecute suspect","date":"2025-09"},"persistent_id":"78bef72dcd9b6d588c3436a25b3dabcc7d0d736c72a0fb617019faa6e43e34df","id":131184447,"location_subtype":"","month":"2025-09"},{"category":"criminal-damage-arson","location_type":"Force","location":{"latitude":"53.754790","street":{"id":1809718,"name":"On or near Shopping Area"},"longitude":"-2.474202"},"context":"","outcome_status":{"category":"Status update unavailable","date":"2026-01"},"persistent_id":"420a2b7165bc65940426838545ecef5b32da4e78f852c36f1f51a84aeeeb2a20","id":131185422,"location_subtype":"","month":"2025-09"},{"category":"criminal-damage-arson","location_type":"Force","location":{"latitude":"53.749116","street":{"id":1810506,"name":"On or near Brecon Road"},"longitude":"-2.450218"},"context":"","outcome_status":{"category":"Unable to prosecute suspect","date":"2025-09"},"persistent_id":"2b013943d5c88ee3b4d45f875f594de2d4dc41a27932b93b1efb69f3d2d7c2df","id":131182991,"location_subtype":"","month":"2025-09"},{"category":"drugs","location_type":"Force","location":{"latitude":"53.759044","street":{"id":1809283,"name":"On or near Northfield Road"},"longitude":"-2.485787"},"context":"","outcome_status":{"category":"Local resolution","date":"2025-10"},"persistent_id":"509cb8f17e361c0d25cdaeaaf133848579bf388773010710aaad4d031eba4ce5","id":131189950,"location_subtype":"","month":"2025-09"},{"category":"drugs","location_type":"Force","location":{"latitude":"53.747845","street":{"id":1809482,"name":"On or near High Street"},"longitude":"-2.479137"},"context":"","outcome_status":{"category":"Local resolution","date":"2025-10"},"persistent_id":"070e608770ec8a739333b6ceb8bb7310c4605725c21f9d13de144cbbc8dcf3c2","id":131189098,"location_subtype":"","month":"2025-09"},{"category":"drugs","location_type":"Force","location":{"latitude":"53.753669","street":{"id":1810460,"name":"On or near Thornley Avenue"},"longitude":"-2.449084"},"context":"","outcome_status":{"category":"Status update unavailable","date":"2026-01"},"persistent_id":"50b7e1891f4a5e20822509ed461b6dbe1d86f0e03f5277e979e82591e5a107a6","id":131190771,"location_subtype":"","month":"2025-09"},{"category":"drugs","location_type":"Force","location":{"latitude":"53.747845","street":{"id":1809482,"name":"On or near High Street"},"longitude":"-2.479137"},"context":"","outcome_status":{"category":"Awaiting court outcome","date":"2025-09"},"persistent_id":"f895211bd90f88fa5c5e0ea21f72e8620c7e18ce202c0bc82afbd7a26b65d516","id":131190308,"location_subtype":"","month":"2025-09"},{"category":"drugs","location_type":"Force","location":{"latitude":"53.746371","street":{"id":1810358,"name":"On or near Petrol Station"},"longitude":"-2.456072"},"context":"","outcome_status":{"category":"Status update unavailable","date":"2026-01"},"persistent_id":"1396edc9ddacebb1f22b57b1896260e3d6eaaf20e35128daabbca22fd35a6a26","id":131189725,"location_subtype":"","month":"2025-09"},{"category":"drugs","location_type":"Force","location":{"latitude":"53.747845","street":{"id":1809482,"name":"On or near High Street"},"longitude":"-2.479137"},"context":"","outcome_status":{"category":"Local resolution","date":"2025-09"},"persistent_id":"71b7ac021601a9d62cbc9e99ae80663d5de840a8ca3a43f582c9dafb7feec4ed","id":131185954,"location_subtype":"","month":"2025-09"},{"category":"drugs","location_type":"Force","location":{"latitude":"53.754087","street":{"id":1809627,"name":"On or near Old Mill Street"},"longitude":"-2.475614"},"context":"","outcome_status":{"category":"Local resolution","date":"2025-10"},"persistent_id":"73174c366fd70fe8f6b6a94f7f463ae67e647b5072dbdb832d148e8aa1d3c412","id":131189530,"location_subtype":"","month":"2025-09"},{"category":"drugs","location_type":"Force","location":{"latitude":"53.759673","street":{"id":1809424,"name":"On or near Conway Avenue"},"longitude":"-2.481289"},"context":"","outcome_status":{"category":"Local resolution","date":"2025-09"},"persistent_id":"b743161aec823c529a341742b554579b40b722f46622e36d133d7fb86138e6e3","id":131181924,"location_subtype":"","month":"2025-09"},{"category":"drugs","location_type":"Force","location":{"latitude":"53.750786","street":{"id":1809449,"name":"On or near Ainsworth Street"},"longitude":"-2.480702"},"context":"","outcome_status":{"category":"Status update unavailable","date":"2026-01"},"persistent_id":"b9fc942e1d198b29bc783d8b40c636d3ef7e5099c2bb3ae635d2db3e495a2791","id":131188528,"location_subtype":"","month":"2025-09"},{"category":"drugs","location_type":"Force","location":{"latitude":"53.753444","street":{"id":1809300,"name":"On or near Bold Street"},"longitude":"-2.485950"},"context":"","outcome_status":{"category":"Awaiting court outcome","date":"2025-09"},"persistent_id":"6070aa187db473d9e3c429c99bd2c4ee559f9b17b8d9d9119fd4715027d11262","id":131188563,"location_subtype":"","month":"2025-09"},{"category":"drugs","location_type":"Force","location":{"latitude":"53.743005","street":{"id":1810348,"name":"On or near Sherwood Road"},"longitude":"-2.457264"},"context":"","outcome_status":{"category":"Status update unavailable","date":"2026-01"},"persistent_id":"15462922e915b43d9c87aa4f3f35d899112858dc1792c7903655d73c847846fc","id":131183071,"location_subtype":"","month":"2025-09"},{"category":"other-theft","location_type":"Force","location":{"latitude":"53.764067","street":{"id":1810543,"name":"On or near Sidebeet Lane"},"longitude":"-2.442111"},"context":"","outcome_status":{"category":"Investigation complete; no suspect identified","date":"2025-09"},"persistent_id":"da8039384e904471d1611f46c7c66343d348b89698616e54fcf3462c49c88b90","id":131188182,"location_subtype":"","month":"2025-09"},{"category":"other-theft","location_type":"Force","location":{"latitude":"53.749649","street":{"id":1809381,"name":"On or near Parking Area"},"longitude":"-2.481993"},"context":"","outcome_status":{"category":"Investigation complete; no suspect identified","date":"2025-09"},"persistent_id":"78be9a5b506d2cf898d79a50f66c95d4322e15acaaf85277643d837cbb43e79a","id":131188267,"location_subtype":"","month":"2025-09"},{"category":"other-theft","location_type":"Force","location":{"latitude":"53.748581","street":{"id":1810520,"name":"On or near Monmouth Road"},"longitude":"-2.449166"},"context":"","outcome_status":{"category":"Investigation complete; no suspect identified","date":"2025-09"},"persistent_id":"633827e940484da39d99ae67517175ce214f2eb166b025635aa4a02032d5a207","id":131187758,"location_subtype":"","month":"2025-09"},{"category":"other-theft","location_type":"Force","location":{"latitude":"53.750341","street":{"id":1809499,"name":"On or near Brown Street"},"longitude":"-2.479787"},"context":"","outcome_status":{"category":"Investigation complete; no suspect identified","date":"2025-09"},"persistent_id":"6be8dc90a4fee43964be48d9bc49d62e368873d5d0025abe95e18ce7def4754c","id":131182336,"location_subtype":"","month":"2025-09"},{"category":"other-theft","location_type":"Force","location":{"latitude":"53.750889","street":{"id":1809399,"name":"On or near James Street"},"longitude":"-2.482083"},"context":"","outcome_status":{"category":"Unable to prosecute suspect","date":"2025-09"},"persistent_id":"f7abc9dc48c5006bd50bfe9f115daa9af7577b757ec20323d84c4e3b4b6090d9","id":131181405,"location_subtype":"","month":"2025-09"},{"category":"other-theft","location_type":"Force","location":{"latitude":"53.753669","street":{"id":1810460,"name":"On or near Thornley Avenue"},"longitude":"-2.449084"},"context":"","outcome_status":{"category":"Status update unavailable","date":"2026-01"},"persistent_id":"28fbf4c50c38a34a4198bff5e0c4596cab709d12cd1dd20d6aa0a7de4980830c","id":131186723,"location_subtype":"","month":"2025-09"},{"category":"other-theft","location_type":"Force","location":{"latitude":"53.744203","street":{"id":1810432,"name":"On or near Sandwich Close"},"longitude":"-2.454184"},"context":"","outcome_status":{"category":"Investigation complete; no suspect identified","date":"2025-09"},"persistent_id":"19127c9b7a449c74c672bfb6891e440c8565e4e91f3c85b144808230c63fb68f","id":131185011,"location_subtype":"","month":"2025-09"},{"category":"other-theft","location_type":"Force","location":{"latitude":"53.747826","street":{"id":1810579,"name":"On or near Ingleby Close"},"longitude":"-2.446626"},"context":"","outcome_status":{"category":"Unable to prosecute suspect","date":"2025-11"},"persistent_id":"35110c4c92080609e908e74b78b8398ea07748d22cab8505536ee028a2191e60","id":131184407,"location_subtype":"","month":"2025-09"},{"category":"other-theft","location_type":"Force","location":{"latitude":"53.759673","street":{"id":1809424,"name":"On or near Conway Avenue"},"longitude":"-2.481289"},"context":"","outcome_status":{"category":"Investigation complete; no suspect identified","date":"2025-09"},"persistent_id":"4568c434813adf7b320f071a8159efeac9220f16297687ae6f7ee1e65942a90a","id":131180887,"location_subtype":"","month":"2025-09"},{"category":"other-theft","location_type":"Force","location":{"latitude":"53.752008","street":{"id":1809359,"name":"On or near Parking Area"},"longitude":"-2.483158"},"context":"","outcome_status":{"category":"Investigation complete; no suspect identified","date":"2025-10"},"persistent_id":"0e47691fa28f09040b4014062ebbd91c28553779948224a663bc543633e8a94e","id":131180745,"location_subtype":"","month":"2025-09"},{"category":"other-theft","location_type":"Force","location":{"latitude":"53.747845","street":{"id":1809482,"name":"On or near High Street"},"longitude":"-2.479137"},"context":"","outcome_status":{"category":"Investigation complete; no suspect identified","date":"2025-09"},"persistent_id":"d4fd7d5ce61e785d0038c2eab3a57580ca9e70c290a247726c03e15daa5cf6ae","id":131182000,"location_subtype":"","month":"2025-09"},{"category":"other-theft","location_type":"Force","location":{"latitude":"53.746621","street":{"id":1810065,"name":"On or near William Hopwood Street"},"longitude":"-2.465870"},"context":"","outcome_status":{"category":"Investigation complete; no suspect identified","date":"2025-09"},"persistent_id":"c433b77ea8fe69d2a663e62eb7a6e6f3e6eee008ec913d240040d6123a0f04f1","id":131184794,"location_subtype":"","month":"2025-09"},{"category":"other-theft","location_type":"Force","location":{"latitude":"53.747845","street":{"id":1809482,"name":"On or near High Street"},"longitude":"-2.479137"},"context":"","outcome_status":{"category":"Investigation complete; no suspect identified","date":"2025-09"},"persistent_id":"423c25a601e0fbda6d917723011aa2150ce4ae6ea95b392ab872946df2169567","id":131181350,"location_subtype":"","month":"2025-09"},{"category":"other-theft","location_type":"Force","location":{"latitude":"53.749649","street":{"id":1809381,"name":"On or near Parking Area"},"longitude":"-2.481993"},"context":"","outcome_status":{"category":"Unable to prosecute suspect","date":"2025-10"},"persistent_id":"8d7deb5d171d0761430ac802b4a27a571e3ba231b41222063355375269bcd5fd","id":131189162,"location_subtype":"","month":"2025-09"},{"category":"other-theft","location_type":"Force","location":{"latitude":"53.743001","street":{"id":1810293,"name":"On or near Woodlea Road"},"longitude":"-2.458325"},"context":"","outcome_status":{"category":"Investigation complete; no suspect identified","date":"2025-10"},"persistent_id":"62a031a1ac6b821674975863b07ab8278eec65a73b3beb91ab6151ba1941b841","id":131185663,"location_subtype":"","month":"2025-09"},{"category":"other-theft","location_type":"Force","location":{"latitude":"53.753669","street":{"id":1810460,"name":"On or near Thornley Avenue"},"longitude":"-2.449084"},"context":"","outcome_status":{"category":"Unable to prosecute suspect","date":"2025-10"},"persistent_id":"b574547e9948be25c4428479e604247b744a8749d9cccc62b9d58547d2bab34b","id":131190395,"location_subtype":"","month":"2025-09"},{"category":"other-theft","location_type":"Force","location":{"latitude":"53.749131","street":{"id":1810341,"name":"On or near Frederick Row"},"longitude":"-2.458271"},"context":"","outcome_status":{"category":"Investigation complete; no suspect identified","date":"2025-10"},"persistent_id":"19bcb30a22715a6de1ef49ff8ff5dfeaadb3cc5426c22effcb7005d0b79fc434","id":131190602,"location_subtype":"","month":"2025-09"},{"category":"other-theft","location_type":"Force","location":{"latitude":"53.759762","street":{"id":1809524,"name":"On or near Snowdon Avenue"},"longitude":"-2.479334"},"context":"","outcome_status":{"category":"Unable to prosecute suspect","date":"2025-10"},"persistent_id":"aed3d375a08fa0b6ab0a9a56b7c4a03f551f6bc4ab603325e8576af68a0c0366","id":131190778,"location_subtype":"","month":"2025-09"},{"category":"other-theft","location_type":"Force","location":{"latitude":"53.745765","street":{"id":1810222,"name":"On or near Baker Street"},"longitude":"-2.461767"},"context":"","outcome_status":{"category":"Investigation complete; no suspect identified","date":"2025-10"},"persistent_id":"a5a559cf75e98daf3e9511d473b234f74ef393a897b8356ac76082db1fdd0091","id":131190852,"location_subtype":"","month":"2025-09"},{"category":"other-theft","location_type":"Force","location":{"latitude":"53.754790","street":{"id":1809718,"name":"On or near Shopping Area"},"longitude":"-2.474202"},"context":"","outcome_status":{"category":"Investigation complete; no suspect identified","date":"2025-09"},"persistent_id":"dba66aa5b9eb1b1879d23b83704a9afdd79bff5e54cb45f37db1b0e9c32e60aa","id":131187061,"location_subtype":"","month":"2025-09"},{"category":"possession-of-weapons","location_type":"Force","location":{"latitude":"53.750786","street":{"id":1809449,"name":"On or near Ainsworth Street"},"longitude":"-2.480702"},"context":"","outcome_status":{"category":"Status update unavailable","date":"2026-01"},"persistent_id":"b5f606f3f38c13fc530e69bf8bba530be17fbf017acaa03d25bb5fa12d187284","id":131188527,"location_subtype":"","month":"2025-09"},{"category":"possession-of-weapons","location_type":"Force","location":{"latitude":"53.753669","street":{"id":1810460,"name":"On or near Thornley Avenue"},"longitude":"-2.449084"},"context":"","outcome_status":{"category":"Status update unavailable","date":"2026-01"},"persistent_id":"ccdccee1dc8aca62171fef4c47a4336b83feb95d780b401d1b4b1e4d20704eb4","id":131187179,"location_subtype":"","month":"2025-09"},{"category":"possession-of-weapons","location_type":"Force","location":{"latitude":"53.747845","street":{"id":1809482,"name":"On or near High Street"},"longitude":"-2.479137"},"context":"","outcome_status":{"category":"Awaiting court outcome","date":"2025-09"},"persistent_id":"74bb018290f42b1e94ba2f86c305b28f53e45daf6a0715edb3c15cddfb7345d8","id":131189735,"location_subtype":"","month":"2025-09"},{"category":"possession-of-weapons","location_type":"Force","location":{"latitude":"53.754087","street":{"id":1809627,"name":"On or near Old Mill Street"},"longitude":"-2.475614"},"context":"","outcome_status":{"category":"Local resolution","date":"2025-09"},"persistent_id":"f11e2aae0d59fb7592b391e5ae83daa1fc1a79dc0801c5e5041b0633680758a3","id":131189529,"location_subtype":"","month":"2025-09"},{"category":"public-order","location_type":"Force","location":{"latitude":"53.751168","street":{"id":1809706,"name":"On or near Mount Pleasant"},"longitude":"-2.475080"},"context":"","outcome_status":{"category":"Status update unavailable","date":"2026-01"},"persistent_id":"999767db93119766fabfb88e4ad67dff4ff2b9dbcd046e135bcf513ef487a986","id":131186575,"location_subtype":"","month":"2025-09"},{"category":"public-order","location_type":"Force","location":{"latitude":"53.744628","street":{"id":1810312,"name":"On or near Meadow Close"},"longitude":"-2.458131"},"context":"","outcome_status":{"category":"Investigation complete; no suspect identified","date":"2025-09"},"persistent_id":"a1d2c7c5511e7e0c26bbfe83d2523a875048e5b9b26978a0fb3ed1951974f25d","id":131185102,"location_subtype":"","month":"2025-09"},{"category":"public-order","location_type":"Force","location":{"latitude":"53.768984","street":{"id":1810090,"name":"On or near Oakwood Avenue"},"longitude":"-2.463190"},"context":"","outcome_status":{"category":"Investigation complete; no suspect identified","date":"2025-09"},"persistent_id":"e457f9cd7248991278a061f7d2116bc98c114bbf71e31271fddf869b05380470","id":131182768,"location_subtype":"","month":"2025-09"},{"category":"public-order","location_type":"Force","location":{"latitude":"53.751168","street":{"id":1809706,"name":"On or near Mount Pleasant"},"longitude":"-2.475080"},"context":"","outcome_status":{"category":"Status update unavailable","date":"2026-01"},"persistent_id":"c87ad8bd545c67fd6bbda3f357a589c79cd8801d1328196cc8bdbc838a38d4f0","id":131184590,"location_subtype":"","month":"2025-09"},{"category":"public-order","location_type":"Force","location":{"latitude":"53.749879","street":{"id":1810610,"name":"On or near Hamer Avenue"},"longitude":"-2.443326"},"context":"","outcome_status":{"category":"Unable to prosecute suspect","date":"2025-10"},"persistent_id":"79ac6f24e3493e11d6467e552f0f03784deb0419e692d7eefdacad4d52cafa26","id":131190450,"location_subtype":"","month":"2025-09"},{"category":"public-order","location_type":"Force","location":{"latitude":"53.751702","street":{"id":1810249,"name":"On or near Hill Street"},"longitude":"-2.460558"},"context":"","outcome_status":{"category":"Investigation complete; no suspect identified","date":"2025-10"},"persistent_id":"05ed07621a73b269ae2154fd9175088aeab191c5dc9c56cbb49c720322af3b11","id":131186150,"location_subtype":"","month":"2025-09"},{"category":"public-order","location_type":"Force","location":{"latitude":"53.748263","street":{"id":1810283,"name":"On or near St Margarets Way"},"longitude":"-2.459550"},"context":"","outcome_status":{"category":"Unable to prosecute suspect","date":"2025-10"},"persistent_id":"02c5467f892011f1537e33b1fb9d4d6085ce23f9b043a9d9cdccb1d729ad87ee","id":131186557,"location_subtype":"","month":"2025-09"},{"category":"public-order","location_type":"Force","location":{"latitude":"53.750341","street":{"id":1809499,"name":"On or near Brown Street"},"longitude":"-2.479787"},"context":"","outcome_status":{"category":"Status update unavailable","date":"2026-01"},"persistent_id":"2601f70ffd7c69997b9503b9b1de34014ad183d9626145ea85a45cd9e60df79a","id":131185282,"location_subtype":"","month":"2025-09"},{"category":"public-order","location_type":"Force","location":{"latitude":"53.747493","street":{"id":1810295,"name":"On or near Cherry Close"},"longitude":"-2.458738"},"context":"","outcome_status":{"category":"Investigation complete; no suspect identified","date":"2025-09"},"persistent_id":"e9f21c576f2f6cd846d7f0a43788d6fce166311e79170a4b308c5cfce3a460dc","id":131188541,"location_subtype":"","month":"2025-09"},{"category":"public-order","location_type":"Force","location":{"latitude":"53.756275","street":{"id":1810398,"name":"On or near Greenbank Way"},"longitude":"-2.456286"},"context":"","outcome_status":{"category":"Unable to prosecute suspect","date":"2025-11"},"persistent_id":"9be4c4200f4521acee848d15e88f8b580ba489843fa822cbaeaaf3b8985331a1","id":131183133,"location_subtype":"","month":"2025-09"},{"category":"public-order","location_type":"Force","location":{"latitude":"53.753669","street":{"id":1810460,"name":"On or near Thornley Avenue"},"longitude":"-2.449084"},"context":"","outcome_status":{"category":"Awaiting court outcome","date":"2025-09"},"persistent_id":"7f40871aae4ba7adc084c3d6921470cd21f134a48fdd6fd97cd116a58ac8a63b","id":131181549,"location_subtype":"","month":"2025-09"},{"category":"public-order","location_type":"Force","location":{"latitude":"53.746262","street":{"id":1809690,"name":"On or near Cicely Court"},"longitude":"-2.474752"},"context":"","outcome_status":{"category":"Status update unavailable","date":"2026-01"},"persistent_id":"eec4e31ba3019d3bdc80fc820e72bd4461db1ebe5459ef49594872bd9048366c","id":131188195,"location_subtype":"","month":"2025-09"},{"category":"public-order","location_type":"Force","location":{"latitude":"53.747493","street":{"id":1810295,"name":"On or near Cherry Close"},"longitude":"-2.458738"},"context":"","outcome_status":{"category":"Investigation complete; no suspect identified","date":"2025-09"},"persistent_id":"6cabaa8a8fd4673761105e1b55ce7441b312582707cd9ca4332faf3de89ed858","id":131182942,"location_subtype":"","month":"2025-09"},{"category":"public-order","location_type":"Force","location":{"latitude":"53.753669","street":{"id":1810460,"name":"On or near Thornley Avenue"},"longitude":"-2.449084"},"context":"","outcome_status":{"category":"Awaiting court outcome","date":"2025-09"},"persistent_id":"6ed103994ba1d48e3310700b99d5eb86b14aa8fc72b6928f1df3c90b5a86847c","id":131181163,"location_subtype":"","month":"2025-09"},{"category":"public-order","location_type":"Force","location":{"latitude":"53.749649","street":{"id":1809381,"name":"On or near Parking Area"},"longitude":"-2.481993"},"context":"","outcome_status":{"category":"Unable to prosecute suspect","date":"2025-11"},"persistent_id":"1a550dba10aad833698ba32eaecb77c1b2a893d75caafecadb18b9841942c09f","id":131182832,"location_subtype":"","month":"2025-09"},{"category":"public-order","location_type":"Force","location":{"latitude":"53.744628","street":{"id":1810312,"name":"On or near Meadow Close"},"longitude":"-2.458131"},"context":"","outcome_status":{"category":"Unable to prosecute suspect","date":"2025-09"},"persistent_id":"b6933f6e72119f1f10d35467852bd772479a6409b44906da6ad6416bd299af16","id":131186754,"location_subtype":"","month":"2025-09"},{"category":"public-order","location_type":"Force","location":{"latitude":"53.747493","street":{"id":1810295,"name":"On or near Cherry Close"},"longitude":"-2.458738"},"context":"","outcome_status":{"category":"Investigation complete; no suspect identified","date":"2025-09"},"persistent_id":"0b6c0733479355faee9174022e94f06c47cc071be2fd1d610bf1b5a36fdf0351","id":131188540,"location_subtype":"","month":"2025-09"},{"category":"public-order","location_type":"Force","location":{"latitude":"53.747845","street":{"id":1809482,"name":"On or near High Street"},"longitude":"-2.479137"},"context":"","outcome_status":{"category":"Unable to prosecute suspect","date":"2025-10"},"persistent_id":"22b0fbcaee86bbcc9bff97cba2935f067fad986f5bc2cc2d7249d4c7d7aca903","id":131190859,"location_subtype":"","month":"2025-09"},{"category":"public-order","location_type":"Force","location":{"latitude":"53.744496","street":{"id":1810123,"name":"On or near Walter Street"},"longitude":"-2.464467"},"context":"","outcome_status":{"category":"Unable to prosecute suspect","date":"2025-09"},"persistent_id":"c9c14929a2a0986aef05228e63f985401efe394b31df31643f0f0320aa9b1e1e","id":131181176,"location_subtype":"","month":"2025-09"},{"category":"public-order","location_type":"Force","location":{"latitude":"53.744628","street":{"id":1810312,"name":"On or near Meadow Close"},"longitude":"-2.458131"},"context":"","outcome_status":{"category":"Unable to prosecute suspect","date":"2025-09"},"persistent_id":"f48dcc26affe41147399103c1fe881a0d5834b146efb54661dd7e0115cc14509","id":131186269,"location_subtype":"","month":"2025-09"},{"category":"public-order","location_type":"Force","location":{"latitude":"53.744628","street":{"id":1810312,"name":"On or near Meadow Close"},"longitude":"-2.458131"},"context":"","outcome_status":{"category":"Unable to prosecute suspect","date":"2025-09"},"persistent_id":"b543fb11af695178a9b68e2c189d1f9ccdc974c5026dc096fdaf4f51edfcc175","id":131185101,"location_subtype":"","month":"2025-09"},{"category":"public-order","location_type":"Force","location":{"latitude":"53.747493","street":{"id":1810295,"name":"On or near Cherry Close"},"longitude":"-2.458738"},"context":"","outcome_status":{"category":"Unable to prosecute suspect","date":"2025-10"},"persistent_id":"1e8bb2d8fe21f5ecdd50e0982e92723dce40d8d88d73dcc20d3a40edea79e488","id":131182504,"location_subtype":"","month":"2025-09"},{"category":"public-order","location_type":"Force","location":{"latitude":"53.750793","street":{"id":1810502,"name":"On or near Leicester Road"},"longitude":"-2.451434"},"context":"","outcome_status":{"category":"Investigation complete; no suspect identified","date":"2025-10"},"persistent_id":"7faec50f521931b45c47e6eb5666495c58d0d6a802c57fa687cf9ffc74a6285a","id":131183872,"location_subtype":"","month":"2025-09"},{"category":"shoplifting","location_type":"Force","location":{"latitude":"53.753669","street":{"id":1810460,"name":"On or near Thornley Avenue"},"longitude":"-2.449084"},"context":"","outcome_status":{"category":"Status update unavailable","date":"2026-01"},"persistent_id":"07626d3f79fdef5e13508a737b56aa2444e069c3d3b1d1a03658ece3269465c7","id":131180608,"location_subtype":"","month":"2025-09"},{"category":"shoplifting","location_type":"Force","location":{"latitude":"53.747845","street":{"id":1809482,"name":"On or near High Street"},"longitude":"-2.479137"},"context":"","outcome_status":{"category":"Awaiting court outcome","date":"2025-09"},"persistent_id":"ad6c250903d81eff54d73f368113afadace66d4d9db125954864d93e0b875e31","id":131184735,"location_subtype":"","month":"2025-09"},{"category":"shoplifting","location_type":"Force","location":{"latitude":"53.749649","street":{"id":1809381,"name":"On or near Parking Area"},"longitude":"-2.481993"},"context":"","outcome_status":{"category":"Investigation complete; no suspect identified","date":"2025-10"},"persistent_id":"a4e88e2114becbcb91ff05c0b068d0c25260a573cee96e4ce757bf9078655d8d","id":131188051,"location_subtype":"","month":"2025-09"},{"category":"shoplifting","location_type":"Force","location":{"latitude":"53.753669","street":{"id":1810460,"name":"On or near Thornley Avenue"},"longitude":"-2.449084"},"context":"","outcome_status":{"category":"Unable to prosecute suspect","date":"2025-10"},"persistent_id":"950c35e8d93ec7bfb184ec05e653793b05603074ebe5654c194465c394fc8c82","id":131185940,"location_subtype":"","month":"2025-09"},{"category":"shoplifting","location_type":"Force","location":{"latitude":"53.749649","street":{"id":1809381,"name":"On or near Parking Area"},"longitude":"-2.481993"},"context":"","outcome_status":{"category":"Status update unavailable","date":"2026-01"},"persistent_id":"d1705e18f4c377b9f7048360fb9cefd5527a640809559d7b6efabb324cc0bbef","id":131190872,"location_subtype":"","month":"2025-09"},{"category":"shoplifting","location_type":"Force","location":{"latitude":"53.748263","street":{"id":1810283,"name":"On or near St Margarets Way"},"longitude":"-2.459550"},"context":"","outcome_status":{"category":"Investigation complete; no suspect identified","date":"2025-09"},"persistent_id":"34046a1f70de8de9553b9dce4b44bc7bfe9b4219a653eb2cc70c68feaa780102","id":131182866,"location_subtype":"","month":"2025-09"},{"category":"shoplifting","location_type":"Force","location":{"latitude":"53.747845","street":{"id":1809482,"name":"On or near High Street"},"longitude":"-2.479137"},"context":"","outcome_status":{"category":"Investigation complete; no suspect identified","date":"2025-09"},"persistent_id":"4e2349ad10b7de97929dde0a01da0c9334ed0bac8ba60e7a3641dfef8bec3c0b","id":131185915,"location_subtype":"","month":"2025-09"},{"category":"shoplifting","location_type":"Force","location":{"latitude":"53.749649","street":{"id":1809381,"name":"On or near Parking Area"},"longitude":"-2.481993"},"context":"","outcome_status":{"category":"Investigation complete; no suspect identified","date":"2025-09"},"persistent_id":"aacc81072935d174c0b92ed1300434432c4bd67b35a7806313d50853e2a8cef0","id":131180580,"location_subtype":"","month":"2025-09"},{"category":"shoplifting","location_type":"Force","location":{"latitude":"53.749649","street":{"id":1809381,"name":"On or near Parking Area"},"longitude":"-2.481993"},"context":"","outcome_status":{"category":"Status update unavailable","date":"2026-01"},"persistent_id":"833ac65a5eacf4d9868667fcc3f7326736d19d6553417a05bbd419364f3809a6","id":131187399,"location_subtype":"","month":"2025-09"},{"category":"shoplifting","location_type":"Force","location":{"latitude":"53.749649","street":{"id":1809381,"name":"On or near Parking Area"},"longitude":"-2.481993"},"context":"","outcome_status":{"category":"Awaiting court outcome","date":"2025-11"},"persistent_id":"20b608e6af81babd69fae0e1a0abbe4ec72f097d6e4c74a04b34650402b9c30d","id":131190018,"location_subtype":"","month":"2025-09"},{"category":"shoplifting","location_type":"Force","location":{"latitude":"53.749649","street":{"id":1809381,"name":"On or near Parking Area"},"longitude":"-2.481993"},"context":"","outcome_status":{"category":"Investigation complete; no suspect identified","date":"2025-12"},"persistent_id":"d3e60c226980f201397dc1583d1fd18c4c810763a88667be5fae85f37559d8f6","id":131187794,"location_subtype":"","month":"2025-09"},{"category":"shoplifting","location_type":"Force","location":{"latitude":"53.764067","street":{"id":1810543,"name":"On or near Sidebeet Lane"},"longitude":"-2.442111"},"context":"","outcome_status":{"category":"Unable to prosecute suspect","date":"2025-09"},"persistent_id":"a6c66daeafa550679938b3e5f8720ff36576624813a92fa3c91e5869de957aee","id":131187098,"location_subtype":"","month":"2025-09"},{"category":"shoplifting","location_type":"Force","location":{"latitude":"53.747845","street":{"id":1809482,"name":"On or near High Street"},"longitude":"-2.479137"},"context":"","outcome_status":{"category":"Investigation complete; no suspect identified","date":"2025-09"},"persistent_id":"bc12f4592cfa4a0d601441ddd042900e667f0f16d8e31c48e2161303911d1d19","id":131186117,"location_subtype":"","month":"2025-09"},{"category":"shoplifting","location_type":"Force","location":{"latitude":"53.749649","street":{"id":1809381,"name":"On or near Parking Area"},"longitude":"-2.481993"},"context":"","outcome_status":{"category":"Investigation complete; no suspect identified","date":"2025-09"},"persistent_id":"9af00733b5b75fad204a78605caeb7427f474e3d6144d116cd284b6ea31c977a","id":131182607,"location_subtype":"","month":"2025-09"},{"category":"shoplifting","location_type":"Force","location":{"latitude":"53.749649","street":{"id":1809381,"name":"On or near Parking Area"},"longitude":"-2.481993"},"context":"","outcome_status":{"category":"Awaiting court outcome","date":"2025-10"},"persistent_id":"f901307721edd6ea4b901934e89a867953ceb2585c97ccdc4daee2ef80bec801","id":131181665,"location_subtype":"","month":"2025-09"},{"category":"shoplifting","location_type":"Force","location":{"latitude":"53.749649","street":{"id":1809381,"name":"On or near Parking Area"},"longitude":"-2.481993"},"context":"","outcome_status":{"category":"Awaiting court outcome","date":"2025-09"},"persistent_id":"62decd5c528d925789a62af20bc69e8e746f40cd0eca68fb03cde05cbbec3bdd","id":131190765,"location_subtype":"","month":"2025-09"},{"category":"shoplifting","location_type":"Force","location":{"latitude":"53.757613","street":{"id":1810033,"name":"On or near Progress Avenue"},"longitude":"-2.466022"},"context":"","outcome_status":{"category":"Further investigation is not in the public interest","date":"2025-12"},"persistent_id":"40736abc39402e0e0111b16c46d26366295df14915be1edfa40fe1fba5b1bbef","id":131188631,"location_subtype":"","month":"2025-09"},{"category":"shoplifting","location_type":"Force","location":{"latitude":"53.747845","street":{"id":1809482,"name":"On or near High Street"},"longitude":"-2.479137"},"context":"","outcome_status":{"category":"Investigation complete; no suspect identified","date":"2025-09"},"persistent_id":"50502234067090801861f6c800bc93f78ff0a5c8b55d5f087b79013ab9541c5f","id":131184768,"location_subtype":"","month":"2025-09"},{"category":"shoplifting","location_type":"Force","location":{"latitude":"53.748263","street":{"id":1810283,"name":"On or near St Margarets Way"},"longitude":"-2.459550"},"context":"","outcome_status":{"category":"Unable to prosecute suspect","date":"2025-09"},"persistent_id":"80d5c6a4555b51abfcef717122b262b492761110da66ae5099b79e15bcb97c45","id":131185474,"location_subtype":"","month":"2025-09"},{"category":"vehicle-crime","location_type":"Force","location":{"latitude":"53.751168","street":{"id":1809706,"name":"On or near Mount Pleasant"},"longitude":"-2.475080"},"context":"","outcome_status":{"category":"Investigation complete; no suspect identified","date":"2025-09"},"persistent_id":"fb0ea194c16ae52c076409c82c3c454fd794852b7fa4bb9c73457563a0b38873","id":131184620,"location_subtype":"","month":"2025-09"},{"category":"vehicle-crime","location_type":"Force","location":{"latitude":"53.751499","street":{"id":1809833,"name":"On or near Pickup Street"},"longitude":"-2.471020"},"context":"","outcome_status":{"category":"Investigation complete; no suspect identified","date":"2025-09"},"persistent_id":"8f280b1e5932760d8ebaaf345f13bfaa680922d812044c5803c6d297e22f168c","id":131186073,"location_subtype":"","month":"2025-09"},{"category":"vehicle-crime","location_type":"Force","location":{"latitude":"53.746721","street":{"id":1810187,"name":"On or near Rivington Close"},"longitude":"-2.463142"},"context":"","outcome_status":{"category":"Investigation complete; no suspect identified","date":"2025-09"},"persistent_id":"27fe3c1637abecabac3d6292e487dbf11d25cd49f01352a5db6eaa29cfb36bed","id":131189862,"location_subtype":"","month":"2025-09"},{"category":"vehicle-crime","location_type":"Force","location":{"latitude":"53.747673","street":{"id":1810532,"name":"On or near Ronald Street"},"longitude":"-2.449338"},"context":"","outcome_status":{"category":"Status update unavailable","date":"2026-01"},"persistent_id":"99d79c08c17272057a095eb65c3c2d6a8627f6af94539e4da8eee5e2c7fff840","id":131190205,"location_subtype":"","month":"2025-09"},{"category":"vehicle-crime","location_type":"Force","location":{"latitude":"53.764898","street":{"id":1809941,"name":"On or near Clarendon Road East"},"longitude":"-2.467150"},"context":"","outcome_status":{"category":"Investigation complete; no suspect identified","date":"2025-09"},"persistent_id":"85ceef3a094909838508c0827b6051437186c3849edf5e8d07b5cc9d034feb73","id":131186081,"location_subtype":"","month":"2025-09"},{"category":"vehicle-crime","location_type":"Force","location":{"latitude":"53.762598","street":{"id":1809810,"name":"On or near Gladstone Way"},"longitude":"-2.471493"},"context":"","outcome_status":{"category":"Investigation complete; no suspect identified","date":"2025-09"},"persistent_id":"b9241e5900d47159c07bfac3bb074c9dc11789387f14a4e2240cd3a8f8b97eb2","id":131181795,"location_subtype":"","month":"2025-09"},{"category":"vehicle-crime","location_type":"Force","location":{"latitude":"53.747232","street":{"id":1810507,"name":"On or near Eagle Street"},"longitude":"-2.449440"},"context":"","outcome_status":{"category":"Status update unavailable","date":"2026-01"},"persistent_id":"d9f073d93d952a0c1b08e49de9cfb8f93792e13d5adac67bcab285cb017b4a00","id":131190237,"location_subtype":"","month":"2025-09"},{"category":"vehicle-crime","location_type":"Force","location":{"latitude":"53.753669","street":{"id":1810460,"name":"On or near Thornley Avenue"},"longitude":"-2.449084"},"context":"","outcome_status":{"category":"Investigation complete; no suspect identified","date":"2025-09"},"persistent_id":"a72cba6453ff859d059c7e5bb0a904d033d5ee81fcce37bcc44baaf728d5d4c6","id":131182686,"location_subtype":"","month":"2025-09"},{"category":"vehicle-crime","location_type":"Force","location":{"latitude":"53.757547","street":{"id":1809830,"name":"On or near Parking Area"},"longitude":"-2.471239"},"context":"","outcome_status":{"category":"Investigation complete; no suspect identified","date":"2025-10"},"persistent_id":"b66cf214b30901cc66db7a7d257a49b8d51f91e9c9952714d0a96f7d6bc17da8","id":131190447,"location_subtype":"","month":"2025-09"},{"category":"vehicle-crime","location_type":"Force","location":{"latitude":"53.745275","street":{"id":1810003,"name":"On or near Aberdeen Drive"},"longitude":"-2.467645"},"context":"","outcome_status":{"category":"Investigation complete; no suspect identified","date":"2025-09"},"persistent_id":"55626904822411672f042fa9ce65379877c160be719c12e9a5a57d36f43d30ae","id":131182981,"location_subtype":"","month":"2025-09"},{"category":"vehicle-crime","location_type":"Force","location":{"latitude":"53.758996","street":{"id":1809967,"name":"On or near Railway Grove"},"longitude":"-2.468571"},"context":"","outcome_status":{"category":"Unable to prosecute suspect","date":"2025-09"},"persistent_id":"8e8b50a3b729b9d4639bac74e76ce523063bb9614b70b360d07dab671eabaf7d","id":131180584,"location_subtype":"","month":"2025-09"},{"category":"vehicle-crime","location_type":"Force","location":{"latitude":"53.756106","street":{"id":1809642,"name":"On or near Whalley Range"},"longitude":"-2.476683"},"context":"","outcome_status":{"category":"Investigation complete; no suspect identified","date":"2025-09"},"persistent_id":"9b920e6c1276f3465ce4ed09c8d0d413838bf2c0dcd0cf9d295d67a725bb9e93","id":131183587,"location_subtype":"","month":"2025-09"},{"category":"vehicle-crime","location_type":"Force","location":{"latitude":"53.747493","street":{"id":1810295,"name":"On or near Cherry Close"},"longitude":"-2.458738"},"context":"","outcome_status":{"category":"Investigation complete; no suspect identified","date":"2025-09"},"persistent_id":"a0d33198cbf5a922612d3e806d1fdab17390f752a514ebfc0b54d33cf8b168b1","id":131185085,"location_subtype":"","month":"2025-09"},{"category":"vehicle-crime","location_type":"Force","location":{"latitude":"53.764898","street":{"id":1809941,"name":"On or near Clarendon Road East"},"longitude":"-2.467150"},"context":"","outcome_status":{"category":"Investigation complete; no suspect identified","date":"2025-09"},"persistent_id":"d3f7a5bf2b45fffb9b2973abf88d2d8d20ee24c9b37c9b75155fdd31b8305161","id":131186513,"location_subtype":"","month":"2025-09"},{"category":"vehicle-crime","location_type":"Force","location":{"latitude":"53.758755","street":{"id":1809881,"name":"On or near Pine Street"},"longitude":"-2.470343"},"context":"","outcome_status":{"category":"Investigation complete; no suspect identified","date":"2025-10"},"persistent_id":"e6ba7b9c3039df20948431032fb6c14fce70e74f326f620a8291b2604271aba1","id":131182066,"location_subtype":"","month":"2025-09"},{"category":"vehicle-crime","location_type":"Force","location":{"latitude":"53.753617","street":{"id":1809380,"name":"On or near Charlotte Street"},"longitude":"-2.483101"},"context":"","outcome_status":{"category":"Investigation complete; no suspect identified","date":"2025-10"},"persistent_id":"def41dbff47b23712000253bb0ee32515b23f3341de8b320534c791ac08556e8","id":131190110,"location_subtype":"","month":"2025-09"},{"category":"vehicle-crime","location_type":"Force","location":{"latitude":"53.743540","street":{"id":1810150,"name":"On or near Ripon Street"},"longitude":"-2.462925"},"context":"","outcome_status":{"category":"Investigation complete; no suspect identified","date":"2025-09"},"persistent_id":"abb4f02cfe69a087cd50a337bd8a0050327a2f32968857f4841e19ed6f7add84","id":131188770,"location_subtype":"","month":"2025-09"},{"category":"vehicle-crime","location_type":"Force","location":{"latitude":"53.747077","street":{"id":1810427,"name":"On or near Bonchurch Street"},"longitude":"-2.454745"},"context":"","outcome_status":{"category":"Investigation complete; no suspect identified","date":"2025-10"},"persistent_id":"e92cbeb3e2bbd315c3be8db959bcec5bda0a399968ed2919fa8d6f08843be5dc","id":131181946,"location_subtype":"","month":"2025-09"},{"category":"vehicle-crime","location_type":"Force","location":{"latitude":"53.750793","street":{"id":1810502,"name":"On or near Leicester Road"},"longitude":"-2.451434"},"context":"","outcome_status":{"category":"Investigation complete; no suspect identified","date":"2025-09"},"persistent_id":"0f64ede18080f8cb805441e349c335a323469acad440596f92f56edc9aabba46","id":131181727,"location_subtype":"","month":"2025-09"},{"category":"vehicle-crime","location_type":"Force","location":{"latitude":"53.744821","street":{"id":1809785,"name":"On or near Stirling Drive"},"longitude":"-2.473174"},"context":"","outcome_status":{"category":"Investigation complete; no suspect identified","date":"2025-10"},"persistent_id":"5881da4312ae19a4573628f3584fafdef2821e86f8a68fc1ed5f1630a4cce54c","id":131182478,"location_subtype":"","month":"2025-09"},{"category":"vehicle-crime","location_type":"Force","location":{"latitude":"53.769377","street":{"id":1809668,"name":"On or near Pearl Close"},"longitude":"-2.475332"},"context":"","outcome_status":{"category":"Investigation complete; no suspect identified","date":"2025-10"},"persistent_id":"25df19ea83a189845500fc40a347dd5175ea1e02aa08376657aaba1637eb485f","id":131188192,"location_subtype":"","month":"2025-09"},{"category":"vehicle-crime","location_type":"Force","location":{"latitude":"53.744821","street":{"id":1809785,"name":"On or near Stirling Drive"},"longitude":"-2.473174"},"context":"","outcome_status":{"category":"Investigation complete; no suspect identified","date":"2025-09"},"persistent_id":"cfbc9b183535613f70006fdee8f93690d4a7fcf344639e8f14f401e9c3735b1a","id":131183365,"location_subtype":"","month":"2025-09"},{"category":"vehicle-crime","location_type":"Force","location":{"latitude":"53.756604","street":{"id":1809330,"name":"On or near Corwen Close"},"longitude":"-2.484742"},"context":"","outcome_status":{"category":"Investigation complete; no suspect identified","date":"2025-09"},"persistent_id":"14ea88bf7aed75a27a9b955b3d557d5318e191d7e4eaed71909487ee90e88ad6","id":131181257,"location_subtype":"","month":"2025-09"},{"category":"vehicle-crime","location_type":"Force","location":{"latitude":"53.754952","street":{"id":1809493,"name":"On or near Millham Street"},"longitude":"-2.479688"},"context":"","outcome_status":{"category":"Investigation complete; no suspect identified","date":"2025-11"},"persistent_id":"04c3272df18bec82c3f82100902b26b42a7ddf49fc4da9213c7a6d779488b54f","id":131190673,"location_subtype":"","month":"2025-09"},{"category":"vehicle-crime","location_type":"Force","location":{"latitude":"53.754324","street":{"id":1809437,"name":"On or near Blackburn Street"},"longitude":"-2.481668"},"context":"","outcome_status":{"category":"Investigation complete; no suspect identified","date":"2025-09"},"persistent_id":"da611e21cc74df5852a0df4149b5114c37a5635b2a95ea575a5ad073d544ef86","id":131180527,"location_subtype":"","month":"2025-09"},{"category":"vehicle-crime","location_type":"Force","location":{"latitude":"53.758950","street":{"id":1810254,"name":"On or near Challenge Court"},"longitude":"-2.457164"},"context":"","outcome_status":{"category":"Unable to prosecute suspect","date":"2025-10"},"persistent_id":"d242c59838efc49d373aabb93e915f176ad31610f08b9fb576395ce40ae111b5","id":131186746,"location_subtype":"","month":"2025-09"},{"category":"vehicle-crime","location_type":"Force","location":{"latitude":"53.768208","street":{"id":1809738,"name":"On or near Douglas Place"},"longitude":"-2.473301"},"context":"","outcome_status":{"category":"Investigation complete; no suspect identified","date":"2025-10"},"persistent_id":"7cfe90a65ecb179e9a5151dbfeb9a950d488fee6142697db2597cc298f07b3f9","id":131190037,"location_subtype":"","month":"2025-09"},{"category":"vehicle-crime","location_type":"Force","location":{"latitude":"53.759190","street":{"id":1809535,"name":"On or near Trevor Close"},"longitude":"-2.478493"},"context":"","outcome_status":{"category":"Investigation complete; no suspect identified","date":"2025-09"},"persistent_id":"5c15d21504d444ab0132c27d95e6303902ec6a3e17742473fddcacd5600ba9a1","id":131182573,"location_subtype":"","month":"2025-09"},{"category":"vehicle-crime","location_type":"Force","location":{"latitude":"53.765254","street":{"id":1809520,"name":"On or near Cranshaw Drive"},"longitude":"-2.479335"},"context":"","outcome_status":{"category":"Status update unavailable","date":"2026-01"},"persistent_id":"c2842ed2ef12b3017ac3ed4686988e13b9254504314f8076864ae96b8ce0e873","id":131183003,"location_subtype":"","month":"2025-09"},{"category":"vehicle-crime","location_type":"Force","location":{"latitude":"53.749229","street":{"id":1810547,"name":"On or near Devon Road"},"longitude":"-2.449037"},"context":"","outcome_status":{"category":"Investigation complete; no suspect identified","date":"2025-09"},"persistent_id":"32b2c770ef9baa40a10b1493fd204526ebe66a1a5c0defce234df6e9c1fd3118","id":131183001,"location_subtype":"","month":"2025-09"},{"category":"vehicle-crime","location_type":"Force","location":{"latitude":"53.747845","street":{"id":1809482,"name":"On or near High Street"},"longitude":"-2.479137"},"context":"","outcome_status":{"category":"Investigation complete; no suspect identified","date":"2025-09"},"persistent_id":"d9903209d9ee99ca7b4c7a0038fda5f1f565953b239e6123193a83556e96f5fd","id":131182855,"location_subtype":"","month":"2025-09"},{"category":"vehicle-crime","location_type":"Force","location":{"latitude":"53.753669","street":{"id":1810460,"name":"On or near Thornley Avenue"},"longitude":"-2.449084"},"context":"","outcome_status":{"category":"Investigation complete; no suspect identified","date":"2025-12"},"persistent_id":"ffcfdde2955de575492e64720fd535d6f7480f6808c102f8207e9178ee34d8b5","id":131181637,"location_subtype":"","month":"2025-09"},{"category":"violent-crime","location_type":"Force","location":{"latitude":"53.753327","street":{"id":1809361,"name":"On or near Altom Street"},"longitude":"-2.483673"},"context":"","outcome_status":{"category":"Unable to prosecute suspect","date":"2025-09"},"persistent_id":"c85d4b83bdfcd840f0f4c97997aa63978100dc6847cf1da8a23e9aa3efed2e3a","id":131187250,"location_subtype":"","month":"2025-09"},{"category":"violent-crime","location_type":"Force","location":{"latitude":"53.758950","street":{"id":1810254,"name":"On or near Challenge Court"},"longitude":"-2.457164"},"context":"","outcome_status":{"category":"Unable to prosecute suspect","date":"2025-09"},"persistent_id":"ffae9dab1185dcc75c2e186105a3ba30a5d704dcd87de5724662cb87a0d2718f","id":131183983,"location_subtype":"","month":"2025-09"},{"category":"violent-crime","location_type":"Force","location":{"latitude":"53.760392","street":{"id":1809992,"name":"On or near Warmden Gardens"},"longitude":"-2.467873"},"context":"","outcome_status":{"category":"Unable to prosecute suspect","date":"2026-01"},"persistent_id":"4b53d025997b311e955bd74d7a9a5fd2a7112206dc6ba141f758ddaf4c39b7c0","id":131189710,"location_subtype":"","month":"2025-09"},{"category":"violent-crime","location_type":"Force","location":{"latitude":"53.743005","street":{"id":1810348,"name":"On or near Sherwood Road"},"longitude":"-2.457264"},"context":"","outcome_status":{"category":"Unable to prosecute suspect","date":"2025-09"},"persistent_id":"d54b281ab223baa5b5246823b79e6ccaf7545a7ee4022cb0a56ebf8771e4b0c9","id":131187680,"location_subtype":"","month":"2025-09"},{"category":"violent-crime","location_type":"Force","location":{"latitude":"53.751250","street":{"id":1810494,"name":"On or near Worcester Road"},"longitude":"-2.449225"},"context":"","outcome_status":{"category":"Unable to prosecute suspect","date":"2025-09"},"persistent_id":"52172088ca034a0dea6bbe6fee5582e16ddbfc4692b7b51b72d48b61af28a58a","id":131186810,"location_subtype":"","month":"2025-09"},{"category":"violent-crime","location_type":"Force","location":{"latitude":"53.751250","street":{"id":1810494,"name":"On or near Worcester Road"},"longitude":"-2.449225"},"context":"","outcome_status":{"category":"Unable to prosecute suspect","date":"2025-09"},"persistent_id":"06b7f32b902a0874214372c15659ae28a9ecd86f32a5d8d9db0b0df98d89574d","id":131186812,"location_subtype":"","month":"2025-09"},{"category":"violent-crime","location_type":"Force","location":{"latitude":"53.743724","street":{"id":1810058,"name":"On or near Randolph Street"},"longitude":"-2.466566"},"context":"","outcome_status":{"category":"Investigation complete; no suspect identified","date":"2026-01"},"persistent_id":"05f6b0195488b766e8ea4e891277fcd6bc47a60af0b546b71d060672825f5467","id":131187708,"location_subtype":"","month":"2025-09"},{"category":"violent-crime","location_type":"Force","location":{"latitude":"53.751547","street":{"id":1810443,"name":"On or near Hole House Street"},"longitude":"-2.453960"},"context":"","outcome_status":{"category":"Status update unavailable","date":"2026-01"},"persistent_id":"d54bb82d804903a498b82690779d1943239f08e09651ef4f62a8da3237198f30","id":131186667,"location_subtype":"","month":"2025-09"},{"category":"violent-crime","location_type":"Force","location":{"latitude":"53.751250","street":{"id":1810494,"name":"On or near Worcester Road"},"longitude":"-2.449225"},"context":"","outcome_status":{"category":"Unable to prosecute suspect","date":"2025-09"},"persistent_id":"3dc1c7ff9a6ad2a9c88c4858121e6938f0b4396c55ab8cce3e926c7d94500d1f","id":131186312,"location_subtype":"","month":"2025-09"},{"category":"violent-crime","location_type":"Force","location":{"latitude":"53.743971","street":{"id":1810073,"name":"On or near May Street"},"longitude":"-2.465432"},"context":"","outcome_status":{"category":"Unable to prosecute suspect","date":"2025-11"},"persistent_id":"16b0da26e3e4c6443fe5b72b323177cc4acfc2164093bcb13bfed60cd5854658","id":131183999,"location_subtype":"","month":"2025-09"},{"category":"violent-crime","location_type":"Force","location":{"latitude":"53.753669","street":{"id":1810460,"name":"On or near Thornley Avenue"},"longitude":"-2.449084"},"context":"","outcome_status":{"category":"Awaiting court outcome","date":"2025-09"},"persistent_id":"d10a3e13ecbd1b3f00da67b30c5802e1b1c1a2006866f80f4a7a47d97c885ca2","id":131185911,"location_subtype":"","month":"2025-09"},{"category":"violent-crime","location_type":"Force","location":{"latitude":"53.742651","street":{"id":1810117,"name":"On or near Pringle Street"},"longitude":"-2.465084"},"context":"","outcome_status":{"category":"Investigation complete; no suspect identified","date":"2025-09"},"persistent_id":"7112ea53a456ebd87dcb83dcf11d1f933f1ca5542cde1dcbc47dc87236103432","id":131185806,"location_subtype":"","month":"2025-09"},{"category":"violent-crime","location_type":"Force","location":{"latitude":"53.751250","street":{"id":1810494,"name":"On or near Worcester Road"},"longitude":"-2.449225"},"context":"","outcome_status":{"category":"Unable to prosecute suspect","date":"2025-09"},"persistent_id":"d18c381d241d79a16f3e830240f62e1a3f0e63a1f983a04ddec3be6d3321772d","id":131186095,"location_subtype":"","month":"2025-09"},{"category":"violent-crime","location_type":"Force","location":{"latitude":"53.769377","street":{"id":1809668,"name":"On or near Pearl Close"},"longitude":"-2.475332"},"context":"","outcome_status":{"category":"Status update unavailable","date":"2026-01"},"persistent_id":"c3e0aed330b0c8d35370c2c4622a77c506890b1eaaeadf7d4c140721c2a7d7b9","id":131188169,"location_subtype":"","month":"2025-09"},{"category":"violent-crime","location_type":"Force","location":{"latitude":"53.747493","street":{"id":1810295,"name":"On or near Cherry Close"},"longitude":"-2.458738"},"context":"","outcome_status":{"category":"Unable to prosecute suspect","date":"2025-11"},"persistent_id":"e51a564819741443c849597d5d9db242c85f42d0cc427e583a36c70e456bb88a","id":131185688,"location_subtype":"","month":"2025-09"},{"category":"violent-crime","location_type":"Force","location":{"latitude":"53.749649","street":{"id":1809381,"name":"On or near Parking Area"},"longitude":"-2.481993"},"context":"","outcome_status":{"category":"Unable to prosecute suspect","date":"2025-09"},"persistent_id":"a6c3e5f4a2cbc95470193c35723c83de9cf502d1ccf7d46aa46937401c37b1fd","id":131185362,"location_subtype":"","month":"2025-09"},{"category":"violent-crime","location_type":"Force","location":{"latitude":"53.745826","street":{"id":1809832,"name":"On or near Bristol Close"},"longitude":"-2.471335"},"context":"","outcome_status":{"category":"Unable to prosecute suspect","date":"2025-11"},"persistent_id":"45fe457712ccdfefaad99246a24eb945a2666d73e5773957f743735d199bc335","id":131185152,"location_subtype":"","month":"2025-09"},{"category":"violent-crime","location_type":"Force","location":{"latitude":"53.762509","street":{"id":1810198,"name":"On or near Fountains Avenue"},"longitude":"-2.462027"},"context":"","outcome_status":{"category":"Status update unavailable","date":"2026-01"},"persistent_id":"c5e85cb9cc676650c5473fd1ebfa6c54d2332e192833fb2ece1ad7b392e8220c","id":131185145,"location_subtype":"","month":"2025-09"},{"category":"violent-crime","location_type":"Force","location":{"latitude":"53.747077","street":{"id":1810427,"name":"On or near Bonchurch Street"},"longitude":"-2.454745"},"context":"","outcome_status":{"category":"Unable to prosecute suspect","date":"2025-12"},"persistent_id":"4c56bbc5343b6d014515960789036cf44f552c7b9c56e7cc658d2c5cf7d92dd0","id":131185104,"location_subtype":"","month":"2025-09"},{"category":"violent-crime","location_type":"Force","location":{"latitude":"53.757613","street":{"id":1810033,"name":"On or near Progress Avenue"},"longitude":"-2.466022"},"context":"","outcome_status":{"category":"Awaiting court outcome","date":"2025-12"},"persistent_id":"cc5fa824c8c3c089d5bf66b87c0f75da500385d86b160aa4a1b4fd5938cada13","id":131188628,"location_subtype":"","month":"2025-09"},{"category":"violent-crime","location_type":"Force","location":{"latitude":"53.764067","street":{"id":1810543,"name":"On or near Sidebeet Lane"},"longitude":"-2.442111"},"context":"","outcome_status":{"category":"Unable to prosecute suspect","date":"2025-10"},"persistent_id":"a9e3a2624b431663adfd677fd55e4ab6362a19683b66dc3b51c8fd767724f9d5","id":131184452,"location_subtype":"","month":"2025-09"},{"category":"violent-crime","location_type":"Force","location":{"latitude":"53.757804","street":{"id":1809914,"name":"On or near Yew Street"},"longitude":"-2.469862"},"context":"","outcome_status":{"category":"Unable to prosecute suspect","date":"2025-11"},"persistent_id":"6afc7e1ce3add499fe21fb239c1e04007c5c11bf3ce10001507575d12e75d150","id":131184678,"location_subtype":"","month":"2025-09"},{"category":"violent-crime","location_type":"Force","location":{"latitude":"53.762230","street":{"id":1810100,"name":"On or near Whalley Old Road"},"longitude":"-2.464420"},"context":"","outcome_status":{"category":"Unable to prosecute suspect","date":"2025-10"},"persistent_id":"6b7577ad23e17d107b3d58c147c0ebbe4edd5425f92f51ff7130422d41438d43","id":131190145,"location_subtype":"","month":"2025-09"},{"category":"violent-crime","location_type":"Force","location":{"latitude":"53.747863","street":{"id":1810303,"name":"On or near Cherry Street"},"longitude":"-2.458499"},"context":"","outcome_status":{"category":"Unable to prosecute suspect","date":"2025-11"},"persistent_id":"77f25392ffab818bf831f570d68e2087bb7a6bae22412529e1829fe91cee3790","id":131184132,"location_subtype":"","month":"2025-09"},{"category":"violent-crime","location_type":"Force","location":{"latitude":"53.753669","street":{"id":1810460,"name":"On or near Thornley Avenue"},"longitude":"-2.449084"},"context":"","outcome_status":{"category":"Status update unavailable","date":"2026-01"},"persistent_id":"aa176548ef1b7b8567f90c9f2b845a61f5b61e5eabd2239cee52894d47d382ff","id":131183898,"location_subtype":"","month":"2025-09"},{"category":"violent-crime","location_type":"Force","location":{"latitude":"53.746693","street":{"id":1810486,"name":"On or near Delph Lane"},"longitude":"-2.451769"},"context":"","outcome_status":{"category":"Action to be taken by another organisation","date":"2025-09"},"persistent_id":"6985f7920b8b6ae5fa00bfc9b6ca9409fc2d4c54fec2b4c7f2259d273b6c1a8c","id":131181275,"location_subtype":"","month":"2025-09"},{"category":"violent-crime","location_type":"Force","location":{"latitude":"53.744203","street":{"id":1810432,"name":"On or near Sandwich Close"},"longitude":"-2.454184"},"context":"","outcome_status":{"category":"Unable to prosecute suspect","date":"2025-09"},"persistent_id":"9b0d0c6aecf491c60a0739cde92755ab1e532c18179cf7926c0a30baa4bdf390","id":131181254,"location_subtype":"","month":"2025-09"},{"category":"violent-crime","location_type":"Force","location":{"latitude":"53.757700","street":{"id":1810140,"name":"On or near Woodville Road"},"longitude":"-2.464309"},"context":"","outcome_status":{"category":"Investigation complete; no suspect identified","date":"2025-09"},"persistent_id":"7ec65224575f2d6dc469a201ee970212c7c265ce54cfc6208e7128d4f81a318e","id":131188184,"location_subtype":"","month":"2025-09"},{"category":"violent-crime","location_type":"Force","location":{"latitude":"53.759932","street":{"id":1809889,"name":"On or near Larch Street"},"longitude":"-2.470386"},"context":"","outcome_status":{"category":"Local resolution","date":"2025-09"},"persistent_id":"fc7b150c61d6e2b203c7a38d6d1c5b8249fa79ac37e7e9ee1a34390505fb81cf","id":131180596,"location_subtype":"","month":"2025-09"},{"category":"violent-crime","location_type":"Force","location":{"latitude":"53.764898","street":{"id":1809941,"name":"On or near Clarendon Road East"},"longitude":"-2.467150"},"context":"","outcome_status":{"category":"Offender given a caution","date":"2025-09"},"persistent_id":"e14a553ed9ee7c068d16b08ef6696e5c0b8d58778d3746d312b11f12c1c99d64","id":131182040,"location_subtype":"","month":"2025-09"},{"category":"violent-crime","location_type":"Force","location":{"latitude":"53.750889","street":{"id":1809399,"name":"On or near James Street"},"longitude":"-2.482083"},"context":"","outcome_status":{"category":"Unable to prosecute suspect","date":"2026-01"},"persistent_id":"bbf31363ee162f51f41edf6b326cc8b5ca3d8aae34363974cfd62321897e76bb","id":131182050,"location_subtype":"","month":"2025-09"},{"category":"violent-crime","location_type":"Force","location":{"latitude":"53.743334","street":{"id":1810004,"name":"On or near Dewhurst Street"},"longitude":"-2.467426"},"context":"","outcome_status":{"category":"Status update unavailable","date":"2026-01"},"persistent_id":"87fd67754bc1d9125265306599d2b27737d2e2394e49ff51b010ad8949ee828c","id":131182116,"location_subtype":"","month":"2025-09"},{"category":"violent-crime","location_type":"Force","location":{"latitude":"53.750889","street":{"id":1809399,"name":"On or near James Street"},"longitude":"-2.482083"},"context":"","outcome_status":{"category":"Unable to prosecute suspect","date":"2025-09"},"persistent_id":"df3b30131a1e176084e30777f2520b23d2ec898aef0abbfeeaa0c2352cf2297a","id":131182220,"location_subtype":"","month":"2025-09"},{"category":"violent-crime","location_type":"Force","location":{"latitude":"53.759193","street":{"id":1809393,"name":"On or near Deganwy Avenue"},"longitude":"-2.482300"},"context":"","outcome_status":{"category":"Action to be taken by another organisation","date":"2025-09"},"persistent_id":"d1036829b0fdfbb49609befe952e4f9d24ad73c420ef2ebc907ae375e2433bbc","id":131183325,"location_subtype":"","month":"2025-09"},{"category":"violent-crime","location_type":"Force","location":{"latitude":"53.748375","street":{"id":1809870,"name":"On or near Culshaw Street"},"longitude":"-2.470060"},"context":"","outcome_status":{"category":"Status update unavailable","date":"2026-01"},"persistent_id":"b1513e71aa29f0bab5fd22e863b9b2058b030862c7982bf3c0066af09fcd1651","id":131188815,"location_subtype":"","month":"2025-09"},{"category":"violent-crime","location_type":"Force","location":{"latitude":"53.759724","street":{"id":1810075,"name":"On or near Wareham Street"},"longitude":"-2.466304"},"context":"","outcome_status":{"category":"Unable to prosecute suspect","date":"2025-09"},"persistent_id":"1e38cd989c6a2440ca95271ef6fe2b6b65692984e3fa6b6b422caa96d8e451fc","id":131183589,"location_subtype":"","month":"2025-09"},{"category":"violent-crime","location_type":"Force","location":{"latitude":"53.748263","street":{"id":1810283,"name":"On or near St Margarets Way"},"longitude":"-2.459550"},"context":"","outcome_status":{"category":"Unable to prosecute suspect","date":"2025-10"},"persistent_id":"ba22c911fa73a71d76d9167ceb0037c7b2213355964884b6b937bbb1e3e6db31","id":131185365,"location_subtype":"","month":"2025-09"},{"category":"violent-crime","location_type":"Force","location":{"latitude":"53.748573","street":{"id":1810381,"name":"On or near Croston Street"},"longitude":"-2.456005"},"context":"","outcome_status":{"category":"Status update unavailable","date":"2026-01"},"persistent_id":"20682f540ae8da252a6ceee5cdbcaa2bb35545395443e7b750e810e290a803b1","id":131187023,"location_subtype":"","month":"2025-09"},{"category":"violent-crime","location_type":"Force","location":{"latitude":"53.750563","street":{"id":1810107,"name":"On or near Castle Street"},"longitude":"-2.462214"},"context":"","outcome_status":{"category":"Unable to prosecute suspect","date":"2025-12"},"persistent_id":"ef45f757f0b53d1888b786b2dfebec8cac5ba178d16284ceac2ded01567a15d5","id":131188853,"location_subtype":"","month":"2025-09"},{"category":"violent-crime","location_type":"Force","location":{"latitude":"53.746620","street":{"id":1809491,"name":"On or near Parking Area"},"longitude":"-2.479684"},"context":"","outcome_status":{"category":"Status update unavailable","date":"2026-01"},"persistent_id":"69a8207d05e95a54758caae7458476df62e6b93f0da87b69e9f83120b3e10e4a","id":131190394,"location_subtype":"","month":"2025-09"},{"category":"violent-crime","location_type":"Force","location":{"latitude":"53.756447","street":{"id":1810019,"name":"On or near Eastwood Street"},"longitude":"-2.467466"},"context":"","outcome_status":{"category":"Investigation complete; no suspect identified","date":"2025-09"},"persistent_id":"f389f0bf506d62c740e188d31bd0e8bc2444bb23be88be96e099e6bcf0ceb663","id":131188897,"location_subtype":"","month":"2025-09"},{"category":"violent-crime","location_type":"Force","location":{"latitude":"53.763323","street":{"id":1809711,"name":"On or near Sycamore Road"},"longitude":"-2.474490"},"context":"","outcome_status":{"category":"Status update unavailable","date":"2026-01"},"persistent_id":"706ba17409e774c943214133c123563c61254d8ee0193c7ccd58d0a1cf15bd4c","id":131188931,"location_subtype":"","month":"2025-09"},{"category":"violent-crime","location_type":"Force","location":{"latitude":"53.760962","street":{"id":1810183,"name":"On or near Greenhead Avenue"},"longitude":"-2.462298"},"context":"","outcome_status":{"category":"Unable to prosecute suspect","date":"2025-11"},"persistent_id":"a7283b487d7dbd9070b64d069f807d12132915cce52610730b7fd6223eb89a86","id":131189635,"location_subtype":"","month":"2025-09"},{"category":"violent-crime","location_type":"Force","location":{"latitude":"53.753669","street":{"id":1810460,"name":"On or near Thornley Avenue"},"longitude":"-2.449084"},"context":"","outcome_status":{"category":"Status update unavailable","date":"2026-01"},"persistent_id":"985908593660bcb055c15fa8d422f8399cfb938f41fd402ca770d0473dfdd333","id":131190200,"location_subtype":"","month":"2025-09"},{"category":"violent-crime","location_type":"Force","location":{"latitude":"53.750889","street":{"id":1809399,"name":"On or near James Street"},"longitude":"-2.482083"},"context":"","outcome_status":{"category":"Unable to prosecute suspect","date":"2026-01"},"persistent_id":"e7a62f048df1e5343f6304221dd1887e0997b40d026385ff1956ac61ad0abffb","id":131181419,"location_subtype":"","month":"2025-09"},{"category":"violent-crime","location_type":"Force","location":{"latitude":"53.762407","street":{"id":1809982,"name":"On or near Zion Road"},"longitude":"-2.467335"},"context":"","outcome_status":{"category":"Investigation complete; no suspect identified","date":"2025-11"},"persistent_id":"7dbf56abf0b3b6da1ef19f99848613238e6cc8519a4b3201dc637a4bf74a7c2b","id":131181491,"location_subtype":"","month":"2025-09"},{"category":"violent-crime","location_type":"Force","location":{"latitude":"53.748165","street":{"id":1810054,"name":"On or near Skiddaw Street"},"longitude":"-2.463977"},"context":"","outcome_status":{"category":"Action to be taken by another organisation","date":"2025-11"},"persistent_id":"13339e16aa572b5525f2b8868fc6e36b56dcab4fbe08e61a8d4f676481058f51","id":131190198,"location_subtype":"","month":"2025-09"},{"category":"violent-crime","location_type":"Force","location":{"latitude":"53.747845","street":{"id":1809482,"name":"On or near High Street"},"longitude":"-2.479137"},"context":"","outcome_status":{"category":"Unable to prosecute suspect","date":"2025-09"},"persistent_id":"25789d2132a7f09abfb512a4310f8d5f7d7cd353d2187312a8a4e4f11b4d0ad8","id":131181424,"location_subtype":"","month":"2025-09"},{"category":"violent-crime","location_type":"Force","location":{"latitude":"53.757316","street":{"id":1809793,"name":"On or near Wesley Street"},"longitude":"-2.472951"},"context":"","outcome_status":{"category":"Unable to prosecute suspect","date":"2025-09"},"persistent_id":"8dadc45e4d116b9f3fedee18534b17bb296e064fc5c9435741c123f8f631b68d","id":131188027,"location_subtype":"","month":"2025-09"},