[{"category":"anti-social-behaviour","location_type":"Force","location":{"latitude":"50.786969","street":{"id":2203448,"name":"On or near Hospital"},"longitude":"0.271108"},"context":"","outcome_status":null,"persistent_id":"","id":128139411,"location_subtype":"","month":"2025-05"},{"category":"anti-social-behaviour","location_type":"Force","location":{"latitude":"50.799419","street":{"id":2203818,"name":"On or near Lakelands Close"},"longitude":"0.287975"},"context":"","outcome_status":null,"persistent_id":"","id":128139054,"location_subtype":"","month":"2025-05"},{"category":"anti-social-behaviour","location_type":"Force","location":{"latitude":"50.779343","street":{"id":2203903,"name":"On or near Moy Avenue"},"longitude":"0.291251"},"context":"","outcome_status":null,"persistent_id":"","id":128138837,"location_subtype":"","month":"2025-05"},{"category":"anti-social-behaviour","location_type":"Force","location":{"latitude":"50.802296","street":{"id":2203639,"name":"On or near The Paddock"},"longitude":"0.278848"},"context":"","outcome_status":null,"persistent_id":"","id":128138835,"location_subtype":"","month":"2025-05"},{"category":"anti-social-behaviour","location_type":"Force","location":{"latitude":"50.788320","street":{"id":2204077,"name":"On or near Hammonds Drive"},"longitude":"0.298089"},"context":"","outcome_status":null,"persistent_id":"","id":128138677,"location_subtype":"","month":"2025-05"},{"category":"anti-social-behaviour","location_type":"Force","location":{"latitude":"50.784048","street":{"id":2203898,"name":"On or near Bridgemere Road"},"longitude":"0.291225"},"context":"","outcome_status":null,"persistent_id":"","id":128138675,"location_subtype":"","month":"2025-05"},{"category":"anti-social-behaviour","location_type":"Force","location":{"latitude":"50.795276","street":{"id":2203656,"name":"On or near Mallard Close"},"longitude":"0.279571"},"context":"","outcome_status":null,"persistent_id":"","id":128138901,"location_subtype":"","month":"2025-05"},{"category":"anti-social-behaviour","location_type":"Force","location":{"latitude":"50.796581","street":{"id":2203704,"name":"On or near Supermarket"},"longitude":"0.281587"},"context":"","outcome_status":null,"persistent_id":"","id":128138563,"location_subtype":"","month":"2025-05"},{"category":"anti-social-behaviour","location_type":"Force","location":{"latitude":"50.784272","street":{"id":2204066,"name":"On or near Churchdale Avenue"},"longitude":"0.297649"},"context":"","outcome_status":null,"persistent_id":"","id":128138980,"location_subtype":"","month":"2025-05"},{"category":"anti-social-behaviour","location_type":"Force","location":{"latitude":"50.784272","street":{"id":2204066,"name":"On or near Churchdale Avenue"},"longitude":"0.297649"},"context":"","outcome_status":null,"persistent_id":"","id":128138979,"location_subtype":"","month":"2025-05"},{"category":"anti-social-behaviour","location_type":"Force","location":{"latitude":"50.799773","street":{"id":2203665,"name":"On or near Lottbridge Drive"},"longitude":"0.279534"},"context":"","outcome_status":null,"persistent_id":"","id":128139838,"location_subtype":"","month":"2025-05"},{"category":"anti-social-behaviour","location_type":"Force","location":{"latitude":"50.783785","street":{"id":2204092,"name":"On or near Ecmod Road"},"longitude":"0.299569"},"context":"","outcome_status":null,"persistent_id":"","id":128139975,"location_subtype":"","month":"2025-05"},{"category":"anti-social-behaviour","location_type":"Force","location":{"latitude":"50.788909","street":{"id":2203501,"name":"On or near Further/higher Educational Building"},"longitude":"0.272124"},"context":"","outcome_status":null,"persistent_id":"","id":128139970,"location_subtype":"","month":"2025-05"},{"category":"anti-social-behaviour","location_type":"Force","location":{"latitude":"50.779343","street":{"id":2203903,"name":"On or near Moy Avenue"},"longitude":"0.291251"},"context":"","outcome_status":null,"persistent_id":"","id":128139730,"location_subtype":"","month":"2025-05"},{"category":"anti-social-behaviour","location_type":"Force","location":{"latitude":"50.787893","street":{"id":2204212,"name":"On or near Maple Road"},"longitude":"0.306028"},"context":"","outcome_status":null,"persistent_id":"","id":128139345,"location_subtype":"","month":"2025-05"},{"category":"anti-social-behaviour","location_type":"Force","location":{"latitude":"50.795890","street":{"id":2203661,"name":"On or near Parking Area"},"longitude":"0.279430"},"context":"","outcome_status":null,"persistent_id":"","id":128139340,"location_subtype":"","month":"2025-05"},{"category":"anti-social-behaviour","location_type":"Force","location":{"latitude":"50.793572","street":{"id":2203444,"name":"On or near Hampden Park Drive"},"longitude":"0.270108"},"context":"","outcome_status":null,"persistent_id":"","id":128139247,"location_subtype":"","month":"2025-05"},{"category":"anti-social-behaviour","location_type":"Force","location":{"latitude":"50.775860","street":{"id":2203757,"name":"On or near Mayfield Place"},"longitude":"0.285407"},"context":"","outcome_status":null,"persistent_id":"","id":128138762,"location_subtype":"","month":"2025-05"},{"category":"anti-social-behaviour","location_type":"Force","location":{"latitude":"50.800106","street":{"id":2203724,"name":"On or near The Hydneye"},"longitude":"0.282743"},"context":"","outcome_status":null,"persistent_id":"","id":128140637,"location_subtype":"","month":"2025-05"},{"category":"anti-social-behaviour","location_type":"Force","location":{"latitude":"50.802706","street":{"id":2203683,"name":"On or near Dovedale Gardens"},"longitude":"0.280415"},"context":"","outcome_status":null,"persistent_id":"","id":128140903,"location_subtype":"","month":"2025-05"},{"category":"anti-social-behaviour","location_type":"Force","location":{"latitude":"50.795890","street":{"id":2203661,"name":"On or near Parking Area"},"longitude":"0.279430"},"context":"","outcome_status":null,"persistent_id":"","id":128140717,"location_subtype":"","month":"2025-05"},{"category":"anti-social-behaviour","location_type":"Force","location":{"latitude":"50.803025","street":{"id":2203790,"name":"On or near Bodiam Crescent"},"longitude":"0.285738"},"context":"","outcome_status":null,"persistent_id":"","id":128140638,"location_subtype":"","month":"2025-05"},{"category":"anti-social-behaviour","location_type":"Force","location":{"latitude":"50.795890","street":{"id":2203661,"name":"On or near Parking Area"},"longitude":"0.279430"},"context":"","outcome_status":null,"persistent_id":"","id":128140567,"location_subtype":"","month":"2025-05"},{"category":"anti-social-behaviour","location_type":"Force","location":{"latitude":"50.779343","street":{"id":2203903,"name":"On or near Moy Avenue"},"longitude":"0.291251"},"context":"","outcome_status":null,"persistent_id":"","id":128140507,"location_subtype":"","month":"2025-05"},{"category":"anti-social-behaviour","location_type":"Force","location":{"latitude":"50.802113","street":{"id":2203753,"name":"On or near Cade Street"},"longitude":"0.283153"},"context":"","outcome_status":null,"persistent_id":"","id":128140506,"location_subtype":"","month":"2025-05"},{"category":"anti-social-behaviour","location_type":"Force","location":{"latitude":"50.792290","street":{"id":2203408,"name":"On or near Clifton Close"},"longitude":"0.267591"},"context":"","outcome_status":null,"persistent_id":"","id":128140504,"location_subtype":"","month":"2025-05"},{"category":"anti-social-behaviour","location_type":"Force","location":{"latitude":"50.794344","street":{"id":2203734,"name":"On or near Marshall Road"},"longitude":"0.283981"},"context":"","outcome_status":null,"persistent_id":"","id":128140266,"location_subtype":"","month":"2025-05"},{"category":"anti-social-behaviour","location_type":"Force","location":{"latitude":"50.782453","street":{"id":2204159,"name":"On or near Sports/recreation Area"},"longitude":"0.301894"},"context":"","outcome_status":null,"persistent_id":"","id":128140053,"location_subtype":"","month":"2025-05"},{"category":"anti-social-behaviour","location_type":"Force","location":{"latitude":"50.776076","street":{"id":2203611,"name":"On or near Carew Road"},"longitude":"0.278963"},"context":"","outcome_status":null,"persistent_id":"","id":128139908,"location_subtype":"","month":"2025-05"},{"category":"anti-social-behaviour","location_type":"Force","location":{"latitude":"50.800427","street":{"id":2203801,"name":"On or near Fletching Road"},"longitude":"0.286605"},"context":"","outcome_status":null,"persistent_id":"","id":128139841,"location_subtype":"","month":"2025-05"},{"category":"bicycle-theft","location_type":"Force","location":{"latitude":"50.793605","street":{"id":2203670,"name":"On or near Supermarket"},"longitude":"0.279807"},"context":"","outcome_status":{"category":"Investigation complete; no suspect identified","date":"2025-06"},"persistent_id":"6f335e95dde85158212e516752537e29f45db633c0393de2804592905c0aad70","id":128135267,"location_subtype":"","month":"2025-05"},{"category":"bicycle-theft","location_type":"Force","location":{"latitude":"50.788909","street":{"id":2203501,"name":"On or near Further/higher Educational Building"},"longitude":"0.272124"},"context":"","outcome_status":{"category":"Investigation complete; no suspect identified","date":"2025-05"},"persistent_id":"c5b891f57a5a896e2b6a10e54c3d1e7d2ca1a81c74e3b65b18c5595d9e3cc32f","id":128129601,"location_subtype":"","month":"2025-05"},{"category":"bicycle-theft","location_type":"Force","location":{"latitude":"50.782938","street":{"id":2203932,"name":"On or near Astaire Avenue"},"longitude":"0.292320"},"context":"","outcome_status":{"category":"Unable to prosecute suspect","date":"2025-11"},"persistent_id":"baeca83d658019ffe55c1b87dc991b83d8b203ab848c9bf37896d1f1b795b3ad","id":128128791,"location_subtype":"","month":"2025-05"},{"category":"burglary","location_type":"Force","location":{"latitude":"50.796692","street":{"id":2203771,"name":"On or near Supermarket"},"longitude":"0.284862"},"context":"","outcome_status":{"category":"Investigation complete; no suspect identified","date":"2025-05"},"persistent_id":"8680abc970f5294c4d997b49cd40b2cc27bcc312c911cc91a4d02d95d6c40767","id":128127615,"location_subtype":"","month":"2025-05"},{"category":"burglary","location_type":"Force","location":{"latitude":"50.784044","street":{"id":2204071,"name":"On or near Burleigh Place"},"longitude":"0.298290"},"context":"","outcome_status":{"category":"Investigation complete; no suspect identified","date":"2025-07"},"persistent_id":"0da8c663eec5ed4394ccb8e339e360449adf012aeb59916b6b5e03635d22a17e","id":128131991,"location_subtype":"","month":"2025-05"},{"category":"burglary","location_type":"Force","location":{"latitude":"50.796581","street":{"id":2203704,"name":"On or near Supermarket"},"longitude":"0.281587"},"context":"","outcome_status":{"category":"Investigation complete; no suspect identified","date":"2025-06"},"persistent_id":"834ce2dbcaf1b1176b8359afc2eebf70b3a9014a9f11139af71a87f274dbedd2","id":128138296,"location_subtype":"","month":"2025-05"},{"category":"burglary","location_type":"Force","location":{"latitude":"50.796581","street":{"id":2203704,"name":"On or near Supermarket"},"longitude":"0.281587"},"context":"","outcome_status":{"category":"Investigation complete; no suspect identified","date":"2025-06"},"persistent_id":"e5ef676de820ed6a3f1c6c91494184a310731ae89a97f1c1b312432377d77e64","id":128138297,"location_subtype":"","month":"2025-05"},{"category":"criminal-damage-arson","location_type":"Force","location":{"latitude":"50.788909","street":{"id":2203501,"name":"On or near Further/higher Educational Building"},"longitude":"0.272124"},"context":"","outcome_status":{"category":"Investigation complete; no suspect identified","date":"2025-05"},"persistent_id":"0674e41a5c41165d12122c9a0d44896f3ad87122f56ffd050363267f1aa640cc","id":128134058,"location_subtype":"","month":"2025-05"},{"category":"criminal-damage-arson","location_type":"Force","location":{"latitude":"50.802295","street":{"id":2203766,"name":"On or near Iden Street"},"longitude":"0.284425"},"context":"","outcome_status":{"category":"Investigation complete; no suspect identified","date":"2025-05"},"persistent_id":"40c4cf938357c8c273b8f3a60562d298b40ff01d9c88f343734c9f326c0eb116","id":128131064,"location_subtype":"","month":"2025-05"},{"category":"criminal-damage-arson","location_type":"Force","location":{"latitude":"50.788909","street":{"id":2203501,"name":"On or near Further/higher Educational Building"},"longitude":"0.272124"},"context":"","outcome_status":{"category":"Investigation complete; no suspect identified","date":"2025-05"},"persistent_id":"c3abefb52c0845708fe16949d98f6c473878a1f8634b1ba13f1cb0a1e1c96f32","id":128129600,"location_subtype":"","month":"2025-05"},{"category":"criminal-damage-arson","location_type":"Force","location":{"latitude":"50.796956","street":{"id":2203596,"name":"On or near Elm Grove"},"longitude":"0.277368"},"context":"","outcome_status":{"category":"Investigation complete; no suspect identified","date":"2025-05"},"persistent_id":"8fa2de31f7a21777d946a4ff3a7ab3b75c80882096bdb0e60a0ce2f638c76ff8","id":128129218,"location_subtype":"","month":"2025-05"},{"category":"criminal-damage-arson","location_type":"Force","location":{"latitude":"50.782133","street":{"id":2203488,"name":"On or near Weavers Close"},"longitude":"0.271426"},"context":"","outcome_status":{"category":"Investigation complete; no suspect identified","date":"2025-05"},"persistent_id":"fdfdf5f8c767b27ae973ecb1c969531249ac68c2a0fe1f6e3f0947b229e32cc2","id":128128368,"location_subtype":"","month":"2025-05"},{"category":"criminal-damage-arson","location_type":"Force","location":{"latitude":"50.803622","street":{"id":2203682,"name":"On or near Wilton Avenue"},"longitude":"0.280019"},"context":"","outcome_status":{"category":"Investigation complete; no suspect identified","date":"2025-05"},"persistent_id":"414623f59493f005437958042ea7059629e28f4fa2c9fa22cc0f1849b0bb5db4","id":128126886,"location_subtype":"","month":"2025-05"},{"category":"criminal-damage-arson","location_type":"Force","location":{"latitude":"50.782709","street":{"id":2204131,"name":"On or near Willoughby Crescent"},"longitude":"0.301672"},"context":"","outcome_status":{"category":"Unable to prosecute suspect","date":"2025-08"},"persistent_id":"e192d32c310ed1966d3e54e734d6360488be0a64d0e46037fdf18ac1058c563c","id":128127254,"location_subtype":"","month":"2025-05"},{"category":"criminal-damage-arson","location_type":"Force","location":{"latitude":"50.786011","street":{"id":2204192,"name":"On or near Supermarket"},"longitude":"0.303395"},"context":"","outcome_status":{"category":"Unable to prosecute suspect","date":"2025-11"},"persistent_id":"e89da3417c9a92cf308b687bf7e867e55651c308b5bd8ae24b5146f8caa8809c","id":128128799,"location_subtype":"","month":"2025-05"},{"category":"criminal-damage-arson","location_type":"Force","location":{"latitude":"50.790471","street":{"id":2203994,"name":"On or near Lottbridge Drove"},"longitude":"0.297073"},"context":"","outcome_status":{"category":"Unable to prosecute suspect","date":"2025-08"},"persistent_id":"dd69b99c7e806f2b174efb3b7bbe6ffb3ebccba96b9e1a5b658cd9bb07fc1139","id":128129236,"location_subtype":"","month":"2025-05"},{"category":"criminal-damage-arson","location_type":"Force","location":{"latitude":"50.782962","street":{"id":2203845,"name":"On or near Willard Close"},"longitude":"0.288817"},"context":"","outcome_status":{"category":"Unable to prosecute suspect","date":"2025-07"},"persistent_id":"d235ab6c631036bb3dae67165affee3be58dac9e88e732f6cfa04e1da2593939","id":128129229,"location_subtype":"","month":"2025-05"},{"category":"criminal-damage-arson","location_type":"Force","location":{"latitude":"50.796956","street":{"id":2203596,"name":"On or near Elm Grove"},"longitude":"0.277368"},"context":"","outcome_status":{"category":"Investigation complete; no suspect identified","date":"2025-06"},"persistent_id":"a51d4f7820987479a903900784a9b6289d8e615a8f1d212279300a01212f1993","id":128131494,"location_subtype":"","month":"2025-05"},{"category":"criminal-damage-arson","location_type":"Force","location":{"latitude":"50.803025","street":{"id":2203790,"name":"On or near Bodiam Crescent"},"longitude":"0.285738"},"context":"","outcome_status":{"category":"Investigation complete; no suspect identified","date":"2025-05"},"persistent_id":"7012a033c56fd36fb529794e8b00ffc1e8f3a44b635d3034a8ae4282db2c1a3f","id":128131971,"location_subtype":"","month":"2025-05"},{"category":"criminal-damage-arson","location_type":"Force","location":{"latitude":"50.777121","street":{"id":2203920,"name":"On or near Whitley Road"},"longitude":"0.291270"},"context":"","outcome_status":{"category":"Investigation complete; no suspect identified","date":"2025-05"},"persistent_id":"159b83c3ca38a414673f439f2a84fd2175e886835114bcf093966fc4041d1a85","id":128132816,"location_subtype":"","month":"2025-05"},{"category":"criminal-damage-arson","location_type":"Force","location":{"latitude":"50.793572","street":{"id":2203444,"name":"On or near Hampden Park Drive"},"longitude":"0.270108"},"context":"","outcome_status":{"category":"Investigation complete; no suspect identified","date":"2025-05"},"persistent_id":"a6c43c6ecaed7a37a3f6cd261d6c5c956fe971e51d0418f27b174bb0b6ebb76d","id":128136029,"location_subtype":"","month":"2025-05"},{"category":"criminal-damage-arson","location_type":"Force","location":{"latitude":"50.784441","street":{"id":2204171,"name":"On or near Finmere Road"},"longitude":"0.302297"},"context":"","outcome_status":{"category":"Investigation complete; no suspect identified","date":"2025-05"},"persistent_id":"36ccf615f2d4e0ed7dd03d178ffa753670441368e70f49f45928ebc1aca05b6a","id":128134082,"location_subtype":"","month":"2025-05"},{"category":"criminal-damage-arson","location_type":"Force","location":{"latitude":"50.784032","street":{"id":2203375,"name":"On or near Supermarket"},"longitude":"0.267206"},"context":"","outcome_status":{"category":"Investigation complete; no suspect identified","date":"2025-05"},"persistent_id":"c6aec409840258b18cf0c44ac522d97d994dde6b11212720ff9803049cd1ff2e","id":128134466,"location_subtype":"","month":"2025-05"},{"category":"criminal-damage-arson","location_type":"Force","location":{"latitude":"50.796692","street":{"id":2203771,"name":"On or near Supermarket"},"longitude":"0.284862"},"context":"","outcome_status":{"category":"Status update unavailable","date":"2025-09"},"persistent_id":"eb65378a99a743684a340f0eb49af94460b3f9365fcd8997837751d709733c29","id":128130659,"location_subtype":"","month":"2025-05"},{"category":"drugs","location_type":"Force","location":{"latitude":"50.790471","street":{"id":2203994,"name":"On or near Lottbridge Drove"},"longitude":"0.297073"},"context":"","outcome_status":{"category":"Further investigation is not in the public interest","date":"2025-11"},"persistent_id":"8c940515e23d45f36c1f0215709d3a2abce0fdb3e30722fca3a8d71abf1d0d1b","id":128127249,"location_subtype":"","month":"2025-05"},{"category":"drugs","location_type":"Force","location":{"latitude":"50.786011","street":{"id":2204192,"name":"On or near Supermarket"},"longitude":"0.303395"},"context":"","outcome_status":{"category":"Formal action is not in the public interest","date":"2025-05"},"persistent_id":"bbfb3eefcf925f6933f65d5cd9c25bc6366397998d353035a88866ac47965089","id":128137171,"location_subtype":"","month":"2025-05"},{"category":"drugs","location_type":"Force","location":{"latitude":"50.780182","street":{"id":2204108,"name":"On or near Chandlers Mews"},"longitude":"0.299818"},"context":"","outcome_status":{"category":"Court result unavailable","date":"2025-12"},"persistent_id":"648709c1ce9e54db5c13e23601ad9ab92c8335659bca10da32ed019ae0cc7515","id":128126904,"location_subtype":"","month":"2025-05"},{"category":"drugs","location_type":"Force","location":{"latitude":"50.790471","street":{"id":2203994,"name":"On or near Lottbridge Drove"},"longitude":"0.297073"},"context":"","outcome_status":{"category":"Local resolution","date":"2025-05"},"persistent_id":"0930304fabbf112fca011b3009d15f3206da4b6cdc73f5cfabbac79290a5f46f","id":128131987,"location_subtype":"","month":"2025-05"},{"category":"drugs","location_type":"Force","location":{"latitude":"50.790471","street":{"id":2203994,"name":"On or near Lottbridge Drove"},"longitude":"0.297073"},"context":"","outcome_status":{"category":"Local resolution","date":"2025-09"},"persistent_id":"2ea71b1da81d0d774c16eb7c1f5890af24ca780abb8cb89f37b444163d49917e","id":128129617,"location_subtype":"","month":"2025-05"},{"category":"drugs","location_type":"Force","location":{"latitude":"50.788320","street":{"id":2204077,"name":"On or near Hammonds Drive"},"longitude":"0.298089"},"context":"","outcome_status":{"category":"Status update unavailable","date":"2025-09"},"persistent_id":"f8471a166a42ca9bf1a4cd02b19e227180db1bbc01621f2db1ab6a2c2f07552d","id":128136385,"location_subtype":"","month":"2025-05"},{"category":"other-theft","location_type":"Force","location":{"latitude":"50.785833","street":{"id":2204164,"name":"On or near Petrol Station"},"longitude":"0.302393"},"context":"","outcome_status":{"category":"Investigation complete; no suspect identified","date":"2025-05"},"persistent_id":"e5e344bf54edf85330f2a6f366403697a8e233e5ac98c30f7e6f39a6602ce7ad","id":128129243,"location_subtype":"","month":"2025-05"},{"category":"other-theft","location_type":"Force","location":{"latitude":"50.782381","street":{"id":2203201,"name":"On or near Beverington Close"},"longitude":"0.264217"},"context":"","outcome_status":{"category":"Investigation complete; no suspect identified","date":"2025-05"},"persistent_id":"ad6d81f8987733a13bfa1a18f7f203b41cc764f670ec3acfe8d37480d8c3d746","id":128138292,"location_subtype":"","month":"2025-05"},{"category":"other-theft","location_type":"Force","location":{"latitude":"50.782133","street":{"id":2203488,"name":"On or near Weavers Close"},"longitude":"0.271426"},"context":"","outcome_status":{"category":"Investigation complete; no suspect identified","date":"2025-07"},"persistent_id":"28f5d9070c666699fe5bf0c182d76409ac13915066e80889f31b32cd0e1b23ad","id":128137557,"location_subtype":"","month":"2025-05"},{"category":"other-theft","location_type":"Force","location":{"latitude":"50.792369","street":{"id":2203652,"name":"On or near Petrol Station"},"longitude":"0.278720"},"context":"","outcome_status":{"category":"Investigation complete; no suspect identified","date":"2025-07"},"persistent_id":"62c8c2315f51c32c9318c9b44a718737b8140800c3b2fabbc658696dae6dcffe","id":128134911,"location_subtype":"","month":"2025-05"},{"category":"other-theft","location_type":"Force","location":{"latitude":"50.786011","street":{"id":2204192,"name":"On or near Supermarket"},"longitude":"0.303395"},"context":"","outcome_status":{"category":"Investigation complete; no suspect identified","date":"2025-05"},"persistent_id":"53924e8e1bc56d2e1e68e03eaf86a914f462b8f7efc4437d802bb925a58b7436","id":128135280,"location_subtype":"","month":"2025-05"},{"category":"other-theft","location_type":"Force","location":{"latitude":"50.793605","street":{"id":2203670,"name":"On or near Supermarket"},"longitude":"0.279807"},"context":"","outcome_status":{"category":"Investigation complete; no suspect identified","date":"2025-05"},"persistent_id":"4ce8a74577abc974da027ec9e64106cb7d536539cc002a303318ec82e7658bc4","id":128135268,"location_subtype":"","month":"2025-05"},{"category":"other-theft","location_type":"Force","location":{"latitude":"50.796692","street":{"id":2203771,"name":"On or near Supermarket"},"longitude":"0.284862"},"context":"","outcome_status":{"category":"Investigation complete; no suspect identified","date":"2025-06"},"persistent_id":"a77b3b52603d0dcf8266949ee65695f6665529be7e06ba7a775cde80bf2d8297","id":128134063,"location_subtype":"","month":"2025-05"},{"category":"other-theft","location_type":"Force","location":{"latitude":"50.784081","street":{"id":2203778,"name":"On or near Mortimer Road"},"longitude":"0.288602"},"context":"","outcome_status":{"category":"Investigation complete; no suspect identified","date":"2025-05"},"persistent_id":"f405d13a5594213549d432ba3477bf1d5870720be8245f02ad2527e4b64167b3","id":128133584,"location_subtype":"","month":"2025-05"},{"category":"other-theft","location_type":"Force","location":{"latitude":"50.786969","street":{"id":2203448,"name":"On or near Hospital"},"longitude":"0.271108"},"context":"","outcome_status":{"category":"Unable to prosecute suspect","date":"2025-07"},"persistent_id":"49ced56e9c2378bed1170f063be960013f6194a45ba8deca17aaa8b2b4609cfd","id":128133575,"location_subtype":"","month":"2025-05"},{"category":"other-theft","location_type":"Force","location":{"latitude":"50.797651","street":{"id":2203636,"name":"On or near Brodrick Close"},"longitude":"0.277685"},"context":"","outcome_status":{"category":"Status update unavailable","date":"2025-09"},"persistent_id":"ae487010cc12ba8cd33b869b9e6950139823d048dd03858e517e0e62d3318d29","id":128132409,"location_subtype":"","month":"2025-05"},{"category":"other-theft","location_type":"Force","location":{"latitude":"50.788909","street":{"id":2203501,"name":"On or near Further/higher Educational Building"},"longitude":"0.272124"},"context":"","outcome_status":{"category":"Investigation complete; no suspect identified","date":"2025-11"},"persistent_id":"08aef5123ae4650a75155651c4d70003aa78046af585e3a44d66882c0c097bbf","id":128132408,"location_subtype":"","month":"2025-05"},{"category":"other-theft","location_type":"Force","location":{"latitude":"50.783785","street":{"id":2204092,"name":"On or near Ecmod Road"},"longitude":"0.299569"},"context":"","outcome_status":{"category":"Investigation complete; no suspect identified","date":"2025-05"},"persistent_id":"e19af56a5e34c12d8819c3edcb5e0c61c0b9cb577925e52ea156d19e7198423f","id":128126524,"location_subtype":"","month":"2025-05"},{"category":"other-theft","location_type":"Force","location":{"latitude":"50.793572","street":{"id":2203444,"name":"On or near Hampden Park Drive"},"longitude":"0.270108"},"context":"","outcome_status":{"category":"Investigation complete; no suspect identified","date":"2025-05"},"persistent_id":"0183baefebbccccc46fbff27b456d21ef1208f2f2363519b31bd549a52006478","id":128128767,"location_subtype":"","month":"2025-05"},{"category":"other-theft","location_type":"Force","location":{"latitude":"50.803292","street":{"id":2203712,"name":"On or near Midhurst Road"},"longitude":"0.283580"},"context":"","outcome_status":{"category":"Investigation complete; no suspect identified","date":"2025-05"},"persistent_id":"d3a16a4bd849dcb84e75aede3d90c49fbdd8b4795e7a304b6bd903d37cdfd572","id":128128777,"location_subtype":"","month":"2025-05"},{"category":"other-theft","location_type":"Force","location":{"latitude":"50.782938","street":{"id":2203932,"name":"On or near Astaire Avenue"},"longitude":"0.292320"},"context":"","outcome_status":{"category":"Investigation complete; no suspect identified","date":"2025-05"},"persistent_id":"d2add26c74fe24b865b14068eef44891db7faf38205f43cae3f1734891dee3cb","id":128129951,"location_subtype":"","month":"2025-05"},{"category":"other-theft","location_type":"Force","location":{"latitude":"50.793572","street":{"id":2203444,"name":"On or near Hampden Park Drive"},"longitude":"0.270108"},"context":"","outcome_status":{"category":"Investigation complete; no suspect identified","date":"2025-05"},"persistent_id":"fc23a391ea95ca4858313bff8582dfb71125c90b50231f9bf5c081739d1ab2b9","id":128131488,"location_subtype":"","month":"2025-05"},{"category":"other-theft","location_type":"Force","location":{"latitude":"50.788909","street":{"id":2203501,"name":"On or near Further/higher Educational Building"},"longitude":"0.272124"},"context":"","outcome_status":{"category":"Investigation complete; no suspect identified","date":"2025-05"},"persistent_id":"691b99650f89f2a49727a6fe50da0c9c9cb7e3a0493247b1b5e37e662c52acae","id":128131491,"location_subtype":"","month":"2025-05"},{"category":"other-theft","location_type":"Force","location":{"latitude":"50.780172","street":{"id":2203961,"name":"On or near St Philip's Avenue"},"longitude":"0.293958"},"context":"","outcome_status":{"category":"Investigation complete; no suspect identified","date":"2025-05"},"persistent_id":"68a31d6ab9b5fe331262c23f1e50aef014c0c841b7b3d07c1acad97a1bd37b30","id":128131512,"location_subtype":"","month":"2025-05"},{"category":"other-theft","location_type":"Force","location":{"latitude":"50.797031","street":{"id":2203528,"name":"On or near Nevill Avenue"},"longitude":"0.273029"},"context":"","outcome_status":{"category":"Investigation complete; no suspect identified","date":"2025-05"},"persistent_id":"712659caff3fc59cab2c014da012807c9ad9b2fec5a0110d1b1d176d5daa608f","id":128131959,"location_subtype":"","month":"2025-05"},{"category":"other-theft","location_type":"Force","location":{"latitude":"50.784536","street":{"id":2203365,"name":"On or near Framfield Way"},"longitude":"0.267187"},"context":"","outcome_status":{"category":"Investigation complete; no suspect identified","date":"2025-05"},"persistent_id":"5b53c6aa5dc63f0259d7bf0b378e3264c2d0f68feb1600727d4b0cd7a030509a","id":128134907,"location_subtype":"","month":"2025-05"},{"category":"possession-of-weapons","location_type":"Force","location":{"latitude":"50.790471","street":{"id":2203994,"name":"On or near Lottbridge Drove"},"longitude":"0.297073"},"context":"","outcome_status":{"category":"Court result unavailable","date":"2025-11"},"persistent_id":"82dca2a68e05814ce50c8a44824a8811f0d3c78ccff44bab129db97731fa1f57","id":128129237,"location_subtype":"","month":"2025-05"},{"category":"possession-of-weapons","location_type":"Force","location":{"latitude":"50.788909","street":{"id":2203501,"name":"On or near Further/higher Educational Building"},"longitude":"0.272124"},"context":"","outcome_status":{"category":"Investigation complete; no suspect identified","date":"2025-06"},"persistent_id":"7ef184abc5f902cbdfc4a0a395521f134cad3e1c1aa8bad558e0a240dc51f26a","id":128132803,"location_subtype":"","month":"2025-05"},{"category":"public-order","location_type":"Force","location":{"latitude":"50.799171","street":{"id":2203789,"name":"On or near Port Road"},"longitude":"0.285039"},"context":"","outcome_status":{"category":"Investigation complete; no suspect identified","date":"2025-05"},"persistent_id":"52d2a1ed12fdd0913fcf16522c990ed0d1d79963e2bb636f94a07e713954a35f","id":128129225,"location_subtype":"","month":"2025-05"},{"category":"public-order","location_type":"Force","location":{"latitude":"50.793605","street":{"id":2203670,"name":"On or near Supermarket"},"longitude":"0.279807"},"context":"","outcome_status":{"category":"Unable to prosecute suspect","date":"2025-06"},"persistent_id":"6b96b6c30aea28ca7fe0ad7867268240638e9c41945f8a7728de5edca5f364fd","id":128137559,"location_subtype":"","month":"2025-05"},{"category":"public-order","location_type":"Force","location":{"latitude":"50.790471","street":{"id":2203994,"name":"On or near Lottbridge Drove"},"longitude":"0.297073"},"context":"","outcome_status":{"category":"Awaiting court outcome","date":"2025-11"},"persistent_id":"29851c9faa0876b84eb82a327428b5f177fbc08f567db5d95bdf9f22fc8b59d4","id":128137169,"location_subtype":"","month":"2025-05"},{"category":"public-order","location_type":"Force","location":{"latitude":"50.787841","street":{"id":2204024,"name":"On or near Police Station"},"longitude":"0.297725"},"context":"","outcome_status":{"category":"Further investigation is not in the public interest","date":"2025-06"},"persistent_id":"24b2dc34db0c061699a5b0c8c981464c36a85b58ee3b4ae7ddd78b96cf21eae3","id":128137572,"location_subtype":"","month":"2025-05"},{"category":"public-order","location_type":"Force","location":{"latitude":"50.803292","street":{"id":2203712,"name":"On or near Midhurst Road"},"longitude":"0.283580"},"context":"","outcome_status":{"category":"Unable to prosecute suspect","date":"2025-07"},"persistent_id":"a6f74da4ee0816814d2f280523bca5f6591914ac27b68c1c74a6e9a9ab5125bd","id":128130295,"location_subtype":"","month":"2025-05"},{"category":"public-order","location_type":"Force","location":{"latitude":"50.787893","street":{"id":2204212,"name":"On or near Maple Road"},"longitude":"0.306028"},"context":"","outcome_status":{"category":"Unable to prosecute suspect","date":"2025-05"},"persistent_id":"6c696e110091a0199398637993eb7215ef2f189dccc16bed53369dd6f76a3a6d","id":128133593,"location_subtype":"","month":"2025-05"},{"category":"public-order","location_type":"Force","location":{"latitude":"50.796692","street":{"id":2203771,"name":"On or near Supermarket"},"longitude":"0.284862"},"context":"","outcome_status":{"category":"Investigation complete; no suspect identified","date":"2025-05"},"persistent_id":"052228747f263cd94a16ec70592e3485a9238d03ecdd3bccafb68685c94411ed","id":128135685,"location_subtype":"","month":"2025-05"},{"category":"public-order","location_type":"Force","location":{"latitude":"50.797234","street":{"id":2203686,"name":"On or near Mountfield Road"},"longitude":"0.280177"},"context":"","outcome_status":{"category":"Unable to prosecute suspect","date":"2025-08"},"persistent_id":"45ed89473d47fa2432767c2f1d0aef905e73b6fc7f358bfae93ea87cf087511e","id":128135679,"location_subtype":"","month":"2025-05"},{"category":"public-order","location_type":"Force","location":{"latitude":"50.799932","street":{"id":2203529,"name":"On or near Binsted Close"},"longitude":"0.271410"},"context":"","outcome_status":{"category":"Investigation complete; no suspect identified","date":"2025-08"},"persistent_id":"4d26e7c752f0ba3e0f111bd948e65a2d75dee6c6780cf76d836151c8a9d5f455","id":128134469,"location_subtype":"","month":"2025-05"},{"category":"public-order","location_type":"Force","location":{"latitude":"50.799678","street":{"id":2203787,"name":"On or near Knoll Road"},"longitude":"0.285334"},"context":"","outcome_status":{"category":"Investigation complete; no suspect identified","date":"2025-05"},"persistent_id":"cb302cf52664eeab470aa4d52dbb32807958a864ab57f14bd629dc2f8af94922","id":128132415,"location_subtype":"","month":"2025-05"},{"category":"public-order","location_type":"Force","location":{"latitude":"50.786969","street":{"id":2203448,"name":"On or near Hospital"},"longitude":"0.271108"},"context":"","outcome_status":{"category":"Court result unavailable","date":"2026-01"},"persistent_id":"2a6f898a481b0a1dbfd57fdd79ef842346eade0be09ff3c3307820915251cebe","id":128136031,"location_subtype":"","month":"2025-05"},{"category":"robbery","location_type":"Force","location":{"latitude":"50.796692","street":{"id":2203771,"name":"On or near Supermarket"},"longitude":"0.284862"},"context":"","outcome_status":{"category":"Unable to prosecute suspect","date":"2025-05"},"persistent_id":"dc2741762885594bdf762f1f7c8b4033d2e621519e9c1954064329722f6c3689","id":128134061,"location_subtype":"","month":"2025-05"},{"category":"robbery","location_type":"Force","location":{"latitude":"50.781054","street":{"id":2204119,"name":"On or near Supermarket"},"longitude":"0.300988"},"context":"","outcome_status":{"category":"Investigation complete; no suspect identified","date":"2025-06"},"persistent_id":"5b021cf5de67e1931630ff7d54caaccc5d3b37533c9e8a496537dc1f50fd78e1","id":128134929,"location_subtype":"","month":"2025-05"},{"category":"robbery","location_type":"Force","location":{"latitude":"50.796692","street":{"id":2203771,"name":"On or near Supermarket"},"longitude":"0.284862"},"context":"","outcome_status":{"category":"Status update unavailable","date":"2025-09"},"persistent_id":"cd17e2e728442b17f3a26a10f5a290248715a23fd144dbd64b35c47c0d4e372d","id":128130660,"location_subtype":"","month":"2025-05"},{"category":"shoplifting","location_type":"Force","location":{"latitude":"50.792369","street":{"id":2203652,"name":"On or near Petrol Station"},"longitude":"0.278720"},"context":"","outcome_status":{"category":"Investigation complete; no suspect identified","date":"2025-07"},"persistent_id":"11579f8cf032ec3f7591a9537bd6d497470e5936693c7e8efc85a983ea8e80be","id":128133198,"location_subtype":"","month":"2025-05"},{"category":"shoplifting","location_type":"Force","location":{"latitude":"50.794344","street":{"id":2203734,"name":"On or near Marshall Road"},"longitude":"0.283981"},"context":"","outcome_status":{"category":"Investigation complete; no suspect identified","date":"2025-07"},"persistent_id":"77aae15b9918b92b4a5fcd5c0ee5c9eaa4b49430d20d53cd779eb2b5326b59d2","id":128137567,"location_subtype":"","month":"2025-05"},{"category":"shoplifting","location_type":"Force","location":{"latitude":"50.797651","street":{"id":2203636,"name":"On or near Brodrick Close"},"longitude":"0.277685"},"context":"","outcome_status":{"category":"Investigation complete; no suspect identified","date":"2025-06"},"persistent_id":"1f9534f88371e51bed0d2687f2802af6df7dff067783d4f5f4c7a34e210d1e57","id":128129220,"location_subtype":"","month":"2025-05"},{"category":"shoplifting","location_type":"Force","location":{"latitude":"50.796956","street":{"id":2203596,"name":"On or near Elm Grove"},"longitude":"0.277368"},"context":"","outcome_status":{"category":"Investigation complete; no suspect identified","date":"2025-07"},"persistent_id":"c071d2a6d6e362be56cc81ff002d4fc989d870e3fabc812504610eb8b5cf592f","id":128131962,"location_subtype":"","month":"2025-05"},{"category":"shoplifting","location_type":"Force","location":{"latitude":"50.796581","street":{"id":2203704,"name":"On or near Supermarket"},"longitude":"0.281587"},"context":"","outcome_status":{"category":"Investigation complete; no suspect identified","date":"2025-06"},"persistent_id":"bddad62912140cea0afdf115367f04ac85f7507c62b408a9ca809c64cc264c9a","id":128131965,"location_subtype":"","month":"2025-05"},{"category":"shoplifting","location_type":"Force","location":{"latitude":"50.781054","street":{"id":2204119,"name":"On or near Supermarket"},"longitude":"0.300988"},"context":"","outcome_status":{"category":"Unable to prosecute suspect","date":"2025-05"},"persistent_id":"cf390035fe4ceffd470613093c2b27f7484d0907af3c0342d63b4d3dd3f334c2","id":128132431,"location_subtype":"","month":"2025-05"},{"category":"shoplifting","location_type":"Force","location":{"latitude":"50.796692","street":{"id":2203771,"name":"On or near Supermarket"},"longitude":"0.284862"},"context":"","outcome_status":{"category":"Investigation complete; no suspect identified","date":"2025-05"},"persistent_id":"5ad1b6a59cc7a5ddc3fe8398258351ca4b3ee729d6183b09394606cc24a57e17","id":128132414,"location_subtype":"","month":"2025-05"},{"category":"shoplifting","location_type":"Force","location":{"latitude":"50.796956","street":{"id":2203596,"name":"On or near Elm Grove"},"longitude":"0.277368"},"context":"","outcome_status":{"category":"Investigation complete; no suspect identified","date":"2025-05"},"persistent_id":"722e4e73919a7cb03cbcca875b70415f19722ac0e0e8f7ab25ca0f55d2cedfba","id":128129219,"location_subtype":"","month":"2025-05"},{"category":"shoplifting","location_type":"Force","location":{"latitude":"50.793605","street":{"id":2203670,"name":"On or near Supermarket"},"longitude":"0.279807"},"context":"","outcome_status":{"category":"Investigation complete; no suspect identified","date":"2025-06"},"persistent_id":"e644bd523dfd531181b8bcc2e982c3e2de22c355d0996ad10b91e44a51e8cd98","id":128128371,"location_subtype":"","month":"2025-05"},{"category":"shoplifting","location_type":"Force","location":{"latitude":"50.784032","street":{"id":2203375,"name":"On or near Supermarket"},"longitude":"0.267206"},"context":"","outcome_status":{"category":"Investigation complete; no suspect identified","date":"2025-05"},"persistent_id":"155bebe887db4fb6b81583ea14e2f4733a8d4767afcdce36297fca1e7d539322","id":128128365,"location_subtype":"","month":"2025-05"},{"category":"shoplifting","location_type":"Force","location":{"latitude":"50.784032","street":{"id":2203375,"name":"On or near Supermarket"},"longitude":"0.267206"},"context":"","outcome_status":{"category":"Investigation complete; no suspect identified","date":"2025-06"},"persistent_id":"9e021d9a30bad910f97fe19b77110146309031a01494b8cbea6a53fc6c7f32f1","id":128127941,"location_subtype":"","month":"2025-05"},{"category":"shoplifting","location_type":"Force","location":{"latitude":"50.784032","street":{"id":2203375,"name":"On or near Supermarket"},"longitude":"0.267206"},"context":"","outcome_status":{"category":"Investigation complete; no suspect identified","date":"2025-05"},"persistent_id":"5e1f4889bdaa5db42d449dcab37105ca06bbabc9205bc33b021bb5e29481b23a","id":128129933,"location_subtype":"","month":"2025-05"},{"category":"shoplifting","location_type":"Force","location":{"latitude":"50.784032","street":{"id":2203375,"name":"On or near Supermarket"},"longitude":"0.267206"},"context":"","outcome_status":{"category":"Investigation complete; no suspect identified","date":"2025-06"},"persistent_id":"322ea379de51a912f3fb126c118c4a8ac41cbd933ac79d0a086e4b5ce25815c9","id":128127943,"location_subtype":"","month":"2025-05"},{"category":"shoplifting","location_type":"Force","location":{"latitude":"50.784032","street":{"id":2203375,"name":"On or near Supermarket"},"longitude":"0.267206"},"context":"","outcome_status":{"category":"Unable to prosecute suspect","date":"2025-06"},"persistent_id":"5f788a64f5f08562ac21d3d41c1e0065bc6652a4855c6d2eb90f851804b55d22","id":128127945,"location_subtype":"","month":"2025-05"},{"category":"shoplifting","location_type":"Force","location":{"latitude":"50.784032","street":{"id":2203375,"name":"On or near Supermarket"},"longitude":"0.267206"},"context":"","outcome_status":{"category":"Court result unavailable","date":"2025-11"},"persistent_id":"d8bcc88a27b0a30af22f74204f49c21f40a49cb205befd140cf1932f13058d94","id":128130290,"location_subtype":"","month":"2025-05"},{"category":"shoplifting","location_type":"Force","location":{"latitude":"50.784032","street":{"id":2203375,"name":"On or near Supermarket"},"longitude":"0.267206"},"context":"","outcome_status":{"category":"Status update unavailable","date":"2025-09"},"persistent_id":"51a5592db663a01c87b75145d83f812ddb7dc2d32088125f40e677f100771e7f","id":128131058,"location_subtype":"","month":"2025-05"},{"category":"shoplifting","location_type":"Force","location":{"latitude":"50.796692","street":{"id":2203771,"name":"On or near Supermarket"},"longitude":"0.284862"},"context":"","outcome_status":{"category":"Investigation complete; no suspect identified","date":"2025-06"},"persistent_id":"4e87cd5b222591ffde6f36cb14bc4fc6d6687da6add88d18905cb8f6e8971383","id":128132809,"location_subtype":"","month":"2025-05"},{"category":"shoplifting","location_type":"Force","location":{"latitude":"50.784032","street":{"id":2203375,"name":"On or near Supermarket"},"longitude":"0.267206"},"context":"","outcome_status":{"category":"Investigation complete; no suspect identified","date":"2025-06"},"persistent_id":"3f7c432379548b9fda75ed0add397560ceae230634576250d2a4be5838923839","id":128127939,"location_subtype":"","month":"2025-05"},{"category":"shoplifting","location_type":"Force","location":{"latitude":"50.793605","street":{"id":2203670,"name":"On or near Supermarket"},"longitude":"0.279807"},"context":"","outcome_status":{"category":"Investigation complete; no suspect identified","date":"2025-06"},"persistent_id":"09d5ad7c8ee5b9d6d04776f5acb8a41c37325063be9f86af0bfb8ac58d88725c","id":128126503,"location_subtype":"","month":"2025-05"},{"category":"shoplifting","location_type":"Force","location":{"latitude":"50.784032","street":{"id":2203375,"name":"On or near Supermarket"},"longitude":"0.267206"},"context":"","outcome_status":{"category":"Awaiting court outcome","date":"2025-09"},"persistent_id":"0ce3d3a79a62206d24b2ae36a15a2136b4dca9e5a311c987c05ee8e4c8ad3c50","id":128130653,"location_subtype":"","month":"2025-05"},{"category":"shoplifting","location_type":"Force","location":{"latitude":"50.784032","street":{"id":2203375,"name":"On or near Supermarket"},"longitude":"0.267206"},"context":"","outcome_status":{"category":"Investigation complete; no suspect identified","date":"2025-05"},"persistent_id":"ebd647b33ecd852eb9daac873ecd80fed1297ecaf8f76e0ae553523077ac59fa","id":128126498,"location_subtype":"","month":"2025-05"},{"category":"shoplifting","location_type":"Force","location":{"latitude":"50.794344","street":{"id":2203734,"name":"On or near Marshall Road"},"longitude":"0.283981"},"context":"","outcome_status":{"category":"Investigation complete; no suspect identified","date":"2025-06"},"persistent_id":"52c9207d5b9b6699da633c08f4eb77f298642600e49a0c9a230427917e504270","id":128132419,"location_subtype":"","month":"2025-05"},{"category":"shoplifting","location_type":"Force","location":{"latitude":"50.798163","street":{"id":2203677,"name":"On or near Hampden Avenue"},"longitude":"0.280037"},"context":"","outcome_status":{"category":"Unable to prosecute suspect","date":"2025-06"},"persistent_id":"dfb61423997660210e894adeca31f16d0739640f1272e6575c5e93d674620e44","id":128135680,"location_subtype":"","month":"2025-05"},{"category":"shoplifting","location_type":"Force","location":{"latitude":"50.793605","street":{"id":2203670,"name":"On or near Supermarket"},"longitude":"0.279807"},"context":"","outcome_status":{"category":"Investigation complete; no suspect identified","date":"2025-05"},"persistent_id":"1828835b6cad600b144855e99169c68ee3fc30f5c877018fca53a04ef3689282","id":128126887,"location_subtype":"","month":"2025-05"},{"category":"shoplifting","location_type":"Force","location":{"latitude":"50.786011","street":{"id":2204192,"name":"On or near Supermarket"},"longitude":"0.303395"},"context":"","outcome_status":{"category":"Court result unavailable","date":"2026-01"},"persistent_id":"8af221926d681e496726173c534c015f9609d883283819ecae096a93d88108c3","id":128129620,"location_subtype":"","month":"2025-05"},{"category":"shoplifting","location_type":"Force","location":{"latitude":"50.796581","street":{"id":2203704,"name":"On or near Supermarket"},"longitude":"0.281587"},"context":"","outcome_status":{"category":"Investigation complete; no suspect identified","date":"2025-06"},"persistent_id":"4cbf2860bb5105557f01b7977ba88293fc461df9769dd02a89d5f675d58d9bb3","id":128138298,"location_subtype":"","month":"2025-05"},{"category":"shoplifting","location_type":"Force","location":{"latitude":"50.784032","street":{"id":2203375,"name":"On or near Supermarket"},"longitude":"0.267206"},"context":"","outcome_status":{"category":"Investigation complete; no suspect identified","date":"2025-05"},"persistent_id":"7046615f20da43f1ec6895a861a9ad78879dddb222c488669796741c34076668","id":128127938,"location_subtype":"","month":"2025-05"},{"category":"shoplifting","location_type":"Force","location":{"latitude":"50.784032","street":{"id":2203375,"name":"On or near Supermarket"},"longitude":"0.267206"},"context":"","outcome_status":{"category":"Investigation complete; no suspect identified","date":"2025-05"},"persistent_id":"045ca463b0a7ef1cdd9400a047837f8311b86dd73f609dbca8b278b194c4d51d","id":128127940,"location_subtype":"","month":"2025-05"},{"category":"shoplifting","location_type":"Force","location":{"latitude":"50.784032","street":{"id":2203375,"name":"On or near Supermarket"},"longitude":"0.267206"},"context":"","outcome_status":{"category":"Court result unavailable","date":"2025-11"},"persistent_id":"50e179d28e84a4a988cc4664a2086ac2023cf0118a87d36c3a89cecc783e12ed","id":128127942,"location_subtype":"","month":"2025-05"},{"category":"shoplifting","location_type":"Force","location":{"latitude":"50.784032","street":{"id":2203375,"name":"On or near Supermarket"},"longitude":"0.267206"},"context":"","outcome_status":{"category":"Court result unavailable","date":"2025-11"},"persistent_id":"f29f305ef3a5dd398274c22266ab9c1e108e9319d962e3a60f2640ac3d2d390d","id":128127944,"location_subtype":"","month":"2025-05"},{"category":"shoplifting","location_type":"Force","location":{"latitude":"50.786011","street":{"id":2204192,"name":"On or near Supermarket"},"longitude":"0.303395"},"context":"","outcome_status":{"category":"Court result unavailable","date":"2026-01"},"persistent_id":"86c574111e24bae0353cf1adb0c627e69c49ba7f9535e9943370eb3c455979d2","id":128134931,"location_subtype":"","month":"2025-05"},{"category":"shoplifting","location_type":"Force","location":{"latitude":"50.784032","street":{"id":2203375,"name":"On or near Supermarket"},"longitude":"0.267206"},"context":"","outcome_status":{"category":"Investigation complete; no suspect identified","date":"2025-05"},"persistent_id":"d97c0fbc675eb1310da35e5016b9f2999b966bf3f500a4d1037877524d01f9ca","id":128129934,"location_subtype":"","month":"2025-05"},{"category":"shoplifting","location_type":"Force","location":{"latitude":"50.780182","street":{"id":2204108,"name":"On or near Chandlers Mews"},"longitude":"0.299818"},"context":"","outcome_status":{"category":"Court result unavailable","date":"2025-11"},"persistent_id":"5e8e68a50568326fbeb4e66532a41a95a0725425ec5609ec1858b990ee51c362","id":128127974,"location_subtype":"","month":"2025-05"},{"category":"shoplifting","location_type":"Force","location":{"latitude":"50.796956","street":{"id":2203596,"name":"On or near Elm Grove"},"longitude":"0.277368"},"context":"","outcome_status":{"category":"Investigation complete; no suspect identified","date":"2025-07"},"persistent_id":"8dc02deb077407eefa22162dd40b9813c96cb2ce579e6c6252dcbd9d5699133e","id":128137158,"location_subtype":"","month":"2025-05"},{"category":"shoplifting","location_type":"Force","location":{"latitude":"50.786011","street":{"id":2204192,"name":"On or near Supermarket"},"longitude":"0.303395"},"context":"","outcome_status":{"category":"Unable to prosecute suspect","date":"2025-07"},"persistent_id":"3f914113dfab86d3947bf1f6325f3a5844001a26c91bac7aaec32c7d1141db55","id":128131082,"location_subtype":"","month":"2025-05"},{"category":"shoplifting","location_type":"Force","location":{"latitude":"50.786011","street":{"id":2204192,"name":"On or near Supermarket"},"longitude":"0.303395"},"context":"","outcome_status":{"category":"Investigation complete; no suspect identified","date":"2025-06"},"persistent_id":"f43a52da57cddae1bf5a8f4751f8271d688b68cba8d720a0df419f0617c5dfcd","id":128127255,"location_subtype":"","month":"2025-05"},{"category":"vehicle-crime","location_type":"Force","location":{"latitude":"50.796581","street":{"id":2203704,"name":"On or near Supermarket"},"longitude":"0.281587"},"context":"","outcome_status":{"category":"Unable to prosecute suspect","date":"2025-05"},"persistent_id":"5d396e7dd2597f77be4dd159e5682d3274d1104ec7fea6b91addc1bdb0438cc8","id":128129941,"location_subtype":"","month":"2025-05"},{"category":"vehicle-crime","location_type":"Force","location":{"latitude":"50.798793","street":{"id":2203864,"name":"On or near Edward Road"},"longitude":"0.289179"},"context":"","outcome_status":{"category":"Unable to prosecute suspect","date":"2025-08"},"persistent_id":"3d80a635fb0d1e7e93a0e5d1178e148f70eb4853c7eba918d3cd4b7c57d3120a","id":128127240,"location_subtype":"","month":"2025-05"},{"category":"violent-crime","location_type":"Force","location":{"latitude":"50.776784","street":{"id":2203928,"name":"On or near Dudley Road"},"longitude":"0.292402"},"context":"","outcome_status":{"category":"Unable to prosecute suspect","date":"2025-05"},"persistent_id":"5fef3489fc74a963a9b6dfa82fee4201ee661f7a5a840224374619e34c93eedd","id":128126899,"location_subtype":"","month":"2025-05"},{"category":"violent-crime","location_type":"Force","location":{"latitude":"50.790471","street":{"id":2203994,"name":"On or near Lottbridge Drove"},"longitude":"0.297073"},"context":"","outcome_status":{"category":"Court result unavailable","date":"2025-11"},"persistent_id":"d6a7705ba6dd4f5a178862278f598e60e9c284232609c2b2c1b4236899920d96","id":128127248,"location_subtype":"","month":"2025-05"},{"category":"violent-crime","location_type":"Force","location":{"latitude":"50.776076","street":{"id":2203611,"name":"On or near Carew Road"},"longitude":"0.278963"},"context":"","outcome_status":{"category":"Investigation complete; no suspect identified","date":"2025-05"},"persistent_id":"ceb6e60c1fb36f350d16dde9fece50e191c106e330c8cd8aef9c3cdabc373dd7","id":128127613,"location_subtype":"","month":"2025-05"},{"category":"violent-crime","location_type":"Force","location":{"latitude":"50.782050","street":{"id":2204053,"name":"On or near Brydges Close"},"longitude":"0.297682"},"context":"","outcome_status":{"category":"Investigation complete; no suspect identified","date":"2025-07"},"persistent_id":"bdfdcc20d9febb53b463d4265ace8b058756d5c875bc7a0b1e708a0ff1f53af4","id":128132827,"location_subtype":"","month":"2025-05"},{"category":"violent-crime","location_type":"Force","location":{"latitude":"50.787362","street":{"id":2203958,"name":"On or near Collier Close"},"longitude":"0.293729"},"context":"","outcome_status":{"category":"Unable to prosecute suspect","date":"2025-05"},"persistent_id":"ed1c4f20373580d6882cbecffec94865e0103631ee367b874b10288a6227494d","id":128127967,"location_subtype":"","month":"2025-05"},{"category":"violent-crime","location_type":"Force","location":{"latitude":"50.787362","street":{"id":2203958,"name":"On or near Collier Close"},"longitude":"0.293729"},"context":"","outcome_status":{"category":"Unable to prosecute suspect","date":"2025-05"},"persistent_id":"c61bb8a694ed505109ed1b857cb4c34450e86394bbbda40a8bed1ed942a7a6a2","id":128127968,"location_subtype":"","month":"2025-05"},{"category":"violent-crime","location_type":"Force","location":{"latitude":"50.795917","street":{"id":2203258,"name":"On or near Stanmer Drive"},"longitude":"0.263282"},"context":"","outcome_status":{"category":"Unable to prosecute suspect","date":"2025-05"},"persistent_id":"6ac5c7d75521c0b1876e7c75c122c08ba16d45f7c000253d2c5bd90822200cc8","id":128128358,"location_subtype":"","month":"2025-05"},{"category":"violent-crime","location_type":"Force","location":{"latitude":"50.780182","street":{"id":2204108,"name":"On or near Chandlers Mews"},"longitude":"0.299818"},"context":"","outcome_status":{"category":"Unable to prosecute suspect","date":"2025-06"},"persistent_id":"42c1d2f96ea636cd3f7390ab2372a18d15005d30afbe4098ae31f8ffc61a2b01","id":128131993,"location_subtype":"","month":"2025-05"},{"category":"violent-crime","location_type":"Force","location":{"latitude":"50.786969","street":{"id":2203448,"name":"On or near Hospital"},"longitude":"0.271108"},"context":"","outcome_status":{"category":"Unable to prosecute suspect","date":"2025-05"},"persistent_id":"40b8fae96d4cc3b88da90abdf4fe264460da9b101c766a207d6a62b88f0a97be","id":128131957,"location_subtype":"","month":"2025-05"},{"category":"violent-crime","location_type":"Force","location":{"latitude":"50.786969","street":{"id":2203448,"name":"On or near Hospital"},"longitude":"0.271108"},"context":"","outcome_status":{"category":"Investigation complete; no suspect identified","date":"2025-05"},"persistent_id":"cb9df418d048aeeccb548f6503f32eb5070dbcd487b2b6d44bdca334fd7d98d0","id":128128770,"location_subtype":"","month":"2025-05"},{"category":"violent-crime","location_type":"Force","location":{"latitude":"50.786969","street":{"id":2203448,"name":"On or near Hospital"},"longitude":"0.271108"},"context":"","outcome_status":{"category":"Investigation complete; no suspect identified","date":"2025-05"},"persistent_id":"2d886722fb9c12c110cc5bf495fa1c49ead8ab21c393ea34a85b25f2ff63d900","id":128128771,"location_subtype":"","month":"2025-05"},{"category":"violent-crime","location_type":"Force","location":{"latitude":"50.786969","street":{"id":2203448,"name":"On or near Hospital"},"longitude":"0.271108"},"context":"","outcome_status":{"category":"Court result unavailable","date":"2025-11"},"persistent_id":"2a6e3e873a59d8f2fb6e912b9d89d7400569b6c2a5a1301e9924bdb8bd3bde8e","id":128128773,"location_subtype":"","month":"2025-05"},{"category":"violent-crime","location_type":"Force","location":{"latitude":"50.786969","street":{"id":2203448,"name":"On or near Hospital"},"longitude":"0.271108"},"context":"","outcome_status":{"category":"Court result unavailable","date":"2025-11"},"persistent_id":"18097725febdc3c8dd03b6412fdda49893fdc9023ee7612ceba084adffaeb3c5","id":128128775,"location_subtype":"","month":"2025-05"},{"category":"violent-crime","location_type":"Force","location":{"latitude":"50.800394","street":{"id":2203694,"name":"On or near Frenchgate Close"},"longitude":"0.280472"},"context":"","outcome_status":{"category":"Investigation complete; no suspect identified","date":"2025-05"},"persistent_id":"b42d535a7ad8a9a66036c72c3fb1e09eed7654d7372a4d4780d7bafcfe1dbb72","id":128128776,"location_subtype":"","month":"2025-05"},{"category":"violent-crime","location_type":"Force","location":{"latitude":"50.792563","street":{"id":2203645,"name":"On or near Broadwater Way"},"longitude":"0.278474"},"context":"","outcome_status":{"category":"Unable to prosecute suspect","date":"2025-05"},"persistent_id":"6b615a3336bc89605b9157da2fc22d1e8dfe628c7e6483364c688748b1bed656","id":128136367,"location_subtype":"","month":"2025-05"},{"category":"violent-crime","location_type":"Force","location":{"latitude":"50.780448","street":{"id":2203872,"name":"On or near Ringwood Close"},"longitude":"0.290439"},"context":"","outcome_status":{"category":"Unable to prosecute suspect","date":"2025-05"},"persistent_id":"b0c299051e539b4282b3c4e34c2b5604bf7149967785f896808cd109efdf3d2c","id":128128788,"location_subtype":"","month":"2025-05"},{"category":"violent-crime","location_type":"Force","location":{"latitude":"50.782133","street":{"id":2203488,"name":"On or near Weavers Close"},"longitude":"0.271426"},"context":"","outcome_status":{"category":"Unable to prosecute suspect","date":"2025-09"},"persistent_id":"4bc5c717b89b01382023e9bd3b4c3e465bdde449f03d44f2ef1c071f60c37a9c","id":128132804,"location_subtype":"","month":"2025-05"},{"category":"violent-crime","location_type":"Force","location":{"latitude":"50.786969","street":{"id":2203448,"name":"On or near Hospital"},"longitude":"0.271108"},"context":"","outcome_status":{"category":"Investigation complete; no suspect identified","date":"2025-05"},"persistent_id":"9f800a0e9a29ab47be03e93cff39ab0a34a1b995b547f17e8bd8af7a6fc806fd","id":128129597,"location_subtype":"","month":"2025-05"},{"category":"violent-crime","location_type":"Force","location":{"latitude":"50.786969","street":{"id":2203448,"name":"On or near Hospital"},"longitude":"0.271108"},"context":"","outcome_status":{"category":"Investigation complete; no suspect identified","date":"2025-05"},"persistent_id":"a5f79244fec18c15b7b3d560672fbf6d1a7828376eb3a59baaaadd0ff9fefbb4","id":128129598,"location_subtype":"","month":"2025-05"},{"category":"violent-crime","location_type":"Force","location":{"latitude":"50.787013","street":{"id":2203359,"name":"On or near King's Drive"},"longitude":"0.266967"},"context":"","outcome_status":{"category":"Unable to prosecute suspect","date":"2025-05"},"persistent_id":"98163b90cf9028ad58d4b707e1239931c963e2277dbbce61518fcb3fe8b647cc","id":128133187,"location_subtype":"","month":"2025-05"},{"category":"violent-crime","location_type":"Force","location":{"latitude":"50.796692","street":{"id":2203771,"name":"On or near Supermarket"},"longitude":"0.284862"},"context":"","outcome_status":{"category":"Status update unavailable","date":"2025-09"},"persistent_id":"07c46c68b4e05797bd9ba2c1ea01b87f2fc8c7a932b6c0656fb30cd723dfcb08","id":128128778,"location_subtype":"","month":"2025-05"},{"category":"violent-crime","location_type":"Force","location":{"latitude":"50.796581","street":{"id":2203704,"name":"On or near Supermarket"},"longitude":"0.281587"},"context":"","outcome_status":{"category":"Investigation complete; no suspect identified","date":"2025-05"},"persistent_id":"35f9c76a05c96bdcb3658cc1deff4996e40164f070ec4ed5aad63f840edc7e22","id":128129942,"location_subtype":"","month":"2025-05"},{"category":"violent-crime","location_type":"Force","location":{"latitude":"50.781643","street":{"id":2203981,"name":"On or near The Sidings"},"longitude":"0.294612"},"context":"","outcome_status":{"category":"Status update unavailable","date":"2025-09"},"persistent_id":"124f63c971a58cefba0ccf9c0e38f2276e9a3e7464c79e662ec4481775fb5c15","id":129628029,"location_subtype":"","month":"2025-05"},{"category":"violent-crime","location_type":"Force","location":{"latitude":"50.785320","street":{"id":2203403,"name":"On or near Petrol Station"},"longitude":"0.267523"},"context":"","outcome_status":{"category":"Investigation complete; no suspect identified","date":"2025-05"},"persistent_id":"4a2a5b6f508f07531b14c46bb61563377508f545cf1fa703bc736fdf77d71348","id":128130291,"location_subtype":"","month":"2025-05"},{"category":"violent-crime","location_type":"Force","location":{"latitude":"50.784272","street":{"id":2204066,"name":"On or near Churchdale Avenue"},"longitude":"0.297649"},"context":"","outcome_status":{"category":"Investigation complete; no suspect identified","date":"2025-05"},"persistent_id":"0ec29ed172909a816bb0ada30de7141793457909df47c53863ea2a29b0de8cb9","id":128130668,"location_subtype":"","month":"2025-05"},{"category":"violent-crime","location_type":"Force","location":{"latitude":"50.782962","street":{"id":2203845,"name":"On or near Willard Close"},"longitude":"0.288817"},"context":"","outcome_status":{"category":"Unable to prosecute suspect","date":"2025-08"},"persistent_id":"2b04c8e3c3cf0612ffcf7321e6cb8ed0f63d938f1c57fcc1f39dd59a89c49dbb","id":128136804,"location_subtype":"","month":"2025-05"},{"category":"violent-crime","location_type":"Force","location":{"latitude":"50.792563","street":{"id":2203645,"name":"On or near Broadwater Way"},"longitude":"0.278474"},"context":"","outcome_status":{"category":"Unable to prosecute suspect","date":"2025-05"},"persistent_id":"2dca4f2abab34b8592d81e58b2a0206bca582a972b424afb5879f483133d927d","id":128136368,"location_subtype":"","month":"2025-05"},{"category":"violent-crime","location_type":"Force","location":{"latitude":"50.782133","street":{"id":2203488,"name":"On or near Weavers Close"},"longitude":"0.271426"},"context":"","outcome_status":{"category":"Investigation complete; no suspect identified","date":"2025-10"},"persistent_id":"2d7c933e20988612ce34e0d194ff3bcfcc99f41fbaa9ac735b70a9d682531274","id":128136365,"location_subtype":"","month":"2025-05"},{"category":"violent-crime","location_type":"Force","location":{"latitude":"50.782050","street":{"id":2204053,"name":"On or near Brydges Close"},"longitude":"0.297682"},"context":"","outcome_status":{"category":"Unable to prosecute suspect","date":"2025-06"},"persistent_id":"63d08a03529138c2a3ab5e48806eb303319f342b021d6ae94acade57f813c417","id":128136384,"location_subtype":"","month":"2025-05"},{"category":"violent-crime","location_type":"Force","location":{"latitude":"50.797234","street":{"id":2203686,"name":"On or near Mountfield Road"},"longitude":"0.280177"},"context":"","outcome_status":{"category":"Unable to prosecute suspect","date":"2025-07"},"persistent_id":"34862f0e6afc4ad348f7082210f4cc1952730da36cae989049ed886d05fad69b","id":128136369,"location_subtype":"","month":"2025-05"},{"category":"violent-crime","location_type":"Force","location":{"latitude":"50.784048","street":{"id":2203898,"name":"On or near Bridgemere Road"},"longitude":"0.291225"},"context":"","outcome_status":{"category":"Unable to prosecute suspect","date":"2025-08"},"persistent_id":"9f14d4d976f6f48be1b261899bc99c9b509627537b5e195916cf5432ec795416","id":128134920,"location_subtype":"","month":"2025-05"},{"category":"violent-crime","location_type":"Force","location":{"latitude":"50.782133","street":{"id":2203488,"name":"On or near Weavers Close"},"longitude":"0.271426"},"context":"","outcome_status":{"category":"Unable to prosecute suspect","date":"2025-07"},"persistent_id":"4e523293698e405cca14885bd539d730ff07462c0615eb26fd0fa326b359306c","id":128134909,"location_subtype":"","month":"2025-05"},{"category":"violent-crime","location_type":"Force","location":{"latitude":"50.783802","street":{"id":2204146,"name":"On or near Southbourne Road"},"longitude":"0.301400"},"context":"","outcome_status":{"category":"Local resolution","date":"2025-05"},"persistent_id":"53b01b874ac60bf1c5f2a677c4f6de89e3acc7ad7a83d2a953a83c730443f9f4","id":128135279,"location_subtype":"","month":"2025-05"},{"category":"violent-crime","location_type":"Force","location":{"latitude":"50.796692","street":{"id":2203771,"name":"On or near Supermarket"},"longitude":"0.284862"},"context":"","outcome_status":{"category":"Status update unavailable","date":"2025-09"},"persistent_id":"4f177c128fe0eb677d7952a5cc3061ed36501edf8ead5a4888d974190e6259b5","id":128127950,"location_subtype":"","month":"2025-05"},{"category":"violent-crime","location_type":"Force","location":{"latitude":"50.782133","street":{"id":2203488,"name":"On or near Weavers Close"},"longitude":"0.271426"},"context":"","outcome_status":{"category":"Unable to prosecute suspect","date":"2025-07"},"persistent_id":"9142e6cdd341ff94af6333f3e9d5d0e770ea938e68cb9f546ea9b1b73f5eed17","id":128135262,"location_subtype":"","month":"2025-05"},{"category":"violent-crime","location_type":"Force","location":{"latitude":"50.786969","street":{"id":2203448,"name":"On or near Hospital"},"longitude":"0.271108"},"context":"","outcome_status":{"category":"Status update unavailable","date":"2025-09"},"persistent_id":"ea66843004a3d41c9b6af399755560df745958b94656456a5c810d42e41365c9","id":128135263,"location_subtype":"","month":"2025-05"},{"category":"violent-crime","location_type":"Force","location":{"latitude":"50.787841","street":{"id":2204024,"name":"On or near Police Station"},"longitude":"0.297725"},"context":"","outcome_status":{"category":"Unable to prosecute suspect","date":"2025-05"},"persistent_id":"57d0f99a02ab9b16d1d65b21ec955e12e51e75a0988781819184bd2224da4ba4","id":128131081,"location_subtype":"","month":"2025-05"},{"category":"violent-crime","location_type":"Force","location":{"latitude":"50.797234","street":{"id":2203686,"name":"On or near Mountfield Road"},"longitude":"0.280177"},"context":"","outcome_status":{"category":"Unable to prosecute suspect","date":"2025-08"},"persistent_id":"9d7c64f92023270462c984e56c1101af6effb35aad2a7a5d171f64cf843bff01","id":128136801,"location_subtype":"","month":"2025-05"},{"category":"violent-crime","location_type":"Force","location":{"latitude":"50.797234","street":{"id":2203686,"name":"On or near Mountfield Road"},"longitude":"0.280177"},"context":"","outcome_status":{"category":"Unable to prosecute suspect","date":"2025-06"},"persistent_id":"9a93c58795e09bd5942c60e0557d30e0756d82e9b5b4c9b6edd3217763dc6659","id":128134471,"location_subtype":"","month":"2025-05"},{"category":"violent-crime","location_type":"Force","location":{"latitude":"50.781054","street":{"id":2204119,"name":"On or near Supermarket"},"longitude":"0.300988"},"context":"","outcome_status":{"category":"Investigation complete; no suspect identified","date":"2025-08"},"persistent_id":"82e3554d2f8f909fa9b2ae43853f2aa2ba1479d9b3d472b2940bd50859c98560","id":128136820,"location_subtype":"","month":"2025-05"},{"category":"violent-crime","location_type":"Force","location":{"latitude":"50.801798","street":{"id":2203499,"name":"On or near Henfield Road"},"longitude":"0.271216"},"context":"","outcome_status":{"category":"Unable to prosecute suspect","date":"2025-12"},"persistent_id":"ee7ab916b0edf1cadf24c526e167db4320729c6124336d7e1cda9342421dcbb3","id":128134467,"location_subtype":"","month":"2025-05"},{"category":"violent-crime","location_type":"Force","location":{"latitude":"50.782133","street":{"id":2203488,"name":"On or near Weavers Close"},"longitude":"0.271426"},"context":"","outcome_status":{"category":"Investigation complete; no suspect identified","date":"2025-05"},"persistent_id":"2fe35ccc81023f4e55ecaae1ad4c4537d55c4da96f6780781c4a3c59ee94bf1a","id":128134057,"location_subtype":"","month":"2025-05"},{"category":"violent-crime","location_type":"Force","location":{"latitude":"50.787362","street":{"id":2203958,"name":"On or near Collier Close"},"longitude":"0.293729"},"context":"","outcome_status":{"category":"Further investigation is not in the public interest","date":"2025-10"},"persistent_id":"c9257a3567726af020ecd9431bbd6a5055620b1e1356482f064f83ec48233285","id":128137168,"location_subtype":"","month":"2025-05"},{"category":"violent-crime","location_type":"Force","location":{"latitude":"50.787893","street":{"id":2204212,"name":"On or near Maple Road"},"longitude":"0.306028"},"context":"","outcome_status":{"category":"Unable to prosecute suspect","date":"2025-05"},"persistent_id":"f03689a2392c2db141d4c8f3cacf40822d048bc0ad45019c00e60b8e49cf6839","id":128133592,"location_subtype":"","month":"2025-05"},{"category":"violent-crime","location_type":"Force","location":{"latitude":"50.776720","street":{"id":2203685,"name":"On or near Lewes Road"},"longitude":"0.281448"},"context":"","outcome_status":{"category":"Investigation complete; no suspect identified","date":"2025-05"},"persistent_id":"d3f42d8e97df68830e8c7c233ca4c34ef96da598ff1b8b5c98f87833088852d8","id":128131496,"location_subtype":"","month":"2025-05"},{"category":"violent-crime","location_type":"Force","location":{"latitude":"50.795276","street":{"id":2203656,"name":"On or near Mallard Close"},"longitude":"0.279571"},"context":"","outcome_status":{"category":"Unable to prosecute suspect","date":"2025-06"},"persistent_id":"37dbafdad4de9913fa9edc8465808341f20e5948d38ae732fe5978f150fe40fa","id":128133199,"location_subtype":"","month":"2025-05"},{"category":"violent-crime","location_type":"Force","location":{"latitude":"50.790471","street":{"id":2203994,"name":"On or near Lottbridge Drove"},"longitude":"0.297073"},"context":"","outcome_status":{"category":"Court result unavailable","date":"2025-12"},"persistent_id":"f8fb5f1e27801f640d5c014c0e97609d9bde87c3756bd07e9f470eb77deb7abd","id":128132825,"location_subtype":"","month":"2025-05"},{"category":"violent-crime","location_type":"Force","location":{"latitude":"50.795917","street":{"id":2203258,"name":"On or near Stanmer Drive"},"longitude":"0.263282"},"context":"","outcome_status":{"category":"Unable to prosecute suspect","date":"2025-05"},"persistent_id":"48e5e6fca3953ed9d8018b77b0cc1419cfd3d8fbac4d7b1fc8b1a213953f6a64","id":128132800,"location_subtype":"","month":"2025-05"},{"category":"violent-crime","location_type":"Force","location":{"latitude":"50.800427","street":{"id":2203801,"name":"On or near Fletching Road"},"longitude":"0.286605"},"context":"","outcome_status":{"category":"Unable to prosecute suspect","date":"2025-06"},"persistent_id":"e853848531288b24f57860db260a0116d44f16a8f8cb8d0dbaf5dd3ceb22ef61","id":128132813,"location_subtype":"","month":"2025-05"},{"category":"violent-crime","location_type":"Force","location":{"latitude":"50.797234","street":{"id":2203686,"name":"On or near Mountfield Road"},"longitude":"0.280177"},"context":"","outcome_status":{"category":"Unable to prosecute suspect","date":"2025-08"},"persistent_id":"8f8a581c261d567efda95bca0038b4f3f0c8dafa21e9e36be2286330bfad9463","id":128132805,"location_subtype":"","month":"2025-05"},{"category":"violent-crime","location_type":"Force","location":{"latitude":"50.795276","street":{"id":2203656,"name":"On or near Mallard Close"},"longitude":"0.279571"},"context":"","outcome_status":{"category":"Unable to prosecute suspect","date":"2025-07"},"persistent_id":"6a6835d6027733b2b37126dbe55ea4d766906b5ff03d44a054a5ed11910e4caf","id":128132410,"location_subtype":"","month":"2025-05"},{"category":"violent-crime","location_type":"Force","location":{"latitude":"50.781643","street":{"id":2203981,"name":"On or near The Sidings"},"longitude":"0.294612"},"context":"","outcome_status":{"category":"Investigation complete; no suspect identified","date":"2025-06"},"persistent_id":"fa2b37d8fefd8fcfc95d7a4caad6de03d3781ef6d175a8b6b4d6472db12e4c26","id":128134478,"location_subtype":"","month":"2025-05"},{"category":"violent-crime","location_type":"Force","location":{"latitude":"50.801533","street":{"id":2203705,"name":"On or near Kingston Road"},"longitude":"0.280641"},"context":"","outcome_status":{"category":"Investigation complete; no suspect identified","date":"2025-05"},"persistent_id":"ffe971b8d3ae9c918dd803fd787fbf867b380e81fc9a45df03598c835f321b4a","id":128135266,"location_subtype":"","month":"2025-05"},{"category":"violent-crime","location_type":"Force","location":{"latitude":"50.799419","street":{"id":2203820,"name":"On or near Ashington Road"},"longitude":"0.287095"},"context":"","outcome_status":{"category":"Status update unavailable","date":"2025-09"},"persistent_id":"8babfe9cdf274954960931de50444239fcea4166c0244a8f61b52ac6c6006c65","id":128131972,"location_subtype":"","month":"2025-05"},{"category":"violent-crime","location_type":"Force","location":{"latitude":"50.802495","street":{"id":2203781,"name":"On or near Otham Road"},"longitude":"0.285258"},"context":"","outcome_status":{"category":"Unable to prosecute suspect","date":"2025-07"},"persistent_id":"a12fa58d4ae15943f2008f7d6a9cc9a9c6c4b4e02f67ca5e126077c3e170249a","id":128131968,"location_subtype":"","month":"2025-05"},{"category":"violent-crime","location_type":"Force","location":{"latitude":"50.782133","street":{"id":2203488,"name":"On or near Weavers Close"},"longitude":"0.271426"},"context":"","outcome_status":{"category":"Unable to prosecute suspect","date":"2025-07"},"persistent_id":"dfe77bd15218c8dbbfd493ef3375a5467cf8f4c48ceff2b04da2be6f8da085c1","id":128131958,"location_subtype":"","month":"2025-05"},{"category":"violent-crime","location_type":"Force","location":{"latitude":"50.786969","street":{"id":2203448,"name":"On or near Hospital"},"longitude":"0.271108"},"context":"","outcome_status":{"category":"Unable to prosecute suspect","date":"2025-05"},"persistent_id":"9079ba070168ee65f8ff8f4776e162ccc2aa56c93c624c2c9989903b1dce8983","id":128131955,"location_subtype":"","month":"2025-05"},{"category":"violent-crime","location_type":"Force","location":{"latitude":"50.802296","street":{"id":2203639,"name":"On or near The Paddock"},"longitude":"0.278848"},"context":"","outcome_status":{"category":"Unable to prosecute suspect","date":"2025-07"},"persistent_id":"67ff5eb0db50def9e35b6605871954e093fa17f42fa4310c1dae1a56a72db16c","id":128131493,"location_subtype":"","month":"2025-05"},{"category":"violent-crime","location_type":"Force","location":{"latitude":"50.796575","street":{"id":2203822,"name":"On or near Whittle Drive"},"longitude":"0.289014"},"context":"","outcome_status":{"category":"Offender given a caution","date":"2025-06"},"persistent_id":"963f442c33e166bbf9ea2977abd3294891e769166c1fac925c406043a67ae80e","id":128138309,"location_subtype":"","month":"2025-05"},{"category":"violent-crime","location_type":"Force","location":{"latitude":"50.798163","street":{"id":2203677,"name":"On or near Hampden Avenue"},"longitude":"0.280037"},"context":"","outcome_status":{"category":"Unable to prosecute suspect","date":"2025-09"},"persistent_id":"e02768ab0f3ca0489a56d3a0d4edb324a8f987ab8e5043d9e1f5375ac91ebfa4","id":128131062,"location_subtype":"","month":"2025-05"},{"category":"violent-crime","location_type":"Force","location":{"latitude":"50.788909","street":{"id":2203501,"name":"On or near Further/higher Educational Building"},"longitude":"0.272124"},"context":"","outcome_status":{"category":"Unable to prosecute suspect","date":"2025-07"},"persistent_id":"71f104c1c2cee6e09c8ea4bbfba74a57017c1dfa222398ef9e14fbb574ed3c32","id":128138295,"location_subtype":"","month":"2025-05"},{"category":"violent-crime","location_type":"Force","location":{"latitude":"50.796692","street":{"id":2203771,"name":"On or near Supermarket"},"longitude":"0.284862"},"context":"","outcome_status":{"category":"Further action is not in the public interest","date":"2025-10"},"persistent_id":"d7c1263ceccfaa2be7b959c6fc2115fa25ea70c51a4bcbda6ce7bb9b6b9b5c49","id":128130658,"location_subtype":"","month":"2025-05"},{"category":"violent-crime","location_type":"Force","location":{"latitude":"50.790471","street":{"id":2203994,"name":"On or near Lottbridge Drove"},"longitude":"0.297073"},"context":"","outcome_status":{"category":"Court result unavailable","date":"2026-01"},"persistent_id":"6bb1f96d8c60311e7f35a98ae5715dc48d7448c981e9e566abce29a605d1ffc7","id":128130313,"location_subtype":"","month":"2025-05"},{"category":"violent-crime","location_type":"Force","location":{"latitude":"50.784272","street":{"id":2204066,"name":"On or near Churchdale Avenue"},"longitude":"0.297649"},"context":"","outcome_status":{"category":"Status update unavailable","date":"2025-09"},"persistent_id":"c31d660d7d8828158aa2bffb9ec33051de4cd2afc55564558a40608cec1935fd","id":128130315,"location_subtype":"","month":"2025-05"},{"category":"violent-crime","location_type":"Force","location":{"latitude":"50.786969","street":{"id":2203448,"name":"On or near Hospital"},"longitude":"0.271108"},"context":"","outcome_status":{"category":"Unable to prosecute suspect","date":"2025-07"},"persistent_id":"7582ba042bcedf808cb2c63ec86c4b5cb050f6f29b03668976fa8ff256aa57ae","id":128129599,"location_subtype":"","month":"2025-05"},{"category":"violent-crime","location_type":"Force","location":{"latitude":"50.780182","street":{"id":2204108,"name":"On or near Chandlers Mews"},"longitude":"0.299818"},"context":"","outcome_status":{"category":"Unable to prosecute suspect","date":"2025-06"},"persistent_id":"8b371c21c82448280d139b408334b83eb49f99429a2ddcd0c20667ce05930182","id":128129242,"location_subtype":"","month":"2025-05"},{"category":"violent-crime","location_type":"Force","location":{"latitude":"50.792399","street":{"id":2203286,"name":"On or near Regents Place"},"longitude":"0.265652"},"context":"","outcome_status":{"category":"Investigation complete; no suspect identified","date":"2025-05"},"persistent_id":"d54860a4103b9dc4ac59b94f25319113e8238a88f6d94f6e912f833ae5f89279","id":128133186,"location_subtype":"","month":"2025-05"},{"category":"violent-crime","location_type":"Force","location":{"latitude":"50.786969","street":{"id":2203448,"name":"On or near Hospital"},"longitude":"0.271108"},"context":"","outcome_status":{"category":"Unable to prosecute suspect","date":"2025-06"},"persistent_id":"5d8431302800983688e34929efd596211b5e8cf8926e0cfa5a64e3a9ebcda2a7","id":128129216,"location_subtype":"","month":"2025-05"},{"category":"violent-crime","location_type":"Force","location":{"latitude":"50.800427","street":{"id":2203801,"name":"On or near Fletching Road"},"longitude":"0.286605"},"context":"","outcome_status":{"category":"Unable to prosecute suspect","date":"2025-06"},"persistent_id":"4f2cbe034a54ff3048818e4518f15f89f7a88733767e0b9dde40bfb3706688de","id":128129226,"location_subtype":"","month":"2025-05"},{"category":"violent-crime","location_type":"Force","location":{"latitude":"50.786969","street":{"id":2203448,"name":"On or near Hospital"},"longitude":"0.271108"},"context":"","outcome_status":{"category":"Unable to prosecute suspect","date":"2025-06"},"persistent_id":"50f6d292cee9228884fa02949d7b48dbca214383e55bc0a64bab8bd57ac62719","id":128128769,"location_subtype":"","month":"2025-05"},{"category":"violent-crime","location_type":"Force","location":{"latitude":"50.786969","street":{"id":2203448,"name":"On or near Hospital"},"longitude":"0.271108"},"context":"","outcome_status":{"category":"Court result unavailable","date":"2025-12"},"persistent_id":"492d1c48b57c49f72f5d465d6359a70a37a57cda07565188e83abb7947721cd8","id":128128772,"location_subtype":"","month":"2025-05"},{"category":"violent-crime","location_type":"Force","location":{"latitude":"50.799419","street":{"id":2203818,"name":"On or near Lakelands Close"},"longitude":"0.287975"},"context":"","outcome_status":{"category":"Unable to prosecute suspect","date":"2025-12"},"persistent_id":"b543db7eb804f9403ff00dfd96369deb45bc86d55694686e1d84744b19025e1b","id":128138308,"location_subtype":"","month":"2025-05"},{"category":"violent-crime","location_type":"Force","location":{"latitude":"50.796692","street":{"id":2203771,"name":"On or near Supermarket"},"longitude":"0.284862"},"context":"","outcome_status":{"category":"Further action is not in the public interest","date":"2025-10"},"persistent_id":"120021ea6d7c8cf6a46d91c59ffd063a3ebc65d9251bf7304690ff68c1ab0bc8","id":128128779,"location_subtype":"","month":"2025-05"},{"category":"violent-crime","location_type":"Force","location":{"latitude":"50.796692","street":{"id":2203771,"name":"On or near Supermarket"},"longitude":"0.284862"},"context":"","outcome_status":{"category":"Status update unavailable","date":"2025-09"},"persistent_id":"742b99acde04624b64aceffad64824ebaa11ffeb5828b1cad1d80cc69182e746","id":128128780,"location_subtype":"","month":"2025-05"},{"category":"violent-crime","location_type":"Force","location":{"latitude":"50.797031","street":{"id":2203528,"name":"On or near Nevill Avenue"},"longitude":"0.273029"},"context":"","outcome_status":{"category":"Unable to prosecute suspect","date":"2025-06"},"persistent_id":"e3ddcffd717b08c83be9275cb7e9678268deb245bc94c85a2930c8c17a574295","id":128127612,"location_subtype":"","month":"2025-05"},{"category":"violent-crime","location_type":"Force","location":{"latitude":"50.780668","street":{"id":2204070,"name":"On or near Roselands Avenue"},"longitude":"0.297997"},"context":"","outcome_status":{"category":"Court result unavailable","date":"2025-12"},"persistent_id":"9a4a1f647b35145b35d442d5a02374e36e69c30d54515ab9bbd9b0230370d0ef","id":128137575,"location_subtype":"","month":"2025-05"},{"category":"violent-crime","location_type":"Force","location":{"latitude":"50.782709","street":{"id":2204131,"name":"On or near Willoughby Crescent"},"longitude":"0.301672"},"context":"","outcome_status":{"category":"Unable to prosecute suspect","date":"2025-11"},"persistent_id":"70b3616ca0c6cde07fdffac599cff98afd0d842d0c348591e1e503480bb1e78b","id":128127253,"location_subtype":"","month":"2025-05"},{"category":"violent-crime","location_type":"Force","location":{"latitude":"50.798620","street":{"id":2203791,"name":"On or near Penhurst Close"},"longitude":"0.286517"},"context":"","outcome_status":{"category":"Investigation complete; no suspect identified","date":"2025-09"},"persistent_id":"f8ab88daba4f83c45ddee2a175012acffade575c5c2ced7adc16357a6dd640e5","id":128136373,"location_subtype":"","month":"2025-05"},{"category":"violent-crime","location_type":"Force","location":{"latitude":"50.802295","street":{"id":2203766,"name":"On or near Iden Street"},"longitude":"0.284425"},"context":"","outcome_status":{"category":"Unable to prosecute suspect","date":"2025-07"},"persistent_id":"4da02eb76da5ff4b19b9e2b446b1057a2d6ccf4853bab5a10a98c475d9355c16","id":128126891,"location_subtype":"","month":"2025-05"},{"category":"violent-crime","location_type":"Force","location":{"latitude":"50.786969","street":{"id":2203448,"name":"On or near Hospital"},"longitude":"0.271108"},"context":"","outcome_status":{"category":"Unable to prosecute suspect","date":"2025-05"},"persistent_id":"6aaa7225ec97462131b5c54ded3656fe1578ca6671f333c003c222385949fbcb","id":128131956,"location_subtype":"","month":"2025-05"},{"category":"violent-crime","location_type":"Force","location":{"latitude":"50.795917","street":{"id":2203258,"name":"On or near Stanmer Drive"},"longitude":"0.263282"},"context":"","outcome_status":{"category":"Unable to prosecute suspect","date":"2025-05"},"persistent_id":"6d689f6c311d5904f071fa0e2fdf81b5e5534b5511ddd16c310fce29494b0150","id":128128764,"location_subtype":"","month":"2025-05"},{"category":"violent-crime","location_type":"Force","location":{"latitude":"50.786969","street":{"id":2203448,"name":"On or near Hospital"},"longitude":"0.271108"},"context":"","outcome_status":{"category":"Court result unavailable","date":"2025-11"},"persistent_id":"f44977a853a1b7c2ad50e7c7d15d69f5f8e2b8e26ce42545ea87355e0224bea8","id":128128774,"location_subtype":"","month":"2025-05"},{"category":"violent-crime","location_type":"Force","location":{"latitude":"50.788909","street":{"id":2203501,"name":"On or near Further/higher Educational Building"},"longitude":"0.272124"},"context":"","outcome_status":{"category":"Investigation complete; no suspect identified","date":"2025-05"},"persistent_id":"b4d900bf3fa85cde39c820bed8fbd78d35c56babafcf959f3f46922a11aed358","id":128126883,"location_subtype":"","month":"2025-05"},{"category":"violent-crime","location_type":"Force","location":{"latitude":"50.798298","street":{"id":2203582,"name":"On or near Glynde Avenue"},"longitude":"0.275403"},"context":"","outcome_status":{"category":"Investigation complete; no suspect identified","date":"2025-05"},"persistent_id":"52be523b33d86c0c3d7d4f23993e6d5a6c88591b895169b870236010380faef7","id":128126884,"location_subtype":"","month":"2025-05"},{"category":"violent-crime","location_type":"Force","location":{"latitude":"50.801205","street":{"id":2203573,"name":"On or near Petworth Place"},"longitude":"0.273955"},"context":"","outcome_status":{"category":"Unable to prosecute suspect","date":"2025-05"},"persistent_id":"4efe7231e86c8dd220992303532e8eb61d618423cf16913f5ef3221c342b486a","id":128136032,"location_subtype":"","month":"2025-05"},{"category":"violent-crime","location_type":"Force","location":{"latitude":"50.795890","street":{"id":2203661,"name":"On or near Parking Area"},"longitude":"0.279430"},"context":"","outcome_status":{"category":"Investigation complete; no suspect identified","date":"2025-05"},"persistent_id":"07ea94b2fdffd80dbb38bf9d8d95e9cc8e8af1574f42d0f159fbfc82fb2e584e","id":128135678,"location_subtype":"","month":"2025-05"},{"category":"violent-crime","location_type":"Force","location":{"latitude":"50.800946","street":{"id":2203776,"name":"On or near Manor Road"},"longitude":"0.284871"},"context":"","outcome_status":{"category":"Investigation complete; no suspect identified","date":"2025-05"},"persistent_id":"a85bc5c1ef2b33839fdacb88fccdc3df4f00ec4662d0e51de8f94c4484ee4f5c","id":128135684,"location_subtype":"","month":"2025-05"},{"category":"violent-crime","location_type":"Force","location":{"latitude":"50.790471","street":{"id":2203994,"name":"On or near Lottbridge Drove"},"longitude":"0.297073"},"context":"","outcome_status":{"category":"Awaiting court outcome","date":"2025-10"},"persistent_id":"11ae911904a465269fb54380e81b4d31bd8b2263596fcab33a951c2bd64045b2","id":128134926,"location_subtype":"","month":"2025-05"},{"category":"violent-crime","location_type":"Force","location":{"latitude":"50.787362","street":{"id":2203958,"name":"On or near Collier Close"},"longitude":"0.293729"},"context":"","outcome_status":{"category":"Unable to prosecute suspect","date":"2025-06"},"persistent_id":"ba5a332f97321dbe10aa740ecc87d3ca526446d647d8aa2638fe1e3fc29f648a","id":128134923,"location_subtype":"","month":"2025-05"},{"category":"violent-crime","location_type":"Force","location":{"latitude":"50.795276","street":{"id":2203656,"name":"On or near Mallard Close"},"longitude":"0.279571"},"context":"","outcome_status":{"category":"Investigation complete; no suspect identified","date":"2025-05"},"persistent_id":"309d8a3352d7b9b11edff8975f812c9e159448d10378fd32c0e532997ceaf573","id":128131061,"location_subtype":"","month":"2025-05"},{"category":"other-crime","location_type":"Force","location":{"latitude":"50.783785","street":{"id":2204092,"name":"On or near Ecmod Road"},"longitude":"0.299569"},"context":"","outcome_status":{"category":"Unable to prosecute suspect","date":"2025-06"},"persistent_id":"1a4751ff5d038cbb9f8fc2e234b2c44b464690ebcde199dbae0f640a4b6425a0","id":128131514,"location_subtype":"","month":"2025-05"},{"category":"other-crime","location_type":"Force","location":{"latitude":"50.783785","street":{"id":2204092,"name":"On or near Ecmod Road"},"longitude":"0.299569"},"context":"","outcome_status":{"category":"Investigation complete; no suspect identified","date":"2025-05"},"persistent_id":"36b58af7adf844c3a58ca32a4cef7979024fec60bdcec217b8af4862fe1d8e73","id":128134928,"location_subtype":"","month":"2025-05"},{"category":"other-crime","location_type":"Force","location":{"latitude":"50.802495","street":{"id":2203781,"name":"On or near Otham Road"},"longitude":"0.285258"},"context":"","outcome_status":{"category":"Status update unavailable","date":"2025-09"},"persistent_id":"6f656993062cc52194a4ae8a3e0323958b0d74a0f94729eb4bd8123e636eb0a2","id":128137564,"location_subtype":"","month":"2025-05"},{"category":"other-crime","location_type":"Force","location":{"latitude":"50.799932","street":{"id":2203529,"name":"On or near Binsted Close"},"longitude":"0.271410"},"context":"","outcome_status":{"category":"Status update unavailable","date":"2025-09"},"persistent_id":"1fa355de155c350fb72ab19fb0cf70c83b1e29f16c6dbe29d6a9bbf073bebdbc","id":128132407,"location_subtype":"","month":"2025-05"},{"category":"other-crime","location_type":"Force","location":{"latitude":"50.781054","street":{"id":2204119,"name":"On or near Supermarket"},"longitude":"0.300988"},"context":"","outcome_status":{"category":"Investigation complete; no suspect identified","date":"2025-05"},"persistent_id":"5b3d05088bb8ab96bfdd129da88d3d64fe6fa3368151cf22abefba764dbf97c7","id":128127975,"location_subtype":"","month":"2025-05"},{"category":"other-crime","location_type":"Force","location":{"latitude":"50.780172","street":{"id":2203961,"name":"On or near St Philip's Avenue"},"longitude":"0.293958"},"context":"","outcome_status":{"category":"Unable to prosecute suspect","date":"2025-07"},"persistent_id":"391c1f3ea62a59295648d52271fe14c515ec2f67e16263b1058a13173e132dbf","id":128136049,"location_subtype":"","month":"2025-05"}]