[{"category":"anti-social-behaviour","location_type":"Force","location":{"latitude":"51.405758","street":{"id":1697573,"name":"On or near Market Square"},"longitude":"0.015169"},"context":"","outcome_status":null,"persistent_id":"","id":130295617,"location_subtype":"","month":"2025-07"},{"category":"anti-social-behaviour","location_type":"Force","location":{"latitude":"51.411342","street":{"id":1697473,"name":"On or near Supermarket"},"longitude":"0.014177"},"context":"","outcome_status":null,"persistent_id":"","id":130298434,"location_subtype":"","month":"2025-07"},{"category":"anti-social-behaviour","location_type":"Force","location":{"latitude":"51.402295","street":{"id":1697803,"name":"On or near Parking Area"},"longitude":"0.017346"},"context":"","outcome_status":null,"persistent_id":"","id":130299086,"location_subtype":"","month":"2025-07"},{"category":"anti-social-behaviour","location_type":"Force","location":{"latitude":"51.402295","street":{"id":1697803,"name":"On or near Parking Area"},"longitude":"0.017346"},"context":"","outcome_status":null,"persistent_id":"","id":130301917,"location_subtype":"","month":"2025-07"},{"category":"anti-social-behaviour","location_type":"Force","location":{"latitude":"51.407676","street":{"id":1699056,"name":"On or near Plaxtol Close"},"longitude":"0.030150"},"context":"","outcome_status":null,"persistent_id":"","id":130294665,"location_subtype":"","month":"2025-07"},{"category":"anti-social-behaviour","location_type":"Force","location":{"latitude":"51.402774","street":{"id":1697595,"name":"On or near Parking Area"},"longitude":"0.014577"},"context":"","outcome_status":null,"persistent_id":"","id":130294573,"location_subtype":"","month":"2025-07"},{"category":"anti-social-behaviour","location_type":"Force","location":{"latitude":"51.423545","street":{"id":1696624,"name":"On or near Wittersham Road"},"longitude":"0.007392"},"context":"","outcome_status":null,"persistent_id":"","id":130292929,"location_subtype":"","month":"2025-07"},{"category":"anti-social-behaviour","location_type":"Force","location":{"latitude":"51.424582","street":{"id":1697451,"name":"On or near Hillcrest Road"},"longitude":"0.015076"},"context":"","outcome_status":null,"persistent_id":"","id":130292379,"location_subtype":"","month":"2025-07"},{"category":"anti-social-behaviour","location_type":"Force","location":{"latitude":"51.419387","street":{"id":1697940,"name":"On or near Gladwell Road"},"longitude":"0.018544"},"context":"","outcome_status":null,"persistent_id":"","id":130305348,"location_subtype":"","month":"2025-07"},{"category":"anti-social-behaviour","location_type":"Force","location":{"latitude":"51.424673","street":{"id":1698878,"name":"On or near Leamington Close"},"longitude":"0.028587"},"context":"","outcome_status":null,"persistent_id":"","id":130292315,"location_subtype":"","month":"2025-07"},{"category":"anti-social-behaviour","location_type":"Force","location":{"latitude":"51.414231","street":{"id":1697706,"name":"On or near Paxton Road"},"longitude":"0.017166"},"context":"","outcome_status":null,"persistent_id":"","id":130288662,"location_subtype":"","month":"2025-07"},{"category":"anti-social-behaviour","location_type":"Force","location":{"latitude":"51.424582","street":{"id":1697451,"name":"On or near Hillcrest Road"},"longitude":"0.015076"},"context":"","outcome_status":null,"persistent_id":"","id":130288669,"location_subtype":"","month":"2025-07"},{"category":"anti-social-behaviour","location_type":"Force","location":{"latitude":"51.423631","street":{"id":1697210,"name":"On or near Pontefract Road"},"longitude":"0.011294"},"context":"","outcome_status":null,"persistent_id":"","id":130288847,"location_subtype":"","month":"2025-07"},{"category":"anti-social-behaviour","location_type":"Force","location":{"latitude":"51.414231","street":{"id":1697706,"name":"On or near Paxton Road"},"longitude":"0.017166"},"context":"","outcome_status":null,"persistent_id":"","id":130288924,"location_subtype":"","month":"2025-07"},{"category":"anti-social-behaviour","location_type":"Force","location":{"latitude":"51.402774","street":{"id":1697595,"name":"On or near Parking Area"},"longitude":"0.014577"},"context":"","outcome_status":null,"persistent_id":"","id":130288964,"location_subtype":"","month":"2025-07"},{"category":"anti-social-behaviour","location_type":"Force","location":{"latitude":"51.405758","street":{"id":1697573,"name":"On or near Market Square"},"longitude":"0.015169"},"context":"","outcome_status":null,"persistent_id":"","id":130289085,"location_subtype":"","month":"2025-07"},{"category":"anti-social-behaviour","location_type":"Force","location":{"latitude":"51.424582","street":{"id":1697451,"name":"On or near Hillcrest Road"},"longitude":"0.015076"},"context":"","outcome_status":null,"persistent_id":"","id":130289312,"location_subtype":"","month":"2025-07"},{"category":"anti-social-behaviour","location_type":"Force","location":{"latitude":"51.423726","street":{"id":1698493,"name":"On or near Oak Tree Gardens"},"longitude":"0.026114"},"context":"","outcome_status":null,"persistent_id":"","id":130289635,"location_subtype":"","month":"2025-07"},{"category":"anti-social-behaviour","location_type":"Force","location":{"latitude":"51.406485","street":{"id":1697418,"name":"On or near Walters Yard"},"longitude":"0.013734"},"context":"","outcome_status":null,"persistent_id":"","id":130289647,"location_subtype":"","month":"2025-07"},{"category":"anti-social-behaviour","location_type":"Force","location":{"latitude":"51.406485","street":{"id":1697418,"name":"On or near Walters Yard"},"longitude":"0.013734"},"context":"","outcome_status":null,"persistent_id":"","id":130289648,"location_subtype":"","month":"2025-07"},{"category":"anti-social-behaviour","location_type":"Force","location":{"latitude":"51.413593","street":{"id":1697140,"name":"On or near Heathfield Road"},"longitude":"0.010365"},"context":"","outcome_status":null,"persistent_id":"","id":130289758,"location_subtype":"","month":"2025-07"},{"category":"anti-social-behaviour","location_type":"Force","location":{"latitude":"51.402774","street":{"id":1697595,"name":"On or near Parking Area"},"longitude":"0.014577"},"context":"","outcome_status":null,"persistent_id":"","id":130290073,"location_subtype":"","month":"2025-07"},{"category":"anti-social-behaviour","location_type":"Force","location":{"latitude":"51.407777","street":{"id":1697785,"name":"On or near Newman Road"},"longitude":"0.018061"},"context":"","outcome_status":null,"persistent_id":"","id":130290483,"location_subtype":"","month":"2025-07"},{"category":"anti-social-behaviour","location_type":"Force","location":{"latitude":"51.414231","street":{"id":1697706,"name":"On or near Paxton Road"},"longitude":"0.017166"},"context":"","outcome_status":null,"persistent_id":"","id":130290567,"location_subtype":"","month":"2025-07"},{"category":"anti-social-behaviour","location_type":"Force","location":{"latitude":"51.406895","street":{"id":1698731,"name":"On or near Widmore Road"},"longitude":"0.026449"},"context":"","outcome_status":null,"persistent_id":"","id":130293346,"location_subtype":"","month":"2025-07"},{"category":"anti-social-behaviour","location_type":"Force","location":{"latitude":"51.414254","street":{"id":1698031,"name":"On or near Plaistow Grove"},"longitude":"0.019511"},"context":"","outcome_status":null,"persistent_id":"","id":130290870,"location_subtype":"","month":"2025-07"},{"category":"anti-social-behaviour","location_type":"Force","location":{"latitude":"51.399233","street":{"id":1697522,"name":"On or near Simpson's Road"},"longitude":"0.015471"},"context":"","outcome_status":null,"persistent_id":"","id":130295643,"location_subtype":"","month":"2025-07"},{"category":"anti-social-behaviour","location_type":"Force","location":{"latitude":"51.420090","street":{"id":1696953,"name":"On or near Alexandra Crescent"},"longitude":"0.008564"},"context":"","outcome_status":null,"persistent_id":"","id":130295063,"location_subtype":"","month":"2025-07"},{"category":"anti-social-behaviour","location_type":"Force","location":{"latitude":"51.397625","street":{"id":1698164,"name":"On or near Masons Hill"},"longitude":"0.021640"},"context":"","outcome_status":null,"persistent_id":"","id":130305668,"location_subtype":"","month":"2025-07"},{"category":"anti-social-behaviour","location_type":"Force","location":{"latitude":"51.424582","street":{"id":1697451,"name":"On or near Hillcrest Road"},"longitude":"0.015076"},"context":"","outcome_status":null,"persistent_id":"","id":130292126,"location_subtype":"","month":"2025-07"},{"category":"anti-social-behaviour","location_type":"Force","location":{"latitude":"51.419919","street":{"id":1698214,"name":"On or near Milk Street"},"longitude":"0.022667"},"context":"","outcome_status":null,"persistent_id":"","id":130286220,"location_subtype":"","month":"2025-07"},{"category":"anti-social-behaviour","location_type":"Force","location":{"latitude":"51.406485","street":{"id":1697418,"name":"On or near Walters Yard"},"longitude":"0.013734"},"context":"","outcome_status":null,"persistent_id":"","id":130286146,"location_subtype":"","month":"2025-07"},{"category":"anti-social-behaviour","location_type":"Force","location":{"latitude":"51.423484","street":{"id":1697272,"name":"On or near Detling Road"},"longitude":"0.013014"},"context":"","outcome_status":null,"persistent_id":"","id":130305696,"location_subtype":"","month":"2025-07"},{"category":"anti-social-behaviour","location_type":"Force","location":{"latitude":"51.414072","street":{"id":1698218,"name":"On or near Garden Road"},"longitude":"0.022207"},"context":"","outcome_status":null,"persistent_id":"","id":130305865,"location_subtype":"","month":"2025-07"},{"category":"anti-social-behaviour","location_type":"Force","location":{"latitude":"51.407132","street":{"id":1697751,"name":"On or near Nightclub"},"longitude":"0.016365"},"context":"","outcome_status":null,"persistent_id":"","id":130285955,"location_subtype":"","month":"2025-07"},{"category":"anti-social-behaviour","location_type":"Force","location":{"latitude":"51.401626","street":{"id":1696486,"name":"On or near Dykes Way"},"longitude":"0.005498"},"context":"","outcome_status":null,"persistent_id":"","id":130306468,"location_subtype":"","month":"2025-07"},{"category":"anti-social-behaviour","location_type":"Force","location":{"latitude":"51.405758","street":{"id":1697573,"name":"On or near Market Square"},"longitude":"0.015169"},"context":"","outcome_status":null,"persistent_id":"","id":130306205,"location_subtype":"","month":"2025-07"},{"category":"anti-social-behaviour","location_type":"Force","location":{"latitude":"51.402059","street":{"id":1696614,"name":"On or near Hillside Road"},"longitude":"0.005905"},"context":"","outcome_status":null,"persistent_id":"","id":130286266,"location_subtype":"","month":"2025-07"},{"category":"anti-social-behaviour","location_type":"Force","location":{"latitude":"51.400572","street":{"id":1697521,"name":"On or near Ravensbourne Road"},"longitude":"0.014509"},"context":"","outcome_status":null,"persistent_id":"","id":130286489,"location_subtype":"","month":"2025-07"},{"category":"anti-social-behaviour","location_type":"Force","location":{"latitude":"51.405513","street":{"id":1697327,"name":"On or near Edison Road"},"longitude":"0.012182"},"context":"","outcome_status":null,"persistent_id":"","id":130301987,"location_subtype":"","month":"2025-07"},{"category":"anti-social-behaviour","location_type":"Force","location":{"latitude":"51.398935","street":{"id":1697373,"name":"On or near Aylesbury Road"},"longitude":"0.013460"},"context":"","outcome_status":null,"persistent_id":"","id":130291488,"location_subtype":"","month":"2025-07"},{"category":"anti-social-behaviour","location_type":"Force","location":{"latitude":"51.410694","street":{"id":1696916,"name":"On or near Park End"},"longitude":"0.008972"},"context":"","outcome_status":null,"persistent_id":"","id":130286641,"location_subtype":"","month":"2025-07"},{"category":"anti-social-behaviour","location_type":"Force","location":{"latitude":"51.422403","street":{"id":1696929,"name":"On or near Rangefield Road"},"longitude":"0.008407"},"context":"","outcome_status":null,"persistent_id":"","id":130307516,"location_subtype":"","month":"2025-07"},{"category":"anti-social-behaviour","location_type":"Force","location":{"latitude":"51.408989","street":{"id":1697365,"name":"On or near Gordon Way"},"longitude":"0.012952"},"context":"","outcome_status":null,"persistent_id":"","id":130307405,"location_subtype":"","month":"2025-07"},{"category":"anti-social-behaviour","location_type":"Force","location":{"latitude":"51.401626","street":{"id":1696486,"name":"On or near Dykes Way"},"longitude":"0.005498"},"context":"","outcome_status":null,"persistent_id":"","id":130285949,"location_subtype":"","month":"2025-07"},{"category":"anti-social-behaviour","location_type":"Force","location":{"latitude":"51.419387","street":{"id":1697940,"name":"On or near Gladwell Road"},"longitude":"0.018544"},"context":"","outcome_status":null,"persistent_id":"","id":130307373,"location_subtype":"","month":"2025-07"},{"category":"anti-social-behaviour","location_type":"Force","location":{"latitude":"51.414254","street":{"id":1698031,"name":"On or near Plaistow Grove"},"longitude":"0.019511"},"context":"","outcome_status":null,"persistent_id":"","id":130307225,"location_subtype":"","month":"2025-07"},{"category":"anti-social-behaviour","location_type":"Force","location":{"latitude":"51.406959","street":{"id":1696507,"name":"On or near Beckenham Lane"},"longitude":"0.007054"},"context":"","outcome_status":null,"persistent_id":"","id":130304235,"location_subtype":"","month":"2025-07"},{"category":"anti-social-behaviour","location_type":"Force","location":{"latitude":"51.415489","street":{"id":1697833,"name":"On or near Nichol Lane"},"longitude":"0.018300"},"context":"","outcome_status":null,"persistent_id":"","id":130296104,"location_subtype":"","month":"2025-07"},{"category":"anti-social-behaviour","location_type":"Force","location":{"latitude":"51.402059","street":{"id":1696614,"name":"On or near Hillside Road"},"longitude":"0.005905"},"context":"","outcome_status":null,"persistent_id":"","id":130303599,"location_subtype":"","month":"2025-07"},{"category":"anti-social-behaviour","location_type":"Force","location":{"latitude":"51.402774","street":{"id":1697595,"name":"On or near Parking Area"},"longitude":"0.014577"},"context":"","outcome_status":null,"persistent_id":"","id":130303586,"location_subtype":"","month":"2025-07"},{"category":"anti-social-behaviour","location_type":"Force","location":{"latitude":"51.423631","street":{"id":1697210,"name":"On or near Pontefract Road"},"longitude":"0.011294"},"context":"","outcome_status":null,"persistent_id":"","id":130303370,"location_subtype":"","month":"2025-07"},{"category":"anti-social-behaviour","location_type":"Force","location":{"latitude":"51.405758","street":{"id":1697573,"name":"On or near Market Square"},"longitude":"0.015169"},"context":"","outcome_status":null,"persistent_id":"","id":130296370,"location_subtype":"","month":"2025-07"},{"category":"anti-social-behaviour","location_type":"Force","location":{"latitude":"51.410694","street":{"id":1696916,"name":"On or near Park End"},"longitude":"0.008972"},"context":"","outcome_status":null,"persistent_id":"","id":130302742,"location_subtype":"","month":"2025-07"},{"category":"anti-social-behaviour","location_type":"Force","location":{"latitude":"51.402774","street":{"id":1697595,"name":"On or near Parking Area"},"longitude":"0.014577"},"context":"","outcome_status":null,"persistent_id":"","id":130296855,"location_subtype":"","month":"2025-07"},{"category":"anti-social-behaviour","location_type":"Force","location":{"latitude":"51.416357","street":{"id":1697876,"name":"On or near Croft Road"},"longitude":"0.018554"},"context":"","outcome_status":null,"persistent_id":"","id":130302351,"location_subtype":"","month":"2025-07"},{"category":"anti-social-behaviour","location_type":"Force","location":{"latitude":"51.412045","street":{"id":1696544,"name":"On or near Grasmere Road"},"longitude":"0.006256"},"context":"","outcome_status":null,"persistent_id":"","id":130297165,"location_subtype":"","month":"2025-07"},{"category":"anti-social-behaviour","location_type":"Force","location":{"latitude":"51.424114","street":{"id":1698385,"name":"On or near Ridgeway Drive"},"longitude":"0.023988"},"context":"","outcome_status":null,"persistent_id":"","id":130298407,"location_subtype":"","month":"2025-07"},{"category":"anti-social-behaviour","location_type":"Force","location":{"latitude":"51.406931","street":{"id":1698728,"name":"On or near Homefield Road"},"longitude":"0.026450"},"context":"","outcome_status":null,"persistent_id":"","id":130301339,"location_subtype":"","month":"2025-07"},{"category":"anti-social-behaviour","location_type":"Force","location":{"latitude":"51.424582","street":{"id":1697451,"name":"On or near Hillcrest Road"},"longitude":"0.015076"},"context":"","outcome_status":null,"persistent_id":"","id":130301174,"location_subtype":"","month":"2025-07"},{"category":"anti-social-behaviour","location_type":"Force","location":{"latitude":"51.414072","street":{"id":1698218,"name":"On or near Garden Road"},"longitude":"0.022207"},"context":"","outcome_status":null,"persistent_id":"","id":130300234,"location_subtype":"","month":"2025-07"},{"category":"anti-social-behaviour","location_type":"Force","location":{"latitude":"51.424582","street":{"id":1697451,"name":"On or near Hillcrest Road"},"longitude":"0.015076"},"context":"","outcome_status":null,"persistent_id":"","id":130299932,"location_subtype":"","month":"2025-07"},{"category":"anti-social-behaviour","location_type":"Force","location":{"latitude":"51.408989","street":{"id":1697365,"name":"On or near Gordon Way"},"longitude":"0.012952"},"context":"","outcome_status":null,"persistent_id":"","id":130299606,"location_subtype":"","month":"2025-07"},{"category":"anti-social-behaviour","location_type":"Force","location":{"latitude":"51.411535","street":{"id":1697021,"name":"On or near London Road"},"longitude":"0.009239"},"context":"","outcome_status":null,"persistent_id":"","id":130295772,"location_subtype":"","month":"2025-07"},{"category":"anti-social-behaviour","location_type":"Force","location":{"latitude":"51.423726","street":{"id":1698493,"name":"On or near Oak Tree Gardens"},"longitude":"0.026114"},"context":"","outcome_status":null,"persistent_id":"","id":130291238,"location_subtype":"","month":"2025-07"},{"category":"anti-social-behaviour","location_type":"Force","location":{"latitude":"51.423662","street":{"id":1698165,"name":"On or near Briary Gardens"},"longitude":"0.022544"},"context":"","outcome_status":null,"persistent_id":"","id":130291301,"location_subtype":"","month":"2025-07"},{"category":"anti-social-behaviour","location_type":"Force","location":{"latitude":"51.408989","street":{"id":1697365,"name":"On or near Gordon Way"},"longitude":"0.012952"},"context":"","outcome_status":null,"persistent_id":"","id":130291456,"location_subtype":"","month":"2025-07"},{"category":"anti-social-behaviour","location_type":"Force","location":{"latitude":"51.420901","street":{"id":1697333,"name":"On or near Sudbury Crescent"},"longitude":"0.013677"},"context":"","outcome_status":null,"persistent_id":"","id":130283544,"location_subtype":"","month":"2025-07"},{"category":"anti-social-behaviour","location_type":"Force","location":{"latitude":"51.420901","street":{"id":1697333,"name":"On or near Sudbury Crescent"},"longitude":"0.013677"},"context":"","outcome_status":null,"persistent_id":"","id":130283620,"location_subtype":"","month":"2025-07"},{"category":"anti-social-behaviour","location_type":"Force","location":{"latitude":"51.402774","street":{"id":1697595,"name":"On or near Parking Area"},"longitude":"0.014577"},"context":"","outcome_status":null,"persistent_id":"","id":130283819,"location_subtype":"","month":"2025-07"},{"category":"anti-social-behaviour","location_type":"Force","location":{"latitude":"51.399814","street":{"id":1697018,"name":"On or near Queen Anne Avenue"},"longitude":"0.010494"},"context":"","outcome_status":null,"persistent_id":"","id":130284179,"location_subtype":"","month":"2025-07"},{"category":"anti-social-behaviour","location_type":"Force","location":{"latitude":"51.420901","street":{"id":1697333,"name":"On or near Sudbury Crescent"},"longitude":"0.013677"},"context":"","outcome_status":null,"persistent_id":"","id":130284365,"location_subtype":"","month":"2025-07"},{"category":"anti-social-behaviour","location_type":"Force","location":{"latitude":"51.402774","street":{"id":1697595,"name":"On or near Parking Area"},"longitude":"0.014577"},"context":"","outcome_status":null,"persistent_id":"","id":130284455,"location_subtype":"","month":"2025-07"},{"category":"anti-social-behaviour","location_type":"Force","location":{"latitude":"51.402774","street":{"id":1697595,"name":"On or near Parking Area"},"longitude":"0.014577"},"context":"","outcome_status":null,"persistent_id":"","id":130284666,"location_subtype":"","month":"2025-07"},{"category":"anti-social-behaviour","location_type":"Force","location":{"latitude":"51.411602","street":{"id":1698589,"name":"On or near Freelands Road"},"longitude":"0.025693"},"context":"","outcome_status":null,"persistent_id":"","id":130284697,"location_subtype":"","month":"2025-07"},{"category":"anti-social-behaviour","location_type":"Force","location":{"latitude":"51.407676","street":{"id":1697520,"name":"On or near West Street"},"longitude":"0.013988"},"context":"","outcome_status":null,"persistent_id":"","id":130284846,"location_subtype":"","month":"2025-07"},{"category":"anti-social-behaviour","location_type":"Force","location":{"latitude":"51.422485","street":{"id":1696945,"name":"On or near Boyland Road"},"longitude":"0.009964"},"context":"","outcome_status":null,"persistent_id":"","id":130286759,"location_subtype":"","month":"2025-07"},{"category":"anti-social-behaviour","location_type":"Force","location":{"latitude":"51.408676","street":{"id":1697560,"name":"On or near Florence Road"},"longitude":"0.014923"},"context":"","outcome_status":null,"persistent_id":"","id":130287268,"location_subtype":"","month":"2025-07"},{"category":"anti-social-behaviour","location_type":"Force","location":{"latitude":"51.424458","street":{"id":1699035,"name":"On or near Portland Road"},"longitude":"0.030591"},"context":"","outcome_status":null,"persistent_id":"","id":130287340,"location_subtype":"","month":"2025-07"},{"category":"anti-social-behaviour","location_type":"Force","location":{"latitude":"51.399241","street":{"id":1698955,"name":"On or near Godwin Road"},"longitude":"0.029100"},"context":"","outcome_status":null,"persistent_id":"","id":130287730,"location_subtype":"","month":"2025-07"},{"category":"anti-social-behaviour","location_type":"Force","location":{"latitude":"51.404282","street":{"id":1696283,"name":"On or near Valley Road"},"longitude":"0.002667"},"context":"","outcome_status":null,"persistent_id":"","id":130288133,"location_subtype":"","month":"2025-07"},{"category":"anti-social-behaviour","location_type":"Force","location":{"latitude":"51.401626","street":{"id":1696486,"name":"On or near Dykes Way"},"longitude":"0.005498"},"context":"","outcome_status":null,"persistent_id":"","id":130288163,"location_subtype":"","month":"2025-07"},{"category":"anti-social-behaviour","location_type":"Force","location":{"latitude":"51.414036","street":{"id":1697189,"name":"On or near Saxon Road"},"longitude":"0.011779"},"context":"","outcome_status":null,"persistent_id":"","id":130288372,"location_subtype":"","month":"2025-07"},{"category":"anti-social-behaviour","location_type":"Force","location":{"latitude":"51.411342","street":{"id":1697473,"name":"On or near Supermarket"},"longitude":"0.014177"},"context":"","outcome_status":null,"persistent_id":"","id":130288455,"location_subtype":"","month":"2025-07"},{"category":"anti-social-behaviour","location_type":"Force","location":{"latitude":"51.405758","street":{"id":1697573,"name":"On or near Market Square"},"longitude":"0.015169"},"context":"","outcome_status":null,"persistent_id":"","id":130301631,"location_subtype":"","month":"2025-07"},{"category":"anti-social-behaviour","location_type":"Force","location":{"latitude":"51.424582","street":{"id":1697451,"name":"On or near Hillcrest Road"},"longitude":"0.015076"},"context":"","outcome_status":null,"persistent_id":"","id":130288621,"location_subtype":"","month":"2025-07"},{"category":"bicycle-theft","location_type":"Force","location":{"latitude":"51.420518","street":{"id":1696389,"name":"On or near Arcus Road"},"longitude":"0.003491"},"context":"","outcome_status":{"category":"Investigation complete; no suspect identified","date":"2025-09"},"persistent_id":"4bcbcf2a5c709f2d0a4868ac27064d551542d1f2a61f71b41fb8496b5f5cca1e","id":130350936,"location_subtype":"","month":"2025-07"},{"category":"bicycle-theft","location_type":"Force","location":{"latitude":"51.399541","street":{"id":1697987,"name":"On or near Parking Area"},"longitude":"0.019021"},"context":"","outcome_status":{"category":"Unable to prosecute suspect","date":"2025-07"},"persistent_id":"ab2978901c7b5bc34fc5d2d82c79f5eaa62adbad79a6d5e9d5c9e178c61ad7e7","id":130388741,"location_subtype":"","month":"2025-07"},{"category":"burglary","location_type":"Force","location":{"latitude":"51.410778","street":{"id":1699722,"name":"On or near Sundridge Avenue"},"longitude":"0.039534"},"context":"","outcome_status":{"category":"Status update unavailable","date":"2025-11"},"persistent_id":"99d82b4a3a36101980ee66bcdc40c286de4954e7c1e6779200b9145915236e19","id":130322522,"location_subtype":"","month":"2025-07"},{"category":"burglary","location_type":"Force","location":{"latitude":"51.409563","street":{"id":1698508,"name":"On or near Freelands Road"},"longitude":"0.024510"},"context":"","outcome_status":{"category":"Investigation complete; no suspect identified","date":"2025-07"},"persistent_id":"699c5d96d0a28d9d01540abfdc6ba1c1403446f0c04f584927c7fd313d8fa959","id":130347000,"location_subtype":"","month":"2025-07"},{"category":"burglary","location_type":"Force","location":{"latitude":"51.413877","street":{"id":1696442,"name":"On or near Oaklands Road"},"longitude":"0.004280"},"context":"","outcome_status":{"category":"Investigation complete; no suspect identified","date":"2025-07"},"persistent_id":"0ac429d3bb4e49ff6f57b5aa1bbcef786f40434964f5360c2f4e989a5f81bdad","id":130357880,"location_subtype":"","month":"2025-07"},{"category":"burglary","location_type":"Force","location":{"latitude":"51.420192","street":{"id":1697559,"name":"On or near Brook Lane"},"longitude":"0.015156"},"context":"","outcome_status":{"category":"Awaiting court outcome","date":"2025-09"},"persistent_id":"b63da5fbd70fa779f6e49f02938651d83f2304a564044d314a6da3efe2aa4fde","id":130318167,"location_subtype":"","month":"2025-07"},{"category":"burglary","location_type":"Force","location":{"latitude":"51.406485","street":{"id":1697418,"name":"On or near Walters Yard"},"longitude":"0.013734"},"context":"","outcome_status":{"category":"Investigation complete; no suspect identified","date":"2025-08"},"persistent_id":"c1ed5c79f7d0a96962252b3b8167c3ee2e428503ef078e709a2ffb43941acf3f","id":130309421,"location_subtype":"","month":"2025-07"},{"category":"burglary","location_type":"Force","location":{"latitude":"51.408676","street":{"id":1697560,"name":"On or near Florence Road"},"longitude":"0.014923"},"context":"","outcome_status":{"category":"Investigation complete; no suspect identified","date":"2025-09"},"persistent_id":"d767f60da198eabf23dd2c50b4654aa27ec7e12c4ffcd4568916cf9b150735d2","id":130309937,"location_subtype":"","month":"2025-07"},{"category":"burglary","location_type":"Force","location":{"latitude":"51.418152","street":{"id":1697519,"name":"On or near Quernmore Close"},"longitude":"0.014060"},"context":"","outcome_status":{"category":"Investigation complete; no suspect identified","date":"2025-09"},"persistent_id":"3e45250eea29025affc049021600be412d406dd9d5bc4e08ad8e0b1bfe1508c4","id":130362562,"location_subtype":"","month":"2025-07"},{"category":"burglary","location_type":"Force","location":{"latitude":"51.413551","street":{"id":1696119,"name":"On or near Warren Avenue"},"longitude":"0.000713"},"context":"","outcome_status":{"category":"Investigation complete; no suspect identified","date":"2025-07"},"persistent_id":"c4ef46bebbe371eb19099290fe22eb746c30eaa79fb57b1e17bad5e3ca0facb1","id":130347315,"location_subtype":"","month":"2025-07"},{"category":"burglary","location_type":"Force","location":{"latitude":"51.406895","street":{"id":1698731,"name":"On or near Widmore Road"},"longitude":"0.026449"},"context":"","outcome_status":{"category":"Investigation complete; no suspect identified","date":"2025-07"},"persistent_id":"554fcf69062b6bb593305e538119e33ac4a93e01e863d31e479adfb3c57fe727","id":130335802,"location_subtype":"","month":"2025-07"},{"category":"burglary","location_type":"Force","location":{"latitude":"51.405853","street":{"id":1697822,"name":"On or near Queen's Road"},"longitude":"0.018034"},"context":"","outcome_status":{"category":"Investigation complete; no suspect identified","date":"2025-07"},"persistent_id":"bbac100eae13b1fccc36e83bb35fdddbc7efd59a322aed36a470ee71044b3d39","id":130309154,"location_subtype":"","month":"2025-07"},{"category":"burglary","location_type":"Force","location":{"latitude":"51.407171","street":{"id":1697652,"name":"On or near East Street"},"longitude":"0.016194"},"context":"","outcome_status":{"category":"Investigation complete; no suspect identified","date":"2025-09"},"persistent_id":"5c06f847f15fcd92889cd9a8e22d85f8697a5c4e59d977ab4e76603b2acdd0d1","id":130314921,"location_subtype":"","month":"2025-07"},{"category":"burglary","location_type":"Force","location":{"latitude":"51.419717","street":{"id":1696583,"name":"On or near Hildenborough Gardens"},"longitude":"0.005110"},"context":"","outcome_status":{"category":"Unable to prosecute suspect","date":"2025-07"},"persistent_id":"4a90f09b736e14b712502e59554b3fd7615411c88a9de8f9fa7043edd6296e4b","id":130342459,"location_subtype":"","month":"2025-07"},{"category":"burglary","location_type":"Force","location":{"latitude":"51.422485","street":{"id":1696945,"name":"On or near Boyland Road"},"longitude":"0.009964"},"context":"","outcome_status":{"category":"Investigation complete; no suspect identified","date":"2025-07"},"persistent_id":"cf32d61345cb61ff64d9a07ce4ee5ec726cb6b10e33fc7284cbeb90d6a7861f6","id":130346077,"location_subtype":"","month":"2025-07"},{"category":"burglary","location_type":"Force","location":{"latitude":"51.405271","street":{"id":1697236,"name":"On or near St Paul's Square"},"longitude":"0.011625"},"context":"","outcome_status":{"category":"Investigation complete; no suspect identified","date":"2025-07"},"persistent_id":"54f769ec8000b69400e43c83a65d2ac2c86bc4080b47feccc078bfdbcc056a6f","id":130376117,"location_subtype":"","month":"2025-07"},{"category":"burglary","location_type":"Force","location":{"latitude":"51.409453","street":{"id":1700053,"name":"On or near Mount Close"},"longitude":"0.042293"},"context":"","outcome_status":{"category":"Investigation complete; no suspect identified","date":"2025-07"},"persistent_id":"f30a432c91c8f519db7eea04c12fc28f51ea928a72d70edec19754a8b679f0ab","id":130342890,"location_subtype":"","month":"2025-07"},{"category":"burglary","location_type":"Force","location":{"latitude":"51.406931","street":{"id":1698728,"name":"On or near Homefield Road"},"longitude":"0.026450"},"context":"","outcome_status":{"category":"Investigation complete; no suspect identified","date":"2025-08"},"persistent_id":"87ef422e7b38206bc38debce878e2fc06f2259123d47ce04115b8dddcae5ef3c","id":130384497,"location_subtype":"","month":"2025-07"},{"category":"criminal-damage-arson","location_type":"Force","location":{"latitude":"51.406485","street":{"id":1697418,"name":"On or near Walters Yard"},"longitude":"0.013734"},"context":"","outcome_status":{"category":"Investigation complete; no suspect identified","date":"2025-07"},"persistent_id":"8072af93c9fab32670b5809d0d92ace5dd98a87286bbd3f70e6d86bfbbdf07aa","id":130383659,"location_subtype":"","month":"2025-07"},{"category":"criminal-damage-arson","location_type":"Force","location":{"latitude":"51.424531","street":{"id":1697060,"name":"On or near Supermarket"},"longitude":"0.010715"},"context":"","outcome_status":{"category":"Unable to prosecute suspect","date":"2025-07"},"persistent_id":"396e1f97fa4e085d6e1ae0d2b33e042e6afe8cb117a8ff50e5285374f9da9cc3","id":130339728,"location_subtype":"","month":"2025-07"},{"category":"criminal-damage-arson","location_type":"Force","location":{"latitude":"51.405288","street":{"id":1696348,"name":"On or near Station Road"},"longitude":"0.003271"},"context":"","outcome_status":{"category":"Investigation complete; no suspect identified","date":"2025-07"},"persistent_id":"84398881ba792d97f38412f7c3f930fe48628572362b5df540cd654b0fdea8bf","id":130339429,"location_subtype":"","month":"2025-07"},{"category":"criminal-damage-arson","location_type":"Force","location":{"latitude":"51.402774","street":{"id":1697595,"name":"On or near Parking Area"},"longitude":"0.014577"},"context":"","outcome_status":{"category":"Investigation complete; no suspect identified","date":"2025-10"},"persistent_id":"dfe87472cd4ffa5ad60e15074fa6b94f7ca92ad866804eb23303d00170454703","id":130339309,"location_subtype":"","month":"2025-07"},{"category":"criminal-damage-arson","location_type":"Force","location":{"latitude":"51.408622","street":{"id":1697003,"name":"On or near Blyth Road"},"longitude":"0.009730"},"context":"","outcome_status":{"category":"Investigation complete; no suspect identified","date":"2025-07"},"persistent_id":"545305df9a4e97e820fb578401771525fe04a4c9fd55770a86f48c5a2e334d4c","id":130348490,"location_subtype":"","month":"2025-07"},{"category":"criminal-damage-arson","location_type":"Force","location":{"latitude":"51.412553","street":{"id":1697101,"name":"On or near Belcroft Close"},"longitude":"0.010147"},"context":"","outcome_status":{"category":"Investigation complete; no suspect identified","date":"2025-07"},"persistent_id":"3f9a2b5550294fef189eb98d6e8b51d63e57f14875252494aed178a3d65d62c4","id":130312543,"location_subtype":"","month":"2025-07"},{"category":"criminal-damage-arson","location_type":"Force","location":{"latitude":"51.420341","street":{"id":1698084,"name":"On or near Burnt Ash Lane"},"longitude":"0.020096"},"context":"","outcome_status":{"category":"Investigation complete; no suspect identified","date":"2025-07"},"persistent_id":"8c2881c127a74a0967e936506b208162224badb0b4a3bb4eaea02b4eaeac4c5c","id":130317242,"location_subtype":"","month":"2025-07"},{"category":"criminal-damage-arson","location_type":"Force","location":{"latitude":"51.420901","street":{"id":1697333,"name":"On or near Sudbury Crescent"},"longitude":"0.013677"},"context":"","outcome_status":{"category":"Investigation complete; no suspect identified","date":"2025-07"},"persistent_id":"6f2fadfe0a9bcf69fec80fa2f69aa7d7ea94e6ae4842a6f501544b16da192822","id":130336634,"location_subtype":"","month":"2025-07"},{"category":"criminal-damage-arson","location_type":"Force","location":{"latitude":"51.405288","street":{"id":1696348,"name":"On or near Station Road"},"longitude":"0.003271"},"context":"","outcome_status":{"category":"Investigation complete; no suspect identified","date":"2025-07"},"persistent_id":"365d3074a7b430a4c75bad46dbca15a3f2fcaa0e52d6becb47586595219a0dbe","id":130378964,"location_subtype":"","month":"2025-07"},{"category":"criminal-damage-arson","location_type":"Force","location":{"latitude":"51.412045","street":{"id":1696544,"name":"On or near Grasmere Road"},"longitude":"0.006256"},"context":"","outcome_status":{"category":"Investigation complete; no suspect identified","date":"2025-07"},"persistent_id":"53aa3d011821ed5b24bc890f021bdce0d657c83559d5c5e9431219fd6f0b6fed","id":130361512,"location_subtype":"","month":"2025-07"},{"category":"criminal-damage-arson","location_type":"Force","location":{"latitude":"51.403769","street":{"id":1697699,"name":"On or near Parking Area"},"longitude":"0.016850"},"context":"","outcome_status":{"category":"Investigation complete; no suspect identified","date":"2025-07"},"persistent_id":"3c21ed8dc62c662d985c80b7462a7b65b2148631c3a39098573669e27924001f","id":130388171,"location_subtype":"","month":"2025-07"},{"category":"criminal-damage-arson","location_type":"Force","location":{"latitude":"51.419587","street":{"id":1697675,"name":"On or near Albany Mews"},"longitude":"0.015834"},"context":"","outcome_status":{"category":"Status update unavailable","date":"2025-11"},"persistent_id":"f00b8b790f03cce6e4566ced19cf98adfef9d85abdf951630db23b1d1a34122c","id":130387618,"location_subtype":"","month":"2025-07"},{"category":"criminal-damage-arson","location_type":"Force","location":{"latitude":"51.420341","street":{"id":1698084,"name":"On or near Burnt Ash Lane"},"longitude":"0.020096"},"context":"","outcome_status":{"category":"Investigation complete; no suspect identified","date":"2025-08"},"persistent_id":"981d2b3b8b0e0dd223528d24123a7a8dd9060dc2cd451c0f13bed433e98a3349","id":130387421,"location_subtype":"","month":"2025-07"},{"category":"criminal-damage-arson","location_type":"Force","location":{"latitude":"51.400999","street":{"id":1697787,"name":"On or near Elmfield Park"},"longitude":"0.017404"},"context":"","outcome_status":{"category":"Status update unavailable","date":"2025-11"},"persistent_id":"ba8aec770ac6b1a1bfc108202c539ecad394b3da9620b4f8695b23a52646853c","id":130387215,"location_subtype":"","month":"2025-07"},{"category":"criminal-damage-arson","location_type":"Force","location":{"latitude":"51.400002","street":{"id":1699036,"name":"On or near Supermarket"},"longitude":"0.031391"},"context":"","outcome_status":{"category":"Investigation complete; no suspect identified","date":"2025-07"},"persistent_id":"ec117ddddc9d1409e013e8c92559d4a5c7b89b3c44f4ed6b50d837abf506af2a","id":130319059,"location_subtype":"","month":"2025-07"},{"category":"criminal-damage-arson","location_type":"Force","location":{"latitude":"51.405270","street":{"id":1699385,"name":"On or near Lewes Road"},"longitude":"0.034098"},"context":"","outcome_status":{"category":"Investigation complete; no suspect identified","date":"2025-07"},"persistent_id":"f4a367dc69cac9ef670961ea7e6dee43445ed36c2512b3134bfb4b278f3d8b0e","id":130319387,"location_subtype":"","month":"2025-07"},{"category":"criminal-damage-arson","location_type":"Force","location":{"latitude":"51.420901","street":{"id":1697333,"name":"On or near Sudbury Crescent"},"longitude":"0.013677"},"context":"","outcome_status":{"category":"Investigation complete; no suspect identified","date":"2025-07"},"persistent_id":"01605c9e82d1bc29439f3a2e35e1cf25e0b0e57a6fb0dcf3257f996f4839c048","id":130378777,"location_subtype":"","month":"2025-07"},{"category":"criminal-damage-arson","location_type":"Force","location":{"latitude":"51.403769","street":{"id":1697699,"name":"On or near Parking Area"},"longitude":"0.016850"},"context":"","outcome_status":{"category":"Investigation complete; no suspect identified","date":"2025-10"},"persistent_id":"9fa62587b5f3524116d3003c8832f8985de5244a3e8cbc2a18ebee140cdde9d3","id":130321113,"location_subtype":"","month":"2025-07"},{"category":"criminal-damage-arson","location_type":"Force","location":{"latitude":"51.408414","street":{"id":1697657,"name":"On or near Tweedy Road"},"longitude":"0.015544"},"context":"","outcome_status":{"category":"Investigation complete; no suspect identified","date":"2025-07"},"persistent_id":"9bd52f5303af19a3b9bf3ab0ae3a8986a541a33d9ed3dc93ca38764dc0e6c865","id":130375348,"location_subtype":"","month":"2025-07"},{"category":"criminal-damage-arson","location_type":"Force","location":{"latitude":"51.406301","street":{"id":1697749,"name":"On or near Nightclub"},"longitude":"0.017062"},"context":"","outcome_status":{"category":"Unable to prosecute suspect","date":"2025-11"},"persistent_id":"6001ecf41206e92e5abde218c81b55cf33ac1b51fce236a6db13fe06052938e4","id":130372317,"location_subtype":"","month":"2025-07"},{"category":"criminal-damage-arson","location_type":"Force","location":{"latitude":"51.399089","street":{"id":1697893,"name":"On or near St Mark's Road"},"longitude":"0.018628"},"context":"","outcome_status":{"category":"Awaiting court outcome","date":"2025-11"},"persistent_id":"affc78dc989835f26855b826862ae1e13100b7b0a3b2eca34b90d91ac15bcf7b","id":130323071,"location_subtype":"","month":"2025-07"},{"category":"criminal-damage-arson","location_type":"Force","location":{"latitude":"51.404040","street":{"id":1697624,"name":"On or near Shopping Area"},"longitude":"0.015237"},"context":"","outcome_status":{"category":"Local resolution","date":"2025-12"},"persistent_id":"6a18fb30b9161a5d93df0c31555da1fa9955bcf87422c959be33e8e170f7450c","id":130370642,"location_subtype":"","month":"2025-07"},{"category":"criminal-damage-arson","location_type":"Force","location":{"latitude":"51.419587","street":{"id":1697675,"name":"On or near Albany Mews"},"longitude":"0.015834"},"context":"","outcome_status":{"category":"Investigation complete; no suspect identified","date":"2025-08"},"persistent_id":"6a8db7485538db8572ddd13bf861dc5930509b3815f3d593f66aa4dc7b392885","id":130323984,"location_subtype":"","month":"2025-07"},{"category":"criminal-damage-arson","location_type":"Force","location":{"latitude":"51.399089","street":{"id":1697893,"name":"On or near St Mark's Road"},"longitude":"0.018628"},"context":"","outcome_status":{"category":"Awaiting court outcome","date":"2026-01"},"persistent_id":"1db7940ab7be51d78ceb2b2faab7b67374c14e30c8235564d08c0c811e5f250b","id":130369714,"location_subtype":"","month":"2025-07"},{"category":"criminal-damage-arson","location_type":"Force","location":{"latitude":"51.402774","street":{"id":1697595,"name":"On or near Parking Area"},"longitude":"0.014577"},"context":"","outcome_status":{"category":"Investigation complete; no suspect identified","date":"2025-07"},"persistent_id":"f97b2b90476212951e0e32448332a6758ec0ef9258a6fc7e1b156c4c63f73ad7","id":130366994,"location_subtype":"","month":"2025-07"},{"category":"criminal-damage-arson","location_type":"Force","location":{"latitude":"51.407083","street":{"id":1698224,"name":"On or near A222"},"longitude":"0.022833"},"context":"","outcome_status":{"category":"Court result unavailable","date":"2026-01"},"persistent_id":"e32ab90b7c289ae339414003fc0ccbceba298dacad36930544833eba8c3b5af0","id":130366396,"location_subtype":"","month":"2025-07"},{"category":"criminal-damage-arson","location_type":"Force","location":{"latitude":"51.408676","street":{"id":1697560,"name":"On or near Florence Road"},"longitude":"0.014923"},"context":"","outcome_status":{"category":"Investigation complete; no suspect identified","date":"2025-08"},"persistent_id":"7a3523f8937e2a24ec3589f9cc4ab26272e5101a1962387b28422d0fd0d48e30","id":130325642,"location_subtype":"","month":"2025-07"},{"category":"criminal-damage-arson","location_type":"Force","location":{"latitude":"51.425923","street":{"id":1698415,"name":"On or near Broadlands Road"},"longitude":"0.023867"},"context":"","outcome_status":{"category":"Investigation complete; no suspect identified","date":"2025-08"},"persistent_id":"f6274462dab66309525b5a0adb05324ccf4540e9660267bdc5943cb2e216dfc6","id":130366319,"location_subtype":"","month":"2025-07"},{"category":"criminal-damage-arson","location_type":"Force","location":{"latitude":"51.421089","street":{"id":1698147,"name":"On or near Supermarket"},"longitude":"0.021064"},"context":"","outcome_status":{"category":"Investigation complete; no suspect identified","date":"2025-09"},"persistent_id":"164bc33705e5295d4a1a4b2c71f45514f8797e9c6ceb8fa91f2316002e52e0d1","id":130365510,"location_subtype":"","month":"2025-07"},{"category":"criminal-damage-arson","location_type":"Force","location":{"latitude":"51.408676","street":{"id":1697560,"name":"On or near Florence Road"},"longitude":"0.014923"},"context":"","outcome_status":{"category":"Investigation complete; no suspect identified","date":"2025-11"},"persistent_id":"fa3227a22d52188475134a28e67c7afa7ef10a8e73227fb2e5a9cf441d86496d","id":130326935,"location_subtype":"","month":"2025-07"},{"category":"criminal-damage-arson","location_type":"Force","location":{"latitude":"51.402628","street":{"id":1697844,"name":"On or near Kentish Way"},"longitude":"0.018855"},"context":"","outcome_status":{"category":"Investigation complete; no suspect identified","date":"2025-07"},"persistent_id":"d132e744f2867353b5afcf0cc64015722ccb8c80f683daa56d6ea31ce754d246","id":130328665,"location_subtype":"","month":"2025-07"},{"category":"criminal-damage-arson","location_type":"Force","location":{"latitude":"51.405270","street":{"id":1699385,"name":"On or near Lewes Road"},"longitude":"0.034098"},"context":"","outcome_status":{"category":"Investigation complete; no suspect identified","date":"2025-07"},"persistent_id":"760557e655199b18fbba4a11665e1247c18a81ea20c6541e905f18c28542e18c","id":130331016,"location_subtype":"","month":"2025-07"},{"category":"criminal-damage-arson","location_type":"Force","location":{"latitude":"51.420090","street":{"id":1696953,"name":"On or near Alexandra Crescent"},"longitude":"0.008564"},"context":"","outcome_status":{"category":"Investigation complete; no suspect identified","date":"2025-07"},"persistent_id":"ccfb25d59a27b93ad93dc409666d0fe0aeaea96bc1509be442aaf115172ce189","id":130358552,"location_subtype":"","month":"2025-07"},{"category":"criminal-damage-arson","location_type":"Force","location":{"latitude":"51.405444","street":{"id":1696140,"name":"On or near The Glen"},"longitude":"0.000460"},"context":"","outcome_status":{"category":"Investigation complete; no suspect identified","date":"2025-07"},"persistent_id":"107009fe3b0bc4c58bd001acb1bb66cff8bb259d58edcfcfb1e2d8316d2c5bb4","id":130357283,"location_subtype":"","month":"2025-07"},{"category":"criminal-damage-arson","location_type":"Force","location":{"latitude":"51.420518","street":{"id":1696389,"name":"On or near Arcus Road"},"longitude":"0.003491"},"context":"","outcome_status":{"category":"Investigation complete; no suspect identified","date":"2025-07"},"persistent_id":"719ce03b794c4dbe72bfb6b627a6e5330cdda655d7ea5734e3bb637f882a8593","id":130348524,"location_subtype":"","month":"2025-07"},{"category":"criminal-damage-arson","location_type":"Force","location":{"latitude":"51.402774","street":{"id":1697595,"name":"On or near Parking Area"},"longitude":"0.014577"},"context":"","outcome_status":{"category":"Investigation complete; no suspect identified","date":"2025-07"},"persistent_id":"d760d12b1d4637d0d53c7d06f68767f02730ccec07774d0a17977f12bb925f9f","id":130346284,"location_subtype":"","month":"2025-07"},{"category":"criminal-damage-arson","location_type":"Force","location":{"latitude":"51.423037","street":{"id":1697332,"name":"On or near Headcorn Road"},"longitude":"0.012347"},"context":"","outcome_status":{"category":"Unable to prosecute suspect","date":"2025-07"},"persistent_id":"fd7829dcf046ba783aa621a6024af435d28549ac2f5b71beddd1ccbee80c1e45","id":130312144,"location_subtype":"","month":"2025-07"},{"category":"criminal-damage-arson","location_type":"Force","location":{"latitude":"51.402295","street":{"id":1697803,"name":"On or near Parking Area"},"longitude":"0.017346"},"context":"","outcome_status":{"category":"Investigation complete; no suspect identified","date":"2025-08"},"persistent_id":"98feb4bb46c26c499b40b67d58d11d0dc1e3554b4298a4e11b0889517c53fd66","id":130344893,"location_subtype":"","month":"2025-07"},{"category":"criminal-damage-arson","location_type":"Force","location":{"latitude":"51.407676","street":{"id":1697520,"name":"On or near West Street"},"longitude":"0.013988"},"context":"","outcome_status":{"category":"Investigation complete; no suspect identified","date":"2025-07"},"persistent_id":"93039bfd1e4d0c766a7a9ef44c504a2980fa77b8dc6b9446d13fc55087b213c1","id":130343984,"location_subtype":"","month":"2025-07"},{"category":"criminal-damage-arson","location_type":"Force","location":{"latitude":"51.408414","street":{"id":1697657,"name":"On or near Tweedy Road"},"longitude":"0.015544"},"context":"","outcome_status":{"category":"Investigation complete; no suspect identified","date":"2025-07"},"persistent_id":"871d80802b7926e6cd4b47a1eb1ec5fd97a65cde8b0bdd6a6ac84413052368b0","id":130335698,"location_subtype":"","month":"2025-07"},{"category":"drugs","location_type":"Force","location":{"latitude":"51.400999","street":{"id":1697787,"name":"On or near Elmfield Park"},"longitude":"0.017404"},"context":"","outcome_status":{"category":"Local resolution","date":"2025-07"},"persistent_id":"06a8681705034dbb2f6f7c474d6021f16140dc8ed354bfbc70dd82d5239f32cd","id":130345421,"location_subtype":"","month":"2025-07"},{"category":"drugs","location_type":"Force","location":{"latitude":"51.416082","street":{"id":1698090,"name":"On or near Minster Road"},"longitude":"0.020915"},"context":"","outcome_status":{"category":"Unable to prosecute suspect","date":"2025-07"},"persistent_id":"a31c4ab9dae65a784fbd3650ab601ddaa6154af6e71f4f20fa52abae13a79460","id":130359080,"location_subtype":"","month":"2025-07"},{"category":"drugs","location_type":"Force","location":{"latitude":"51.403413","street":{"id":1696762,"name":"On or near Queen's Mead Road"},"longitude":"0.007230"},"context":"","outcome_status":{"category":"Local resolution","date":"2025-12"},"persistent_id":"f6a7a07d13dd35a01e5d5ee79ea0681c01d506950bd261038caa2611b8a3e905","id":130360910,"location_subtype":"","month":"2025-07"},{"category":"drugs","location_type":"Force","location":{"latitude":"51.408989","street":{"id":1697365,"name":"On or near Gordon Way"},"longitude":"0.012952"},"context":"","outcome_status":{"category":"Local resolution","date":"2025-07"},"persistent_id":"861756028b813b2ffd5a2d617198ec23abf566cc89fdff36c3aad5e067f99140","id":130308697,"location_subtype":"","month":"2025-07"},{"category":"drugs","location_type":"Force","location":{"latitude":"51.399089","street":{"id":1697893,"name":"On or near St Mark's Road"},"longitude":"0.018628"},"context":"","outcome_status":{"category":"Status update unavailable","date":"2025-11"},"persistent_id":"e3aa5648f2d0d31d13812559a7006a300691deaceb5b3d72be2cc70dda95aabb","id":130352028,"location_subtype":"","month":"2025-07"},{"category":"drugs","location_type":"Force","location":{"latitude":"51.398951","street":{"id":1698398,"name":"On or near Langdon Road"},"longitude":"0.023006"},"context":"","outcome_status":{"category":"Court result unavailable","date":"2026-01"},"persistent_id":"4536ae132719ea94c9014def281b379e438854ac2092b8da76bc759b29bb84ee","id":130323264,"location_subtype":"","month":"2025-07"},{"category":"drugs","location_type":"Force","location":{"latitude":"51.403492","street":{"id":1697158,"name":"On or near Mill Vale"},"longitude":"0.010497"},"context":"","outcome_status":{"category":"Local resolution","date":"2025-07"},"persistent_id":"5e4c4fa9597e759b79eacce8e2fb80234644b10b788e88540ab986bdbdadbd34","id":130362969,"location_subtype":"","month":"2025-07"},{"category":"drugs","location_type":"Force","location":{"latitude":"51.404646","street":{"id":1697396,"name":"On or near Tetty Way"},"longitude":"0.013955"},"context":"","outcome_status":{"category":"Local resolution","date":"2025-07"},"persistent_id":"c7a41dfe7af9b8e737cd7094d42b4163d9d32de790c77e9c10bac9c30c7857c7","id":130314605,"location_subtype":"","month":"2025-07"},{"category":"drugs","location_type":"Force","location":{"latitude":"51.404040","street":{"id":1697624,"name":"On or near Shopping Area"},"longitude":"0.015237"},"context":"","outcome_status":{"category":"Status update unavailable","date":"2025-11"},"persistent_id":"3f0002efead3f82b2730da37f747777a89193f6d4083cfa10fb2c4e9555ed730","id":130377785,"location_subtype":"","month":"2025-07"},{"category":"drugs","location_type":"Force","location":{"latitude":"51.406986","street":{"id":1697229,"name":"On or near Mitre Close"},"longitude":"0.011240"},"context":"","outcome_status":{"category":"Awaiting court outcome","date":"2025-09"},"persistent_id":"bde9b972412db6aae3d379ccd51fd4d3b655d3cebf63c6f28de24cfd089ae770","id":130353068,"location_subtype":"","month":"2025-07"},{"category":"drugs","location_type":"Force","location":{"latitude":"51.405271","street":{"id":1697236,"name":"On or near St Paul's Square"},"longitude":"0.011625"},"context":"","outcome_status":{"category":"Local resolution","date":"2025-07"},"persistent_id":"9ca33e0731f9a49e81778190bea41344105c02b6701b6fa7c18ac3f5fa025bf7","id":130378940,"location_subtype":"","month":"2025-07"},{"category":"drugs","location_type":"Force","location":{"latitude":"51.403492","street":{"id":1697158,"name":"On or near Mill Vale"},"longitude":"0.010497"},"context":"","outcome_status":{"category":"Status update unavailable","date":"2025-11"},"persistent_id":"d83c7237f35a1b1f4598fe962f39eff2b1dcec1fb2b0e8113652c375eb33ac5e","id":130363073,"location_subtype":"","month":"2025-07"},{"category":"drugs","location_type":"Force","location":{"latitude":"51.406485","street":{"id":1697418,"name":"On or near Walters Yard"},"longitude":"0.013734"},"context":"","outcome_status":{"category":"Offender given penalty notice","date":"2025-09"},"persistent_id":"38ab3b207ff114862d8815963edc5885363aeeaea0a81bcaab6bc33458a32394","id":130331191,"location_subtype":"","month":"2025-07"},{"category":"drugs","location_type":"Force","location":{"latitude":"51.403765","street":{"id":1697482,"name":"On or near Theatre/concert Hall"},"longitude":"0.014448"},"context":"","outcome_status":{"category":"Local resolution","date":"2025-09"},"persistent_id":"7b7097a1cc093cfed46d8b1917007b23e82925b93a383846c618d86376e6396f","id":130363680,"location_subtype":"","month":"2025-07"},{"category":"drugs","location_type":"Force","location":{"latitude":"51.406485","street":{"id":1697418,"name":"On or near Walters Yard"},"longitude":"0.013734"},"context":"","outcome_status":{"category":"Court result unavailable","date":"2026-01"},"persistent_id":"11e1785d187e92dd4127a728849d23711e9eb77ae8d8af4a11f1c10daf69fb8d","id":130383508,"location_subtype":"","month":"2025-07"},{"category":"drugs","location_type":"Force","location":{"latitude":"51.406485","street":{"id":1697418,"name":"On or near Walters Yard"},"longitude":"0.013734"},"context":"","outcome_status":{"category":"Awaiting court outcome","date":"2025-10"},"persistent_id":"ebee982c19291a3deda4f12791973515c13271c38c5a9cd94bb9f458261a59dc","id":130383540,"location_subtype":"","month":"2025-07"},{"category":"drugs","location_type":"Force","location":{"latitude":"51.400999","street":{"id":1697787,"name":"On or near Elmfield Park"},"longitude":"0.017404"},"context":"","outcome_status":{"category":"Local resolution","date":"2025-11"},"persistent_id":"670adb1d71545ff8faa837386fe196a15b739096d208e8c789dfea5a60a6b087","id":130387237,"location_subtype":"","month":"2025-07"},{"category":"drugs","location_type":"Force","location":{"latitude":"51.403413","street":{"id":1696762,"name":"On or near Queen's Mead Road"},"longitude":"0.007230"},"context":"","outcome_status":{"category":"Status update unavailable","date":"2025-11"},"persistent_id":"8a8daaba6fdb1e76ad5503cc13f6f99cea12be9e737715d57594215806358e4c","id":130359101,"location_subtype":"","month":"2025-07"},{"category":"drugs","location_type":"Force","location":{"latitude":"51.403492","street":{"id":1697158,"name":"On or near Mill Vale"},"longitude":"0.010497"},"context":"","outcome_status":{"category":"Status update unavailable","date":"2025-11"},"persistent_id":"e2a3ea63695d2ab96bc5389e34372012a61b5f6624aaa5f1a7c7242f70044d4e","id":130314658,"location_subtype":"","month":"2025-07"},{"category":"other-theft","location_type":"Force","location":{"latitude":"51.406608","street":{"id":1697556,"name":"On or near Supermarket"},"longitude":"0.014415"},"context":"","outcome_status":{"category":"Status update unavailable","date":"2025-11"},"persistent_id":"7b5cad45d64a9ecb6ca43807251c002a00705f384976a7d6db425f9dd6554262","id":130351899,"location_subtype":"","month":"2025-07"},{"category":"other-theft","location_type":"Force","location":{"latitude":"51.419306","street":{"id":1696530,"name":"On or near Swiftsden Way"},"longitude":"0.004445"},"context":"","outcome_status":{"category":"Investigation complete; no suspect identified","date":"2026-01"},"persistent_id":"a5afcc75db6739f2a993a8d9ae1fe13b116d16686e5c086599b5659a654c0cce","id":130379462,"location_subtype":"","month":"2025-07"},{"category":"other-theft","location_type":"Force","location":{"latitude":"51.403769","street":{"id":1697699,"name":"On or near Parking Area"},"longitude":"0.016850"},"context":"","outcome_status":{"category":"Investigation complete; no suspect identified","date":"2025-08"},"persistent_id":"1201a625026b0cd78ea19e692f66dc8dde99a1a52815ce85aa80474e985b7bd4","id":130351503,"location_subtype":"","month":"2025-07"},{"category":"other-theft","location_type":"Force","location":{"latitude":"51.400999","street":{"id":1697787,"name":"On or near Elmfield Park"},"longitude":"0.017404"},"context":"","outcome_status":{"category":"Investigation complete; no suspect identified","date":"2025-08"},"persistent_id":"563c38c1afd3e4721a3d0de18e5fa9209e0c4efe65fa96ee31de5e675b4e6745","id":130368123,"location_subtype":"","month":"2025-07"},{"category":"other-theft","location_type":"Force","location":{"latitude":"51.417165","street":{"id":1697001,"name":"On or near Kinnaird Close"},"longitude":"0.009198"},"context":"","outcome_status":{"category":"Investigation complete; no suspect identified","date":"2025-08"},"persistent_id":"fee87a3a006bd5c775c5aee40c9882468edd78b1267c1c87299d3fc766f6e674","id":130322712,"location_subtype":"","month":"2025-07"},{"category":"other-theft","location_type":"Force","location":{"latitude":"51.402295","street":{"id":1697803,"name":"On or near Parking Area"},"longitude":"0.017346"},"context":"","outcome_status":{"category":"Investigation complete; no suspect identified","date":"2025-07"},"persistent_id":"94eb9a05a301aad2ba1c07907431880c6dd14c6c019787749f35054752e8a280","id":130377055,"location_subtype":"","month":"2025-07"},{"category":"other-theft","location_type":"Force","location":{"latitude":"51.404040","street":{"id":1697624,"name":"On or near Shopping Area"},"longitude":"0.015237"},"context":"","outcome_status":{"category":"Investigation complete; no suspect identified","date":"2025-08"},"persistent_id":"db4aab75b7c353caf8ce97e63fa8514a86e0ebaef764528d37b3d1f3b5064587","id":130313793,"location_subtype":"","month":"2025-07"},{"category":"other-theft","location_type":"Force","location":{"latitude":"51.408676","street":{"id":1697560,"name":"On or near Florence Road"},"longitude":"0.014923"},"context":"","outcome_status":{"category":"Investigation complete; no suspect identified","date":"2025-08"},"persistent_id":"9226d64b3c015fd17cb38a3409c1cdbc47cb965e538dedd7cd9d4d3137c96d94","id":130325644,"location_subtype":"","month":"2025-07"},{"category":"other-theft","location_type":"Force","location":{"latitude":"51.422403","street":{"id":1696929,"name":"On or near Rangefield Road"},"longitude":"0.008407"},"context":"","outcome_status":{"category":"Investigation complete; no suspect identified","date":"2025-07"},"persistent_id":"d42a123a42f2d1d77c2eec1ba6d635ae4ddf8f77e2b8b0c0999909a11ca1ab50","id":130326745,"location_subtype":"","month":"2025-07"},{"category":"other-theft","location_type":"Force","location":{"latitude":"51.401683","street":{"id":1697610,"name":"On or near Ringer's Road"},"longitude":"0.015263"},"context":"","outcome_status":{"category":"Investigation complete; no suspect identified","date":"2025-07"},"persistent_id":"eedac19cda680f1d7de1bf113b4346219a975c9548d0402aef9d28ee83143634","id":130378491,"location_subtype":"","month":"2025-07"},{"category":"other-theft","location_type":"Force","location":{"latitude":"51.406608","street":{"id":1697556,"name":"On or near Supermarket"},"longitude":"0.014415"},"context":"","outcome_status":{"category":"Awaiting court outcome","date":"2025-10"},"persistent_id":"c4b9d39783dd4925cecd8219d9cef9450d846db8d2b07381f923aa5d619725b8","id":130381374,"location_subtype":"","month":"2025-07"},{"category":"other-theft","location_type":"Force","location":{"latitude":"51.403769","street":{"id":1697699,"name":"On or near Parking Area"},"longitude":"0.016850"},"context":"","outcome_status":{"category":"Investigation complete; no suspect identified","date":"2025-10"},"persistent_id":"4c9e2a2a1ec71723f6b53328f160e16a2ea19cec15fdb2c129e53bb8bf041fea","id":130383320,"location_subtype":"","month":"2025-07"},{"category":"other-theft","location_type":"Force","location":{"latitude":"51.403769","street":{"id":1697699,"name":"On or near Parking Area"},"longitude":"0.016850"},"context":"","outcome_status":{"category":"Investigation complete; no suspect identified","date":"2025-07"},"persistent_id":"b1ddac3a203f5ebc26b0f1747169a21c4305b6151746d2611c0277f277b3f23e","id":130331450,"location_subtype":"","month":"2025-07"},{"category":"other-theft","location_type":"Force","location":{"latitude":"51.409903","street":{"id":1697214,"name":"On or near Hammelton Road"},"longitude":"0.011598"},"context":"","outcome_status":{"category":"Investigation complete; no suspect identified","date":"2025-12"},"persistent_id":"ea87c9e4a507c8c19db88c75fa9c15f712911a7688726038a86f5dd8e8e886e8","id":130336347,"location_subtype":"","month":"2025-07"},{"category":"other-theft","location_type":"Force","location":{"latitude":"51.409609","street":{"id":1697738,"name":"On or near Station Road"},"longitude":"0.016647"},"context":"","outcome_status":{"category":"Investigation complete; no suspect identified","date":"2025-07"},"persistent_id":"ace8204d0d74ad5f68cf2ba47917a282cfa99f10735f763ad2e344dbb8dc2767","id":130331644,"location_subtype":"","month":"2025-07"},{"category":"other-theft","location_type":"Force","location":{"latitude":"51.402185","street":{"id":1697667,"name":"On or near Shopping Area"},"longitude":"0.016909"},"context":"","outcome_status":{"category":"Investigation complete; no suspect identified","date":"2025-09"},"persistent_id":"46964d7db6901649c84dd67c3dca370b0422ee70eec363214bedecd212183e3b","id":130350615,"location_subtype":"","month":"2025-07"},{"category":"other-theft","location_type":"Force","location":{"latitude":"51.410330","street":{"id":1697648,"name":"On or near Ronalds Road"},"longitude":"0.015499"},"context":"","outcome_status":{"category":"Investigation complete; no suspect identified","date":"2025-07"},"persistent_id":"e4c7cad00316ac60d1f53396e08051ebd40a9ff1272b127c592f55a7020f9e2f","id":130309064,"location_subtype":"","month":"2025-07"},{"category":"other-theft","location_type":"Force","location":{"latitude":"51.412228","street":{"id":1697589,"name":"On or near College Road"},"longitude":"0.014950"},"context":"","outcome_status":{"category":"Investigation complete; no suspect identified","date":"2025-07"},"persistent_id":"8913d004e5151f9dcc595db24a4892e85afa0b2b7161131be21db9c5e1febcb7","id":130337973,"location_subtype":"","month":"2025-07"},{"category":"other-theft","location_type":"Force","location":{"latitude":"51.425923","street":{"id":1698415,"name":"On or near Broadlands Road"},"longitude":"0.023867"},"context":"","outcome_status":{"category":"Investigation complete; no suspect identified","date":"2025-07"},"persistent_id":"e9d48396345f2f90b7acdd6ee88a39607b683969c6b14802f207f611b4c39c0a","id":130309239,"location_subtype":"","month":"2025-07"},{"category":"other-theft","location_type":"Force","location":{"latitude":"51.414101","street":{"id":1697439,"name":"On or near Gilbert Road"},"longitude":"0.013220"},"context":"","outcome_status":{"category":"Investigation complete; no suspect identified","date":"2025-07"},"persistent_id":"64846efe59bf3c566144a6ca49e82e5ab5e0c842e0f101933e50813745cf594a","id":130352761,"location_subtype":"","month":"2025-07"},{"category":"other-theft","location_type":"Force","location":{"latitude":"51.416925","street":{"id":1696620,"name":"On or near Bolton Gardens"},"longitude":"0.006959"},"context":"","outcome_status":{"category":"Investigation complete; no suspect identified","date":"2025-07"},"persistent_id":"8a3cb7a0e8e444e5cabe981de8592a730f279f62b88099db108136eaf2d309a4","id":130352964,"location_subtype":"","month":"2025-07"},{"category":"other-theft","location_type":"Force","location":{"latitude":"51.402185","street":{"id":1697667,"name":"On or near Shopping Area"},"longitude":"0.016909"},"context":"","outcome_status":{"category":"Investigation complete; no suspect identified","date":"2025-07"},"persistent_id":"6a58c916d0a6e2ac09dc780b238d18a9939f2732c17313126aec939d83d1558d","id":130309476,"location_subtype":"","month":"2025-07"},{"category":"other-theft","location_type":"Force","location":{"latitude":"51.409609","street":{"id":1697738,"name":"On or near Station Road"},"longitude":"0.016647"},"context":"","outcome_status":{"category":"Investigation complete; no suspect identified","date":"2025-07"},"persistent_id":"5fa328995abee6cf7499198f6a71c9be9e060b081b6a4e917ee0d86fba08b753","id":130309513,"location_subtype":"","month":"2025-07"},{"category":"other-theft","location_type":"Force","location":{"latitude":"51.397863","street":{"id":1697727,"name":"On or near Pinewood Road"},"longitude":"0.017769"},"context":"","outcome_status":{"category":"Investigation complete; no suspect identified","date":"2025-08"},"persistent_id":"1d1cfdff448ac6e9ed57d6eacdde47804c82a3db9d91904fbcb7491ffe967b13","id":130344291,"location_subtype":"","month":"2025-07"},{"category":"other-theft","location_type":"Force","location":{"latitude":"51.407083","street":{"id":1698224,"name":"On or near A222"},"longitude":"0.022833"},"context":"","outcome_status":{"category":"Investigation complete; no suspect identified","date":"2025-07"},"persistent_id":"cba8e03b4fa3411f558fc459bb897d3dd8e29234c83cb60bc41ea491ee629c6e","id":130310415,"location_subtype":"","month":"2025-07"},{"category":"other-theft","location_type":"Force","location":{"latitude":"51.405853","street":{"id":1697822,"name":"On or near Queen's Road"},"longitude":"0.018034"},"context":"","outcome_status":{"category":"Investigation complete; no suspect identified","date":"2025-07"},"persistent_id":"0b27ec8c57fa19e306f70f6b5be9092e2b32858d7a980fd3101ac01377c2f4bb","id":130373948,"location_subtype":"","month":"2025-07"},{"category":"other-theft","location_type":"Force","location":{"latitude":"51.401683","street":{"id":1697610,"name":"On or near Ringer's Road"},"longitude":"0.015263"},"context":"","outcome_status":{"category":"Investigation complete; no suspect identified","date":"2025-07"},"persistent_id":"c10d124d971a9b72a472647f228a78bb663a28e5905a3056ff0759054b52622b","id":130372913,"location_subtype":"","month":"2025-07"},{"category":"other-theft","location_type":"Force","location":{"latitude":"51.413551","street":{"id":1696119,"name":"On or near Warren Avenue"},"longitude":"0.000713"},"context":"","outcome_status":{"category":"Investigation complete; no suspect identified","date":"2025-10"},"persistent_id":"f9a8ca07a7963abfed313fbd8d1660253e3fbb0884c94958f7ff4a236da6a9b8","id":130323659,"location_subtype":"","month":"2025-07"},{"category":"other-theft","location_type":"Force","location":{"latitude":"51.403945","street":{"id":1697960,"name":"On or near Stockwell Close"},"longitude":"0.019158"},"context":"","outcome_status":{"category":"Investigation complete; no suspect identified","date":"2025-07"},"persistent_id":"be5b1c1e485ab15bcd607989c2247412426e980ff40f704fa24d0efa5f3cd020","id":130315390,"location_subtype":"","month":"2025-07"},{"category":"other-theft","location_type":"Force","location":{"latitude":"51.417450","street":{"id":1696270,"name":"On or near Yewdale Close"},"longitude":"0.002538"},"context":"","outcome_status":{"category":"Unable to prosecute suspect","date":"2025-08"},"persistent_id":"74c67f079754de9665514eda7aa16a49b3742dbefcee908fb0b4493620b63d36","id":130365409,"location_subtype":"","month":"2025-07"},{"category":"other-theft","location_type":"Force","location":{"latitude":"51.403601","street":{"id":1697602,"name":"On or near High Street"},"longitude":"0.015146"},"context":"","outcome_status":{"category":"Investigation complete; no suspect identified","date":"2025-09"},"persistent_id":"c996455de4e40caed6cd1c39324a6687efb1d82388b842b99125c9e005a8d2a8","id":130375857,"location_subtype":"","month":"2025-07"},{"category":"other-theft","location_type":"Force","location":{"latitude":"51.422208","street":{"id":1697638,"name":"On or near Sandringham Road"},"longitude":"0.018222"},"context":"","outcome_status":{"category":"Unable to prosecute suspect","date":"2025-07"},"persistent_id":"cb1fdfc7868ad906adefb6208dc97acf4cdc69c9c140b90835729ca1183e0632","id":130313100,"location_subtype":"","month":"2025-07"},{"category":"other-theft","location_type":"Force","location":{"latitude":"51.406895","street":{"id":1698731,"name":"On or near Widmore Road"},"longitude":"0.026449"},"context":"","outcome_status":{"category":"Unable to prosecute suspect","date":"2025-11"},"persistent_id":"6b4221bfb29b9e3424fa014d08028b95784077288560b8e52fa2c620f3cde520","id":130347239,"location_subtype":"","month":"2025-07"},{"category":"possession-of-weapons","location_type":"Force","location":{"latitude":"51.420192","street":{"id":1697559,"name":"On or near Brook Lane"},"longitude":"0.015156"},"context":"","outcome_status":{"category":"Status update unavailable","date":"2025-11"},"persistent_id":"9ea5369a953627611a41885393aa4ef43ca97b2bc2eb3810149f06bc2388be03","id":130328400,"location_subtype":"","month":"2025-07"},{"category":"possession-of-weapons","location_type":"Force","location":{"latitude":"51.424531","street":{"id":1697060,"name":"On or near Supermarket"},"longitude":"0.010715"},"context":"","outcome_status":{"category":"Court result unavailable","date":"2026-01"},"persistent_id":"a2f965aaaa1c3c0e9664d4aaa2c035377634bc9777cfb390ebf4125fc279c09c","id":130311353,"location_subtype":"","month":"2025-07"},{"category":"possession-of-weapons","location_type":"Force","location":{"latitude":"51.407083","street":{"id":1698224,"name":"On or near A222"},"longitude":"0.022833"},"context":"","outcome_status":{"category":"Court result unavailable","date":"2026-01"},"persistent_id":"9e7301feaae62555128656ad4d42ef778ff413952515ab9182ff7c78b511c0fb","id":130366395,"location_subtype":"","month":"2025-07"},{"category":"public-order","location_type":"Force","location":{"latitude":"51.406485","street":{"id":1697418,"name":"On or near Walters Yard"},"longitude":"0.013734"},"context":"","outcome_status":{"category":"Unable to prosecute suspect","date":"2025-10"},"persistent_id":"39a931572584dc6331258621795dff14bbac670e5ba6ab92e3f397bd152ad4b7","id":130340939,"location_subtype":"","month":"2025-07"},{"category":"public-order","location_type":"Force","location":{"latitude":"51.412228","street":{"id":1697589,"name":"On or near College Road"},"longitude":"0.014950"},"context":"","outcome_status":{"category":"Unable to prosecute suspect","date":"2025-11"},"persistent_id":"32fd0b2e93e1c9575c5d01e326a722129e5c69ab457d46bc603549d1ce285ff7","id":130327103,"location_subtype":"","month":"2025-07"},{"category":"public-order","location_type":"Force","location":{"latitude":"51.420192","street":{"id":1697559,"name":"On or near Brook Lane"},"longitude":"0.015156"},"context":"","outcome_status":{"category":"Status update unavailable","date":"2025-11"},"persistent_id":"82d772e14c2802fc3db58e01b5e5802d70ef08c3429054962bd8b183936707e5","id":130328402,"location_subtype":"","month":"2025-07"},{"category":"public-order","location_type":"Force","location":{"latitude":"51.399358","street":{"id":1697262,"name":"On or near Ludlow Close"},"longitude":"0.012415"},"context":"","outcome_status":{"category":"Unable to prosecute suspect","date":"2025-09"},"persistent_id":"f70a5da7777c38a11e28028fa12848ddf9e912a991a99abe22d4159331925412","id":130314650,"location_subtype":"","month":"2025-07"},{"category":"public-order","location_type":"Force","location":{"latitude":"51.403769","street":{"id":1697699,"name":"On or near Parking Area"},"longitude":"0.016850"},"context":"","outcome_status":{"category":"Local resolution","date":"2025-09"},"persistent_id":"fddd4a9823db064482646bedfba8ec50821e8d919e37571b9d400ea3fa03ea2a","id":130329272,"location_subtype":"","month":"2025-07"},{"category":"public-order","location_type":"Force","location":{"latitude":"51.407171","street":{"id":1697652,"name":"On or near East Street"},"longitude":"0.016194"},"context":"","outcome_status":{"category":"Status update unavailable","date":"2025-11"},"persistent_id":"7990fc0c7f76a8d2e81036f000069f2e823ea0e99a68d3cd3e8051dfc29fee38","id":130372314,"location_subtype":"","month":"2025-07"},{"category":"public-order","location_type":"Force","location":{"latitude":"51.403769","street":{"id":1697699,"name":"On or near Parking Area"},"longitude":"0.016850"},"context":"","outcome_status":{"category":"Unable to prosecute suspect","date":"2026-01"},"persistent_id":"db712f47a94c174b4b3e48933bb74eae126e1caa2d1b5fb5310d97c6e7a7c577","id":130360932,"location_subtype":"","month":"2025-07"},{"category":"public-order","location_type":"Force","location":{"latitude":"51.407171","street":{"id":1697652,"name":"On or near East Street"},"longitude":"0.016194"},"context":"","outcome_status":{"category":"Unable to prosecute suspect","date":"2025-09"},"persistent_id":"7990fc0c7f76a8d2e81036f000069f2e823ea0e99a68d3cd3e8051dfc29fee38","id":130372315,"location_subtype":"","month":"2025-07"},{"category":"public-order","location_type":"Force","location":{"latitude":"51.403769","street":{"id":1697699,"name":"On or near Parking Area"},"longitude":"0.016850"},"context":"","outcome_status":{"category":"Status update unavailable","date":"2025-11"},"persistent_id":"db712f47a94c174b4b3e48933bb74eae126e1caa2d1b5fb5310d97c6e7a7c577","id":130360931,"location_subtype":"","month":"2025-07"},{"category":"public-order","location_type":"Force","location":{"latitude":"51.406155","street":{"id":1697370,"name":"On or near Harmony Way"},"longitude":"0.012512"},"context":"","outcome_status":{"category":"Status update unavailable","date":"2025-11"},"persistent_id":"7a7c2c14fb1e5ee866adad45c260f1a84b268c3c749bf45b431cf7c73823e6d4","id":130360794,"location_subtype":"","month":"2025-07"},{"category":"public-order","location_type":"Force","location":{"latitude":"51.405758","street":{"id":1697573,"name":"On or near Market Square"},"longitude":"0.015169"},"context":"","outcome_status":{"category":"Investigation complete; no suspect identified","date":"2025-07"},"persistent_id":"392cf32b56763f0c7b4a7a132dada6b70c2dab6fd7dc6336468f915b83212c80","id":130360151,"location_subtype":"","month":"2025-07"},{"category":"public-order","location_type":"Force","location":{"latitude":"51.420901","street":{"id":1697333,"name":"On or near Sudbury Crescent"},"longitude":"0.013677"},"context":"","outcome_status":{"category":"Unable to prosecute suspect","date":"2025-12"},"persistent_id":"740e6797bccccac123bf7cab433c3d57752cc4938603424272a22c83b464a4ff","id":130330872,"location_subtype":"","month":"2025-07"},{"category":"public-order","location_type":"Force","location":{"latitude":"51.402185","street":{"id":1697667,"name":"On or near Shopping Area"},"longitude":"0.016909"},"context":"","outcome_status":{"category":"Investigation complete; no suspect identified","date":"2025-07"},"persistent_id":"d26a2080f762ec54c9782314350c0515de5fd0916cf2ef1afd4e134d3ddf9b72","id":130357088,"location_subtype":"","month":"2025-07"},{"category":"public-order","location_type":"Force","location":{"latitude":"51.424582","street":{"id":1697451,"name":"On or near Hillcrest Road"},"longitude":"0.015076"},"context":"","outcome_status":{"category":"Unable to prosecute suspect","date":"2025-09"},"persistent_id":"411bb61729e00875f62b21531deeca5d2b036120a75b54688ddf569e979916d7","id":130356177,"location_subtype":"","month":"2025-07"},{"category":"public-order","location_type":"Force","location":{"latitude":"51.424582","street":{"id":1697451,"name":"On or near Hillcrest Road"},"longitude":"0.015076"},"context":"","outcome_status":{"category":"Unable to prosecute suspect","date":"2025-10"},"persistent_id":"4d81db6a03c75790d7ed1d59d23909511c8c316da4e0e7dfc6c2a05f14a7db45","id":130354067,"location_subtype":"","month":"2025-07"},{"category":"public-order","location_type":"Force","location":{"latitude":"51.407676","street":{"id":1699056,"name":"On or near Plaxtol Close"},"longitude":"0.030150"},"context":"","outcome_status":{"category":"Unable to prosecute suspect","date":"2025-09"},"persistent_id":"4d0d85a827e088e36c1c30ebed33152a0a817ab33cb0c2a96c3e0e7178296aba","id":130374233,"location_subtype":"","month":"2025-07"},{"category":"public-order","location_type":"Force","location":{"latitude":"51.404040","street":{"id":1697624,"name":"On or near Shopping Area"},"longitude":"0.015237"},"context":"","outcome_status":{"category":"Investigation complete; no suspect identified","date":"2025-09"},"persistent_id":"586939896118039e24a972403d67648e9860ca77571767572aaa5ccb8a0f1445","id":130377502,"location_subtype":"","month":"2025-07"},{"category":"public-order","location_type":"Force","location":{"latitude":"51.403769","street":{"id":1697699,"name":"On or near Parking Area"},"longitude":"0.016850"},"context":"","outcome_status":{"category":"Investigation complete; no suspect identified","date":"2025-11"},"persistent_id":"7b864c528c79119d405b275051609fc209a411b5d505209b0bd800d488f532fb","id":130377714,"location_subtype":"","month":"2025-07"},{"category":"public-order","location_type":"Force","location":{"latitude":"51.408989","street":{"id":1697365,"name":"On or near Gordon Way"},"longitude":"0.012952"},"context":"","outcome_status":{"category":"Status update unavailable","date":"2025-11"},"persistent_id":"9b8ec8d63dfaa27cc35d573c2a466590434dea325fd70eca6b12bafb8b0a2598","id":130383344,"location_subtype":"","month":"2025-07"},{"category":"public-order","location_type":"Force","location":{"latitude":"51.403769","street":{"id":1697699,"name":"On or near Parking Area"},"longitude":"0.016850"},"context":"","outcome_status":{"category":"Investigation complete; no suspect identified","date":"2025-07"},"persistent_id":"fde5b8ff815df178403cf92cb2972d85ba980d0551545d9a1e7962e6744a7c8d","id":130343764,"location_subtype":"","month":"2025-07"},{"category":"public-order","location_type":"Force","location":{"latitude":"51.407171","street":{"id":1697652,"name":"On or near East Street"},"longitude":"0.016194"},"context":"","outcome_status":{"category":"Unable to prosecute suspect","date":"2025-07"},"persistent_id":"47ff92e56eade848327e7fb5c455dfde06577707db5d14ababf15c3caa668e0d","id":130386070,"location_subtype":"","month":"2025-07"},{"category":"public-order","location_type":"Force","location":{"latitude":"51.419587","street":{"id":1697675,"name":"On or near Albany Mews"},"longitude":"0.015834"},"context":"","outcome_status":{"category":"Unable to prosecute suspect","date":"2025-11"},"persistent_id":"337da6120a6b74fdee94efe75442f4d53a06b5a57e8b499d297001631bb928c7","id":130387615,"location_subtype":"","month":"2025-07"},{"category":"public-order","location_type":"Force","location":{"latitude":"51.403769","street":{"id":1697699,"name":"On or near Parking Area"},"longitude":"0.016850"},"context":"","outcome_status":{"category":"Status update unavailable","date":"2025-11"},"persistent_id":"fde5b8ff815df178403cf92cb2972d85ba980d0551545d9a1e7962e6744a7c8d","id":130343763,"location_subtype":"","month":"2025-07"},{"category":"public-order","location_type":"Force","location":{"latitude":"51.407171","street":{"id":1697652,"name":"On or near East Street"},"longitude":"0.016194"},"context":"","outcome_status":{"category":"Status update unavailable","date":"2025-11"},"persistent_id":"04217d895c897f493111175c7859b47ee5e41b4cb4301ef29be7eeda01ab6cb1","id":130342467,"location_subtype":"","month":"2025-07"},{"category":"public-order","location_type":"Force","location":{"latitude":"51.419056","street":{"id":1697015,"name":"On or near Avondale Road"},"longitude":"0.010605"},"context":"","outcome_status":{"category":"Investigation complete; no suspect identified","date":"2025-07"},"persistent_id":"6bb2851387948ad33b334d91bce44489c8ee88ef76cda3d10505713872e74c14","id":130355260,"location_subtype":"","month":"2025-07"},{"category":"public-order","location_type":"Force","location":{"latitude":"51.424582","street":{"id":1697451,"name":"On or near Hillcrest Road"},"longitude":"0.015076"},"context":"","outcome_status":{"category":"Unable to prosecute suspect","date":"2025-08"},"persistent_id":"0c6491473aabec5c0ee4f6c89c18f70dea913bd07f784c6acccf459e9a0ee981","id":130332936,"location_subtype":"","month":"2025-07"},{"category":"public-order","location_type":"Force","location":{"latitude":"51.419306","street":{"id":1696530,"name":"On or near Swiftsden Way"},"longitude":"0.004445"},"context":"","outcome_status":{"category":"Investigation complete; no suspect identified","date":"2025-08"},"persistent_id":"89b7d2eba03a0870c4bff8c13e0d2f67f95832892f7392661abc8c102000a166","id":130337586,"location_subtype":"","month":"2025-07"},{"category":"public-order","location_type":"Force","location":{"latitude":"51.403769","street":{"id":1697699,"name":"On or near Parking Area"},"longitude":"0.016850"},"context":"","outcome_status":{"category":"Court result unavailable","date":"2026-01"},"persistent_id":"e83e0463e69731126b0afb931634a095f63aaad7f6e5e9b3346f52ffe95901f6","id":130311354,"location_subtype":"","month":"2025-07"},{"category":"public-order","location_type":"Force","location":{"latitude":"51.422319","street":{"id":1697517,"name":"On or near Southover"},"longitude":"0.014344"},"context":"","outcome_status":{"category":"Unable to prosecute suspect","date":"2025-07"},"persistent_id":"8174928b8a512f0c1300c628b998e8b485ebca396aa5075f6d2226f583eee8ff","id":130346234,"location_subtype":"","month":"2025-07"},{"category":"public-order","location_type":"Force","location":{"latitude":"51.424582","street":{"id":1697451,"name":"On or near Hillcrest Road"},"longitude":"0.015076"},"context":"","outcome_status":{"category":"Status update unavailable","date":"2025-11"},"persistent_id":"686c30366ef7d1c109a7e19673d339058a6329443abff6c697926c42f13c4a63","id":130370230,"location_subtype":"","month":"2025-07"},{"category":"public-order","location_type":"Force","location":{"latitude":"51.405330","street":{"id":1697351,"name":"On or near Church Road"},"longitude":"0.012864"},"context":"","outcome_status":{"category":"Unable to prosecute suspect","date":"2025-07"},"persistent_id":"6f2323981eb7740687b3595e92da58ad738161502e23258a50a926de65f70355","id":130323963,"location_subtype":"","month":"2025-07"},{"category":"public-order","location_type":"Force","location":{"latitude":"51.405758","street":{"id":1697573,"name":"On or near Market Square"},"longitude":"0.015169"},"context":"","outcome_status":{"category":"Status update unavailable","date":"2025-11"},"persistent_id":"23de8af6e35fef18301f9807b83163fc12bce49abdbc8c97ee6fd206adf67c39","id":130341958,"location_subtype":"","month":"2025-07"},{"category":"public-order","location_type":"Force","location":{"latitude":"51.420620","street":{"id":1697859,"name":"On or near Roslin Way"},"longitude":"0.018498"},"context":"","outcome_status":{"category":"Status update unavailable","date":"2025-11"},"persistent_id":"774819dba9aa5b300ffef26ab0dcd9d549687269f0a3f9bd5d1c87c0a5b994eb","id":130369057,"location_subtype":"","month":"2025-07"},{"category":"public-order","location_type":"Force","location":{"latitude":"51.405270","street":{"id":1699385,"name":"On or near Lewes Road"},"longitude":"0.034098"},"context":"","outcome_status":{"category":"Investigation complete; no suspect identified","date":"2025-07"},"persistent_id":"da0d3a4c52e53265b2be22cf86748c02b9e4b55b0bbc15383aa1e78896edbbbc","id":130367948,"location_subtype":"","month":"2025-07"},{"category":"public-order","location_type":"Force","location":{"latitude":"51.405270","street":{"id":1699385,"name":"On or near Lewes Road"},"longitude":"0.034098"},"context":"","outcome_status":{"category":"Status update unavailable","date":"2025-11"},"persistent_id":"da0d3a4c52e53265b2be22cf86748c02b9e4b55b0bbc15383aa1e78896edbbbc","id":130367947,"location_subtype":"","month":"2025-07"},{"category":"public-order","location_type":"Force","location":{"latitude":"51.401683","street":{"id":1697610,"name":"On or near Ringer's Road"},"longitude":"0.015263"},"context":"","outcome_status":{"category":"Court result unavailable","date":"2026-01"},"persistent_id":"e440f569d01a2e6a285969f1576904e49d032da6cad56e4208f24bbc00381b7d","id":130316342,"location_subtype":"","month":"2025-07"},{"category":"public-order","location_type":"Force","location":{"latitude":"51.405330","street":{"id":1697351,"name":"On or near Church Road"},"longitude":"0.012864"},"context":"","outcome_status":{"category":"Unable to prosecute suspect","date":"2025-07"},"persistent_id":"10470fda5f0316eb60ddb44bb97595a03331c24f604e33a18cd408b119aaee34","id":130325395,"location_subtype":"","month":"2025-07"},{"category":"public-order","location_type":"Force","location":{"latitude":"51.403769","street":{"id":1697699,"name":"On or near Parking Area"},"longitude":"0.016850"},"context":"","outcome_status":{"category":"Unable to prosecute suspect","date":"2025-09"},"persistent_id":"77570042811e0597b3ac04555c683c3343dfb3aed5b7b2bf3f782c25547a2ec8","id":130341681,"location_subtype":"","month":"2025-07"},{"category":"public-order","location_type":"Force","location":{"latitude":"51.399089","street":{"id":1697893,"name":"On or near St Mark's Road"},"longitude":"0.018628"},"context":"","outcome_status":{"category":"Status update unavailable","date":"2025-11"},"persistent_id":"03d8d71096be3b0329d3eaad3ff1e5f8cd60b94f021bf6ef8c50676453f7804f","id":130365983,"location_subtype":"","month":"2025-07"},{"category":"robbery","location_type":"Force","location":{"latitude":"51.403492","street":{"id":1697158,"name":"On or near Mill Vale"},"longitude":"0.010497"},"context":"","outcome_status":{"category":"Investigation complete; no suspect identified","date":"2025-08"},"persistent_id":"9e3ffbc364d5c518b78a75fff449871bc7d98e022af5a7f4b509b8a5c02c045a","id":130389612,"location_subtype":"","month":"2025-07"},{"category":"robbery","location_type":"Force","location":{"latitude":"51.420518","street":{"id":1696389,"name":"On or near Arcus Road"},"longitude":"0.003491"},"context":"","outcome_status":{"category":"Investigation complete; no suspect identified","date":"2025-11"},"persistent_id":"2723b689126632c4a859266a1d50cdedd600dc6a86c1c22edda0117a8a25d838","id":130327592,"location_subtype":"","month":"2025-07"},{"category":"robbery","location_type":"Force","location":{"latitude":"51.401683","street":{"id":1697610,"name":"On or near Ringer's Road"},"longitude":"0.015263"},"context":"","outcome_status":{"category":"Status update unavailable","date":"2025-11"},"persistent_id":"8540b25963139c99fa2cfabf967638b0b67298a17d9005cea56d836b8ceab9b1","id":130338795,"location_subtype":"","month":"2025-07"},{"category":"robbery","location_type":"Force","location":{"latitude":"51.403765","street":{"id":1697482,"name":"On or near Theatre/concert Hall"},"longitude":"0.014448"},"context":"","outcome_status":{"category":"Status update unavailable","date":"2025-11"},"persistent_id":"8ff181ff3f7ecf22b458f4fe0c3df7e097beecce4935597ef1e6e250447f6346","id":130323672,"location_subtype":"","month":"2025-07"},{"category":"robbery","location_type":"Force","location":{"latitude":"51.404040","street":{"id":1697624,"name":"On or near Shopping Area"},"longitude":"0.015237"},"context":"","outcome_status":{"category":"Status update unavailable","date":"2025-11"},"persistent_id":"d90023baa660033b4a540885abb160ac154e54801c0603c98385f191115ccb4d","id":130351872,"location_subtype":"","month":"2025-07"},{"category":"robbery","location_type":"Force","location":{"latitude":"51.402185","street":{"id":1697667,"name":"On or near Shopping Area"},"longitude":"0.016909"},"context":"","outcome_status":{"category":"Investigation complete; no suspect identified","date":"2025-10"},"persistent_id":"ac4885833bad5d62f465d2f37a7dbc8bdebd6001609fcd48008e8a706a7ffc9a","id":130334056,"location_subtype":"","month":"2025-07"},{"category":"robbery","location_type":"Force","location":{"latitude":"51.403492","street":{"id":1697158,"name":"On or near Mill Vale"},"longitude":"0.010497"},"context":"","outcome_status":{"category":"Investigation complete; no suspect identified","date":"2025-08"},"persistent_id":"32a68b330708e7d16808da24553a51a085a0dee2f5e90eeb57e62f2c3e78b9c6","id":130340782,"location_subtype":"","month":"2025-07"},{"category":"robbery","location_type":"Force","location":{"latitude":"51.423631","street":{"id":1697210,"name":"On or near Pontefract Road"},"longitude":"0.011294"},"context":"","outcome_status":{"category":"Investigation complete; no suspect identified","date":"2025-11"},"persistent_id":"310b3ff524ca9b2ff91730f9ac178d1ccaec11af5b7e92a53c1737da84a5c6da","id":130356054,"location_subtype":"","month":"2025-07"},{"category":"robbery","location_type":"Force","location":{"latitude":"51.403601","street":{"id":1697602,"name":"On or near High Street"},"longitude":"0.015146"},"context":"","outcome_status":{"category":"Unable to prosecute suspect","date":"2025-08"},"persistent_id":"433a442e32c6019b188b7415a14fa72072bfd366c2a78da29376769c071ed30e","id":130370192,"location_subtype":"","month":"2025-07"},{"category":"robbery","location_type":"Force","location":{"latitude":"51.400999","street":{"id":1697787,"name":"On or near Elmfield Park"},"longitude":"0.017404"},"context":"","outcome_status":{"category":"Investigation complete; no suspect identified","date":"2025-08"},"persistent_id":"cf2b3cb5fb61fdb8331323a15ae0aec5f59bd5aa5e498f78eede1d80efb374f8","id":130381706,"location_subtype":"","month":"2025-07"},{"category":"robbery","location_type":"Force","location":{"latitude":"51.400999","street":{"id":1697787,"name":"On or near Elmfield Park"},"longitude":"0.017404"},"context":"","outcome_status":{"category":"Unable to prosecute suspect","date":"2025-08"},"persistent_id":"8214c46971ce0c4fe53478d0d0917bb8def00f375bc62dfee8a23c67e7562114","id":130390322,"location_subtype":"","month":"2025-07"},{"category":"shoplifting","location_type":"Force","location":{"latitude":"51.398579","street":{"id":1698011,"name":"On or near Masons Hill"},"longitude":"0.019540"},"context":"","outcome_status":{"category":"Awaiting court outcome","date":"2025-08"},"persistent_id":"27206488efc1c5a7c4280e5d66b3cbf1d3dc7f83ea8848317399807c5ad73ca5","id":130368185,"location_subtype":"","month":"2025-07"},{"category":"shoplifting","location_type":"Force","location":{"latitude":"51.403769","street":{"id":1697699,"name":"On or near Parking Area"},"longitude":"0.016850"},"context":"","outcome_status":{"category":"Local resolution","date":"2025-07"},"persistent_id":"2e71554b2569e73c4f0db180a488ac75c6bb2fd150266bbe51129f53b5940248","id":130350760,"location_subtype":"","month":"2025-07"},{"category":"shoplifting","location_type":"Force","location":{"latitude":"51.403601","street":{"id":1697602,"name":"On or near High Street"},"longitude":"0.015146"},"context":"","outcome_status":{"category":"Local resolution","date":"2025-07"},"persistent_id":"61d0e3a50be6d700213c2c3cf04abb80d22d497ede1e6b11132ea620aed65728","id":130314064,"location_subtype":"","month":"2025-07"},{"category":"shoplifting","location_type":"Force","location":{"latitude":"51.403769","street":{"id":1697699,"name":"On or near Parking Area"},"longitude":"0.016850"},"context":"","outcome_status":{"category":"Local resolution","date":"2025-09"},"persistent_id":"b3e26cb86aef1929748a80ad86904ad556b61fa0447215b657cec49f8b28551d","id":130361018,"location_subtype":"","month":"2025-07"},{"category":"shoplifting","location_type":"Force","location":{"latitude":"51.404040","street":{"id":1697624,"name":"On or near Shopping Area"},"longitude":"0.015237"},"context":"","outcome_status":{"category":"Investigation complete; no suspect identified","date":"2025-09"},"persistent_id":"340dbdb302bc1b193f967bc69c7638718fa450ab0016721fd06212297ee2c043","id":130361589,"location_subtype":"","month":"2025-07"},{"category":"shoplifting","location_type":"Force","location":{"latitude":"51.410269","street":{"id":1697147,"name":"On or near Longfield"},"longitude":"0.010708"},"context":"","outcome_status":{"category":"Awaiting court outcome","date":"2025-12"},"persistent_id":"a41496a3683476bc226ed2c2bc75de8c3b840993d637575eabe5069f25d8d89d","id":130322913,"location_subtype":"","month":"2025-07"},{"category":"shoplifting","location_type":"Force","location":{"latitude":"51.404040","street":{"id":1697624,"name":"On or near Shopping Area"},"longitude":"0.015237"},"context":"","outcome_status":{"category":"Unable to prosecute suspect","date":"2025-07"},"persistent_id":"b3843b459aba42a772bc131b1257463cf927d37c23b84d6a7634ec7cb6e16156","id":130361687,"location_subtype":"","month":"2025-07"},{"category":"shoplifting","location_type":"Force","location":{"latitude":"51.410269","street":{"id":1697147,"name":"On or near Longfield"},"longitude":"0.010708"},"context":"","outcome_status":{"category":"Status update unavailable","date":"2025-11"},"persistent_id":"37067f2c09523a7d2ef40de46eae72ff7f593804c4b0878e550fc2f138419626","id":130372502,"location_subtype":"","month":"2025-07"},{"category":"shoplifting","location_type":"Force","location":{"latitude":"51.402185","street":{"id":1697667,"name":"On or near Shopping Area"},"longitude":"0.016909"},"context":"","outcome_status":{"category":"Offender given a caution","date":"2025-09"},"persistent_id":"38d66a77a7f88c91d60ef30fedf8dc1fb05096815a3f11acc32d15707f42682f","id":130372887,"location_subtype":"","month":"2025-07"},{"category":"shoplifting","location_type":"Force","location":{"latitude":"51.403769","street":{"id":1697699,"name":"On or near Parking Area"},"longitude":"0.016850"},"context":"","outcome_status":{"category":"Awaiting court outcome","date":"2025-08"},"persistent_id":"76f2f648647c5ee8ffd5fac2ab5a25356c28ba15a1348bb114d3eddcc9f9f9fb","id":130313874,"location_subtype":"","month":"2025-07"},{"category":"shoplifting","location_type":"Force","location":{"latitude":"51.403769","street":{"id":1697699,"name":"On or near Parking Area"},"longitude":"0.016850"},"context":"","outcome_status":{"category":"Unable to prosecute suspect","date":"2026-01"},"persistent_id":"49f17a93afbf39f2b27c1063b484875b3900fc554921523df264c8206756e58d","id":130373265,"location_subtype":"","month":"2025-07"},{"category":"shoplifting","location_type":"Force","location":{"latitude":"51.410269","street":{"id":1697147,"name":"On or near Longfield"},"longitude":"0.010708"},"context":"","outcome_status":{"category":"Unable to prosecute suspect","date":"2025-08"},"persistent_id":"4e872a4fd46d34baaf4d6b3196314c0cf9a929269c8cbba51014792b64cd1a4a","id":130362602,"location_subtype":"","month":"2025-07"},{"category":"shoplifting","location_type":"Force","location":{"latitude":"51.403769","street":{"id":1697699,"name":"On or near Parking Area"},"longitude":"0.016850"},"context":"","outcome_status":{"category":"Investigation complete; no suspect identified","date":"2025-07"},"persistent_id":"72763ba822fd5b8fbd62a36c4314478d9fb8e8e8fae762f95c558b7b20ff6ac7","id":130375765,"location_subtype":"","month":"2025-07"},{"category":"shoplifting","location_type":"Force","location":{"latitude":"51.403769","street":{"id":1697699,"name":"On or near Parking Area"},"longitude":"0.016850"},"context":"","outcome_status":{"category":"Investigation complete; no suspect identified","date":"2025-10"},"persistent_id":"936a3119f4c20339c73b378efccd34b4a0dbf30d5139f2616d4f04c27c1f6e93","id":130344835,"location_subtype":"","month":"2025-07"},{"category":"shoplifting","location_type":"Force","location":{"latitude":"51.410269","street":{"id":1697147,"name":"On or near Longfield"},"longitude":"0.010708"},"context":"","outcome_status":{"category":"Investigation complete; no suspect identified","date":"2025-07"},"persistent_id":"2d190f1b7cf6d776eadc3add0bfebec336ba3965bd927698d00732abeb8b389e","id":130363321,"location_subtype":"","month":"2025-07"},{"category":"shoplifting","location_type":"Force","location":{"latitude":"51.410269","street":{"id":1697147,"name":"On or near Longfield"},"longitude":"0.010708"},"context":"","outcome_status":{"category":"Investigation complete; no suspect identified","date":"2025-07"},"persistent_id":"e6d51ebceffc2b9bcdc6ca722d5aaccfdc8ed873103bb841a75a665a22bf7826","id":130320056,"location_subtype":"","month":"2025-07"},{"category":"shoplifting","location_type":"Force","location":{"latitude":"51.402185","street":{"id":1697667,"name":"On or near Shopping Area"},"longitude":"0.016909"},"context":"","outcome_status":{"category":"Investigation complete; no suspect identified","date":"2025-07"},"persistent_id":"4ad649cdfbd91e18577b9cf8cc377a402c77f0fa03ff4ac73385de2f74af670c","id":130364009,"location_subtype":"","month":"2025-07"},{"category":"shoplifting","location_type":"Force","location":{"latitude":"51.404646","street":{"id":1697396,"name":"On or near Tetty Way"},"longitude":"0.013955"},"context":"","outcome_status":{"category":"Awaiting court outcome","date":"2025-10"},"persistent_id":"b43a41fb7cd8672442fc5746eca8f10b91c6041e2716a754d0716d193cc5ae7f","id":130364407,"location_subtype":"","month":"2025-07"},{"category":"shoplifting","location_type":"Force","location":{"latitude":"51.410269","street":{"id":1697147,"name":"On or near Longfield"},"longitude":"0.010708"},"context":"","outcome_status":{"category":"Investigation complete; no suspect identified","date":"2025-07"},"persistent_id":"74a9582d1aff2fddce79b8c446c85fb1c74065de22bffd630ca355244e177b77","id":130364860,"location_subtype":"","month":"2025-07"},{"category":"shoplifting","location_type":"Force","location":{"latitude":"51.403769","street":{"id":1697699,"name":"On or near Parking Area"},"longitude":"0.016850"},"context":"","outcome_status":{"category":"Investigation complete; no suspect identified","date":"2025-07"},"persistent_id":"a5daf6c62cd6107158c0ac4d95139c52a9890a77188202916f76afda1af62718","id":130379806,"location_subtype":"","month":"2025-07"},{"category":"shoplifting","location_type":"Force","location":{"latitude":"51.403769","street":{"id":1697699,"name":"On or near Parking Area"},"longitude":"0.016850"},"context":"","outcome_status":{"category":"Unable to prosecute suspect","date":"2025-09"},"persistent_id":"12ccf3fba5e293c4f850357f6d79bf2a9f1c2d54e58c2437085c7e61f0acad20","id":130380188,"location_subtype":"","month":"2025-07"},{"category":"shoplifting","location_type":"Force","location":{"latitude":"51.404646","street":{"id":1697396,"name":"On or near Tetty Way"},"longitude":"0.013955"},"context":"","outcome_status":{"category":"Unable to prosecute suspect","date":"2025-07"},"persistent_id":"028e7956a58759001eb091857b06b31bf59f01afb9299b49f7683fc0c61a913a","id":130326953,"location_subtype":"","month":"2025-07"},{"category":"shoplifting","location_type":"Force","location":{"latitude":"51.410269","street":{"id":1697147,"name":"On or near Longfield"},"longitude":"0.010708"},"context":"","outcome_status":{"category":"Investigation complete; no suspect identified","date":"2025-08"},"persistent_id":"550c23ba444c7f13c864ae3ef75295f5bd4571dca3c72676f4be60e896de79b5","id":130382159,"location_subtype":"","month":"2025-07"},