[{"category":"anti-social-behaviour","location_type":"Force","location":{"latitude":"51.494631","street":{"id":2277651,"name":"On or near Comb Paddock"},"longitude":"-2.609637"},"context":"","outcome_status":null,"persistent_id":"","id":132309131,"location_subtype":"","month":"2025-11"},{"category":"anti-social-behaviour","location_type":"Force","location":{"latitude":"51.509492","street":{"id":2276922,"name":"On or near Parking Area"},"longitude":"-2.621968"},"context":"","outcome_status":null,"persistent_id":"","id":132308549,"location_subtype":"","month":"2025-11"},{"category":"anti-social-behaviour","location_type":"Force","location":{"latitude":"51.506876","street":{"id":2278183,"name":"On or near Lanercost Road"},"longitude":"-2.601256"},"context":"","outcome_status":null,"persistent_id":"","id":132307890,"location_subtype":"","month":"2025-11"},{"category":"anti-social-behaviour","location_type":"Force","location":{"latitude":"51.493272","street":{"id":2277563,"name":"On or near Home Ground"},"longitude":"-2.609864"},"context":"","outcome_status":null,"persistent_id":"","id":132308002,"location_subtype":"","month":"2025-11"},{"category":"anti-social-behaviour","location_type":"Force","location":{"latitude":"51.495553","street":{"id":2276920,"name":"On or near Petrol Station"},"longitude":"-2.620741"},"context":"","outcome_status":null,"persistent_id":"","id":132308053,"location_subtype":"","month":"2025-11"},{"category":"anti-social-behaviour","location_type":"Force","location":{"latitude":"51.509212","street":{"id":2277457,"name":"On or near Brentry Lane"},"longitude":"-2.613593"},"context":"","outcome_status":null,"persistent_id":"","id":132308348,"location_subtype":"","month":"2025-11"},{"category":"anti-social-behaviour","location_type":"Force","location":{"latitude":"51.505346","street":{"id":2278172,"name":"On or near Keswick Walk"},"longitude":"-2.603239"},"context":"","outcome_status":null,"persistent_id":"","id":132308172,"location_subtype":"","month":"2025-11"},{"category":"anti-social-behaviour","location_type":"Force","location":{"latitude":"51.495076","street":{"id":2277085,"name":"On or near Westfield Road"},"longitude":"-2.619093"},"context":"","outcome_status":null,"persistent_id":"","id":132308202,"location_subtype":"","month":"2025-11"},{"category":"anti-social-behaviour","location_type":"Force","location":{"latitude":"51.504668","street":{"id":2278188,"name":"On or near Glencoyne Square"},"longitude":"-2.602207"},"context":"","outcome_status":null,"persistent_id":"","id":132308415,"location_subtype":"","month":"2025-11"},{"category":"anti-social-behaviour","location_type":"Force","location":{"latitude":"51.494339","street":{"id":2277342,"name":"On or near Trym Road"},"longitude":"-2.615626"},"context":"","outcome_status":null,"persistent_id":"","id":132308486,"location_subtype":"","month":"2025-11"},{"category":"anti-social-behaviour","location_type":"Force","location":{"latitude":"51.509077","street":{"id":2277701,"name":"On or near Fern Close"},"longitude":"-2.610277"},"context":"","outcome_status":null,"persistent_id":"","id":132308792,"location_subtype":"","month":"2025-11"},{"category":"anti-social-behaviour","location_type":"Force","location":{"latitude":"51.508228","street":{"id":2278442,"name":"On or near Easedale Close"},"longitude":"-2.598854"},"context":"","outcome_status":null,"persistent_id":"","id":132309789,"location_subtype":"","month":"2025-11"},{"category":"anti-social-behaviour","location_type":"Force","location":{"latitude":"51.507696","street":{"id":2277800,"name":"On or near Robin Close"},"longitude":"-2.607866"},"context":"","outcome_status":null,"persistent_id":"","id":132308642,"location_subtype":"","month":"2025-11"},{"category":"anti-social-behaviour","location_type":"Force","location":{"latitude":"51.513374","street":{"id":2277273,"name":"On or near Swanmoor Crescent"},"longitude":"-2.613836"},"context":"","outcome_status":null,"persistent_id":"","id":132309232,"location_subtype":"","month":"2025-11"},{"category":"anti-social-behaviour","location_type":"Force","location":{"latitude":"51.493272","street":{"id":2277563,"name":"On or near Home Ground"},"longitude":"-2.609864"},"context":"","outcome_status":null,"persistent_id":"","id":132309304,"location_subtype":"","month":"2025-11"},{"category":"anti-social-behaviour","location_type":"Force","location":{"latitude":"51.513374","street":{"id":2277273,"name":"On or near Swanmoor Crescent"},"longitude":"-2.613836"},"context":"","outcome_status":null,"persistent_id":"","id":132309484,"location_subtype":"","month":"2025-11"},{"category":"anti-social-behaviour","location_type":"Force","location":{"latitude":"51.502941","street":{"id":2277847,"name":"On or near Gosforth Road"},"longitude":"-2.607486"},"context":"","outcome_status":null,"persistent_id":"","id":132309411,"location_subtype":"","month":"2025-11"},{"category":"anti-social-behaviour","location_type":"Force","location":{"latitude":"51.503212","street":{"id":2278582,"name":"On or near Cranmore Crescent"},"longitude":"-2.596857"},"context":"","outcome_status":null,"persistent_id":"","id":132308794,"location_subtype":"","month":"2025-11"},{"category":"anti-social-behaviour","location_type":"Force","location":{"latitude":"51.509535","street":{"id":2277319,"name":"On or near Lower Knole Lane"},"longitude":"-2.615485"},"context":"","outcome_status":null,"persistent_id":"","id":132308808,"location_subtype":"","month":"2025-11"},{"category":"anti-social-behaviour","location_type":"Force","location":{"latitude":"51.499476","street":{"id":2278176,"name":"On or near Doncaster Road"},"longitude":"-2.602845"},"context":"","outcome_status":null,"persistent_id":"","id":132309733,"location_subtype":"","month":"2025-11"},{"category":"anti-social-behaviour","location_type":"Force","location":{"latitude":"51.505346","street":{"id":2278172,"name":"On or near Keswick Walk"},"longitude":"-2.603239"},"context":"","outcome_status":null,"persistent_id":"","id":132308674,"location_subtype":"","month":"2025-11"},{"category":"bicycle-theft","location_type":"Force","location":{"latitude":"51.513199","street":{"id":2276845,"name":"On or near Loveringe Close"},"longitude":"-2.623244"},"context":"","outcome_status":{"category":"Investigation complete; no suspect identified","date":"2025-12"},"persistent_id":"40a6d0bafd9b6bdc364ec653a93ebdc29ccfb06b5c4b7900600a2996ba0f429c","id":132315435,"location_subtype":"","month":"2025-11"},{"category":"bicycle-theft","location_type":"Force","location":{"latitude":"51.508830","street":{"id":2277039,"name":"On or near Priestwood Close"},"longitude":"-2.619668"},"context":"","outcome_status":{"category":"Investigation complete; no suspect identified","date":"2025-12"},"persistent_id":"c0f6704f74358bbc08bb8ab3be1022f979e3ff7922a6daa8c8740fa64ada44f7","id":132323651,"location_subtype":"","month":"2025-11"},{"category":"bicycle-theft","location_type":"Force","location":{"latitude":"51.505346","street":{"id":2278172,"name":"On or near Keswick Walk"},"longitude":"-2.603239"},"context":"","outcome_status":{"category":"Investigation complete; no suspect identified","date":"2025-11"},"persistent_id":"a3e2d36b26ed36fb91a0d6b510d20531ae7d09965dfe27314419cb949a79950e","id":132314494,"location_subtype":"","month":"2025-11"},{"category":"burglary","location_type":"Force","location":{"latitude":"51.507696","street":{"id":2277800,"name":"On or near Robin Close"},"longitude":"-2.607866"},"context":"","outcome_status":{"category":"Investigation complete; no suspect identified","date":"2026-01"},"persistent_id":"2f72360868bed7be05fa5f19cc6b8582fede65c1015b726dda9483fcf66fefb1","id":132312710,"location_subtype":"","month":"2025-11"},{"category":"burglary","location_type":"Force","location":{"latitude":"51.503533","street":{"id":2278213,"name":"On or near Arnside Road"},"longitude":"-2.602524"},"context":"","outcome_status":{"category":"Unable to prosecute suspect","date":"2025-11"},"persistent_id":"4599d2db5dc389d071607d2952bfaa66576ff22ccbded5eabec8761f062ec2d3","id":132310732,"location_subtype":"","month":"2025-11"},{"category":"burglary","location_type":"Force","location":{"latitude":"51.495450","street":{"id":2276799,"name":"On or near Merlin Close"},"longitude":"-2.623174"},"context":"","outcome_status":{"category":"Investigation complete; no suspect identified","date":"2025-11"},"persistent_id":"1bfdfaaead699652a7871294eec603a014ab8d3051b0d8364c4876380e834b7c","id":132323171,"location_subtype":"","month":"2025-11"},{"category":"burglary","location_type":"Force","location":{"latitude":"51.511802","street":{"id":2276913,"name":"On or near Peverell Court Lane"},"longitude":"-2.622158"},"context":"","outcome_status":{"category":"Under investigation","date":"2025-11"},"persistent_id":"381f41bbde3d3b6743797872da339936a7d77c965511c86d9fec74c62b07ccf4","id":132318221,"location_subtype":"","month":"2025-11"},{"category":"burglary","location_type":"Force","location":{"latitude":"51.512558","street":{"id":2276897,"name":"On or near Fitchett Walk"},"longitude":"-2.622039"},"context":"","outcome_status":{"category":"Under investigation","date":"2025-11"},"persistent_id":"af263ba868f8e8919f2af6b9c6826ad874c9ed90d40a7e556a2f6b31a7ec7a4c","id":132311184,"location_subtype":"","month":"2025-11"},{"category":"burglary","location_type":"Force","location":{"latitude":"51.514907","street":{"id":2276484,"name":"On or near Henbury"},"longitude":"-2.624982"},"context":"","outcome_status":{"category":"Investigation complete; no suspect identified","date":"2025-12"},"persistent_id":"d83290203d23df395bf5fcd284c323292dec236351cc78973ad59d7a31482e40","id":132321399,"location_subtype":"","month":"2025-11"},{"category":"burglary","location_type":"Force","location":{"latitude":"51.509212","street":{"id":2277457,"name":"On or near Brentry Lane"},"longitude":"-2.613593"},"context":"","outcome_status":{"category":"Investigation complete; no suspect identified","date":"2025-11"},"persistent_id":"71aec5330cecd57fafccc5bdb7c69336e7ae72669cef8f53f8e088a3929be0b3","id":132316070,"location_subtype":"","month":"2025-11"},{"category":"burglary","location_type":"Force","location":{"latitude":"51.499476","street":{"id":2278176,"name":"On or near Doncaster Road"},"longitude":"-2.602845"},"context":"","outcome_status":{"category":"Under investigation","date":"2025-11"},"persistent_id":"8b4485f0afa7218b63802229f3be37dfc88ff3210ad9b467e2db430f1abb75b5","id":132315766,"location_subtype":"","month":"2025-11"},{"category":"burglary","location_type":"Force","location":{"latitude":"51.506138","street":{"id":2277960,"name":"On or near Lowther Road"},"longitude":"-2.604762"},"context":"","outcome_status":{"category":"Investigation complete; no suspect identified","date":"2025-12"},"persistent_id":"e0b8739ea52fc1738f3345fd7e38f0323e6926638c2224b62ec9e22013824038","id":132318162,"location_subtype":"","month":"2025-11"},{"category":"burglary","location_type":"Force","location":{"latitude":"51.503533","street":{"id":2278213,"name":"On or near Arnside Road"},"longitude":"-2.602524"},"context":"","outcome_status":{"category":"Investigation complete; no suspect identified","date":"2025-11"},"persistent_id":"ab600827f828ac7d9cbbd74d5d474341db2a4903056ed73376da9f08243d11c2","id":132310797,"location_subtype":"","month":"2025-11"},{"category":"criminal-damage-arson","location_type":"Force","location":{"latitude":"51.511929","street":{"id":2276655,"name":"On or near Dowdeswell Close"},"longitude":"-2.627059"},"context":"","outcome_status":{"category":"Unable to prosecute suspect","date":"2025-11"},"persistent_id":"36aa9284c8d88139b36a666616ac670909cae31f74aa3dd800e6e5d91b6719d4","id":132317404,"location_subtype":"","month":"2025-11"},{"category":"criminal-damage-arson","location_type":"Force","location":{"latitude":"51.508228","street":{"id":2278442,"name":"On or near Easedale Close"},"longitude":"-2.598854"},"context":"","outcome_status":{"category":"Investigation complete; no suspect identified","date":"2025-11"},"persistent_id":"7dbd30b5eec049e1453cc2f9cee05cc14fddceca3b49857082599b797d2c01b3","id":132315265,"location_subtype":"","month":"2025-11"},{"category":"criminal-damage-arson","location_type":"Force","location":{"latitude":"51.511200","street":{"id":2276911,"name":"On or near Champneys Avenue"},"longitude":"-2.622020"},"context":"","outcome_status":{"category":"Investigation complete; no suspect identified","date":"2025-12"},"persistent_id":"c44b66f31902275de2a124c7981e807fd5e8c7ee2e1a51f3d93d323434fb375c","id":132320390,"location_subtype":"","month":"2025-11"},{"category":"criminal-damage-arson","location_type":"Force","location":{"latitude":"51.506778","street":{"id":2276413,"name":"On or near Church Lane"},"longitude":"-2.631801"},"context":"","outcome_status":{"category":"Investigation complete; no suspect identified","date":"2025-11"},"persistent_id":"5d96081a23e373cacf36469dc0d4ac165843e1d9a5f667ef7fc68465d6dded02","id":132315129,"location_subtype":"","month":"2025-11"},{"category":"criminal-damage-arson","location_type":"Force","location":{"latitude":"51.507696","street":{"id":2277800,"name":"On or near Robin Close"},"longitude":"-2.607866"},"context":"","outcome_status":{"category":"Investigation complete; no suspect identified","date":"2025-11"},"persistent_id":"3195889d9edda152adcbc6316873e3bd7cb0805bd23cda11f4ad7f0c0086bb4e","id":132311204,"location_subtype":"","month":"2025-11"},{"category":"criminal-damage-arson","location_type":"Force","location":{"latitude":"51.505238","street":{"id":2276473,"name":"On or near Trymwood Close"},"longitude":"-2.627198"},"context":"","outcome_status":{"category":"Investigation complete; no suspect identified","date":"2025-11"},"persistent_id":"edfb61607757320081be2196bbe1a0bdbc2536a4462ad91f2a3fbd02ff47d0af","id":132314057,"location_subtype":"","month":"2025-11"},{"category":"criminal-damage-arson","location_type":"Force","location":{"latitude":"51.499434","street":{"id":2278707,"name":"On or near Penrith Gardens"},"longitude":"-2.593437"},"context":"","outcome_status":{"category":"Unable to prosecute suspect","date":"2025-11"},"persistent_id":"21bb489343c43f81eb909b2a1d2beda2efcefcab1f98e91657a040ca9cdc2388","id":132313644,"location_subtype":"","month":"2025-11"},{"category":"criminal-damage-arson","location_type":"Force","location":{"latitude":"51.512558","street":{"id":2276897,"name":"On or near Fitchett Walk"},"longitude":"-2.622039"},"context":"","outcome_status":{"category":"Investigation complete; no suspect identified","date":"2025-11"},"persistent_id":"cc5a1acdaa3a8e0f485aaaef320d97c786734f1803ddadfff6a956b7ad67e14e","id":132312427,"location_subtype":"","month":"2025-11"},{"category":"criminal-damage-arson","location_type":"Force","location":{"latitude":"51.508228","street":{"id":2278442,"name":"On or near Easedale Close"},"longitude":"-2.598854"},"context":"","outcome_status":{"category":"Unable to prosecute suspect","date":"2025-11"},"persistent_id":"fb1619e9ee17cc4b69d3e64030ed18de39d188403f6c30b99bafa7727c7db6f2","id":132314291,"location_subtype":"","month":"2025-11"},{"category":"criminal-damage-arson","location_type":"Force","location":{"latitude":"51.508189","street":{"id":2278719,"name":"On or near Blandamour Way"},"longitude":"-2.594012"},"context":"","outcome_status":{"category":"Formal action is not in the public interest","date":"2025-11"},"persistent_id":"b24b6663d64a39dfa71f9e7d53a7182722c1da06e57a75300d197927e4c590f0","id":132311131,"location_subtype":"","month":"2025-11"},{"category":"criminal-damage-arson","location_type":"Force","location":{"latitude":"51.513374","street":{"id":2277273,"name":"On or near Swanmoor Crescent"},"longitude":"-2.613836"},"context":"","outcome_status":{"category":"Investigation complete; no suspect identified","date":"2025-12"},"persistent_id":"c27e68a9cdad342cd865456a25e3e61fb856560882505a37aff323caf6d89986","id":132320237,"location_subtype":"","month":"2025-11"},{"category":"criminal-damage-arson","location_type":"Force","location":{"latitude":"51.511061","street":{"id":2276558,"name":"On or near Station Road"},"longitude":"-2.629512"},"context":"","outcome_status":{"category":"Investigation complete; no suspect identified","date":"2025-11"},"persistent_id":"b741ff104fa096fab7c20b4eabaf69dff3da5733765902a671b7bbce6e97f0c1","id":132310682,"location_subtype":"","month":"2025-11"},{"category":"criminal-damage-arson","location_type":"Force","location":{"latitude":"51.513176","street":{"id":2276650,"name":"On or near Station Road"},"longitude":"-2.627422"},"context":"","outcome_status":{"category":"Unable to prosecute suspect","date":"2025-11"},"persistent_id":"63ec7ed29c631b71944479f7cdc73b1caa018f047cefd19132db498397951530","id":132310030,"location_subtype":"","month":"2025-11"},{"category":"criminal-damage-arson","location_type":"Force","location":{"latitude":"51.502375","street":{"id":2278545,"name":"On or near Westleigh Close"},"longitude":"-2.596846"},"context":"","outcome_status":{"category":"Investigation complete; no suspect identified","date":"2025-11"},"persistent_id":"996b306e096cd8ca0863b8d43fcf4e73ab8dc34bd51701a98a96958d7421be6b","id":132309955,"location_subtype":"","month":"2025-11"},{"category":"criminal-damage-arson","location_type":"Force","location":{"latitude":"51.511163","street":{"id":2276680,"name":"On or near Vaughan Close"},"longitude":"-2.623994"},"context":"","outcome_status":{"category":"Investigation complete; no suspect identified","date":"2025-11"},"persistent_id":"77b54c91686f7cbab6ffbda80a09deb3bcfde3579a96c8e35555cecade834413","id":132313308,"location_subtype":"","month":"2025-11"},{"category":"criminal-damage-arson","location_type":"Force","location":{"latitude":"51.511061","street":{"id":2276558,"name":"On or near Station Road"},"longitude":"-2.629512"},"context":"","outcome_status":{"category":"Investigation complete; no suspect identified","date":"2025-11"},"persistent_id":"74cbee1db25071fd797211f7951a01adf558aebf3c6b38ca8a359507494d9bfc","id":132310677,"location_subtype":"","month":"2025-11"},{"category":"criminal-damage-arson","location_type":"Force","location":{"latitude":"51.495076","street":{"id":2277085,"name":"On or near Westfield Road"},"longitude":"-2.619093"},"context":"","outcome_status":{"category":"Investigation complete; no suspect identified","date":"2025-11"},"persistent_id":"20a93562584c287ab09f081be3943d8c580877fdbea10638cd0ef9147ba58cd9","id":132312872,"location_subtype":"","month":"2025-11"},{"category":"criminal-damage-arson","location_type":"Force","location":{"latitude":"51.503265","street":{"id":2278136,"name":"On or near Supermarket"},"longitude":"-2.603361"},"context":"","outcome_status":{"category":"Investigation complete; no suspect identified","date":"2025-11"},"persistent_id":"aca85a0fa811a593031f4a4668ac42beb15017aebb363530dd04cc3b97d49b62","id":132312283,"location_subtype":"","month":"2025-11"},{"category":"criminal-damage-arson","location_type":"Force","location":{"latitude":"51.510412","street":{"id":2277497,"name":"On or near Bidwell Close"},"longitude":"-2.612960"},"context":"","outcome_status":{"category":"Investigation complete; no suspect identified","date":"2026-01"},"persistent_id":"5bdca59e8d9b76d577cb11fb49983118d4cd16e1d8b007120f604da5c4d2824c","id":132323991,"location_subtype":"","month":"2025-11"},{"category":"criminal-damage-arson","location_type":"Force","location":{"latitude":"51.503793","street":{"id":2278625,"name":"On or near Eastleigh Road"},"longitude":"-2.595755"},"context":"","outcome_status":{"category":"Investigation complete; no suspect identified","date":"2025-11"},"persistent_id":"3ee7278c07c9331754271e25a145ec591d46de8c5f308d2a4de16dba1069b0de","id":132318398,"location_subtype":"","month":"2025-11"},{"category":"criminal-damage-arson","location_type":"Force","location":{"latitude":"51.505381","street":{"id":2278319,"name":"On or near Mardale Close"},"longitude":"-2.599882"},"context":"","outcome_status":{"category":"Unable to prosecute suspect","date":"2025-11"},"persistent_id":"dbffd8e56a2fa8b23ef976116df7f0284d25bb9c7e8d569806f22871c3a430b8","id":132317901,"location_subtype":"","month":"2025-11"},{"category":"criminal-damage-arson","location_type":"Force","location":{"latitude":"51.496373","street":{"id":2277344,"name":"On or near Whytes Close"},"longitude":"-2.615206"},"context":"","outcome_status":{"category":"Unable to prosecute suspect","date":"2025-11"},"persistent_id":"a5fb71b614bf9d3f4f260650b18c50ba347ba53ffc15b885855454debb55b5df","id":132317501,"location_subtype":"","month":"2025-11"},{"category":"criminal-damage-arson","location_type":"Force","location":{"latitude":"51.503265","street":{"id":2278136,"name":"On or near Supermarket"},"longitude":"-2.603361"},"context":"","outcome_status":{"category":"Investigation complete; no suspect identified","date":"2025-12"},"persistent_id":"aef4839109baea6dab42c6c06c81504f0c9226b130d95bbf9cba78e6207acb8e","id":132323089,"location_subtype":"","month":"2025-11"},{"category":"criminal-damage-arson","location_type":"Force","location":{"latitude":"51.503793","street":{"id":2278625,"name":"On or near Eastleigh Road"},"longitude":"-2.595755"},"context":"","outcome_status":{"category":"Unable to prosecute suspect","date":"2025-12"},"persistent_id":"fade5ff44270b135c3b43f68242193b5351330e2954095f10813c8f26d5d2966","id":132323382,"location_subtype":"","month":"2025-11"},{"category":"criminal-damage-arson","location_type":"Force","location":{"latitude":"51.513149","street":{"id":2277913,"name":"On or near Trevisa Grove"},"longitude":"-2.605316"},"context":"","outcome_status":{"category":"Unable to prosecute suspect","date":"2025-12"},"persistent_id":"41c720f17030df8d73c0a1680c649e4d31ea01b40e1fbdad7cb61bdf32cce9a3","id":132324395,"location_subtype":"","month":"2025-11"},{"category":"criminal-damage-arson","location_type":"Force","location":{"latitude":"51.495450","street":{"id":2276799,"name":"On or near Merlin Close"},"longitude":"-2.623174"},"context":"","outcome_status":{"category":"Under investigation","date":"2025-11"},"persistent_id":"911c62c6a7a513a05bf20a4bd1408273f353887c089aba324d180b880dc3fc7e","id":132324264,"location_subtype":"","month":"2025-11"},{"category":"criminal-damage-arson","location_type":"Force","location":{"latitude":"51.499434","street":{"id":2278707,"name":"On or near Penrith Gardens"},"longitude":"-2.593437"},"context":"","outcome_status":{"category":"Further investigation is not in the public interest","date":"2025-12"},"persistent_id":"1ef8eda70b586c74dcab88ee9ee4e153320168780be69be4a2a68c7be46d0d8a","id":132323519,"location_subtype":"","month":"2025-11"},{"category":"criminal-damage-arson","location_type":"Force","location":{"latitude":"51.501819","street":{"id":2277934,"name":"On or near Greystoke Avenue"},"longitude":"-2.605469"},"context":"","outcome_status":{"category":"Unable to prosecute suspect","date":"2025-12"},"persistent_id":"053a0afafe1d9677ce556763cb07ddb6df029b8c4c09bb7cc9121ecc63a246bc","id":132320594,"location_subtype":"","month":"2025-11"},{"category":"criminal-damage-arson","location_type":"Force","location":{"latitude":"51.506529","street":{"id":2278648,"name":"On or near Pen Park Road"},"longitude":"-2.595085"},"context":"","outcome_status":{"category":"Investigation complete; no suspect identified","date":"2025-12"},"persistent_id":"32e6ff8ca8bbe374ea5307ebeabfc78456c664b13cd0912cee6e61232d775b4d","id":132318723,"location_subtype":"","month":"2025-11"},{"category":"criminal-damage-arson","location_type":"Force","location":{"latitude":"51.507696","street":{"id":2277800,"name":"On or near Robin Close"},"longitude":"-2.607866"},"context":"","outcome_status":{"category":"Investigation complete; no suspect identified","date":"2025-12"},"persistent_id":"5c0c459e5d6828c0175f8a2b2b304db6ec3cca8368f2bbd30262bdd680924cf4","id":132320791,"location_subtype":"","month":"2025-11"},{"category":"criminal-damage-arson","location_type":"Force","location":{"latitude":"51.496502","street":{"id":2277458,"name":"On or near Holmwood Gardens"},"longitude":"-2.612889"},"context":"","outcome_status":{"category":"Unable to prosecute suspect","date":"2025-12"},"persistent_id":"3071c63c8b3da1c83a5e190687caa34ccbc7ce8c1d9ababf517f77cfc0d1fc5e","id":132319631,"location_subtype":"","month":"2025-11"},{"category":"drugs","location_type":"Force","location":{"latitude":"51.499846","street":{"id":2278427,"name":"On or near Wilton Close"},"longitude":"-2.599248"},"context":"","outcome_status":{"category":"Further action is not in the public interest","date":"2025-11"},"persistent_id":"a9d8460249776a62d8178041558d2dedf0484546a98489644efcbefd16e28560","id":132318042,"location_subtype":"","month":"2025-11"},{"category":"drugs","location_type":"Force","location":{"latitude":"51.509492","street":{"id":2276922,"name":"On or near Parking Area"},"longitude":"-2.621968"},"context":"","outcome_status":{"category":"Awaiting court outcome","date":"2025-11"},"persistent_id":"d81a573ebed16de3407e4ba58894f8400ddc6a258386c99ab4cedc14740f6fd2","id":132312129,"location_subtype":"","month":"2025-11"},{"category":"drugs","location_type":"Force","location":{"latitude":"51.503265","street":{"id":2278136,"name":"On or near Supermarket"},"longitude":"-2.603361"},"context":"","outcome_status":{"category":"Further investigation is not in the public interest","date":"2025-11"},"persistent_id":"41bd0a04b67def42c9a998a1783fc93320c28232ed3ed25713a2f1aea86afd2a","id":132316927,"location_subtype":"","month":"2025-11"},{"category":"drugs","location_type":"Force","location":{"latitude":"51.499434","street":{"id":2278707,"name":"On or near Penrith Gardens"},"longitude":"-2.593437"},"context":"","outcome_status":{"category":"Formal action is not in the public interest","date":"2026-01"},"persistent_id":"562a247cd93cec47f57fdcacc276cb603d48ec41381059edc61c7a3eceb604fb","id":132319207,"location_subtype":"","month":"2025-11"},{"category":"drugs","location_type":"Force","location":{"latitude":"51.501496","street":{"id":2278445,"name":"On or near Charfield Road"},"longitude":"-2.598189"},"context":"","outcome_status":{"category":"Under investigation","date":"2025-11"},"persistent_id":"d5c5d9bff06dc8d86e6a093a62a03b4359014b58c0f0ef753f5728a5a0ebc2c7","id":132318056,"location_subtype":"","month":"2025-11"},{"category":"drugs","location_type":"Force","location":{"latitude":"51.509112","street":{"id":2278501,"name":"On or near Homeleaze Road"},"longitude":"-2.596531"},"context":"","outcome_status":{"category":"Under investigation","date":"2025-11"},"persistent_id":"d2b3a45e3c625d289ae5dc2d87f74be59291d84c7673151bf70233493a404b3c","id":132321160,"location_subtype":"","month":"2025-11"},{"category":"drugs","location_type":"Force","location":{"latitude":"51.501096","street":{"id":2277592,"name":"On or near Lorton Close"},"longitude":"-2.609493"},"context":"","outcome_status":{"category":"Awaiting court outcome","date":"2025-11"},"persistent_id":"20b79ae3517db529c2c5b8fc657fce88dc71278e9d79c3136a3ac82fb5ffd4d3","id":132317339,"location_subtype":"","month":"2025-11"},{"category":"other-theft","location_type":"Force","location":{"latitude":"51.506620","street":{"id":2276452,"name":"On or near Church Close"},"longitude":"-2.631021"},"context":"","outcome_status":{"category":"Investigation complete; no suspect identified","date":"2025-11"},"persistent_id":"7df4859bff882bfb4602927b4e879816abab2b6557fbeedc55ae5872c7fb5202","id":132311040,"location_subtype":"","month":"2025-11"},{"category":"other-theft","location_type":"Force","location":{"latitude":"51.500848","street":{"id":2278348,"name":"On or near Trowbridge Road"},"longitude":"-2.600053"},"context":"","outcome_status":{"category":"Investigation complete; no suspect identified","date":"2025-12"},"persistent_id":"446c5b25caac2a0976ec071d5eede56b40a0f97e97b88a4f819fc16f42e4fc17","id":132324424,"location_subtype":"","month":"2025-11"},{"category":"other-theft","location_type":"Force","location":{"latitude":"51.513070","street":{"id":2277187,"name":"On or near Tranmere Avenue"},"longitude":"-2.616959"},"context":"","outcome_status":{"category":"Investigation complete; no suspect identified","date":"2025-12"},"persistent_id":"4365207b4bb1717b8e5f1bdb4a759d5f7d3b4933e465599028968e253f900226","id":132322588,"location_subtype":"","month":"2025-11"},{"category":"other-theft","location_type":"Force","location":{"latitude":"51.504412","street":{"id":2278551,"name":"On or near Avondown Close"},"longitude":"-2.596037"},"context":"","outcome_status":{"category":"Investigation complete; no suspect identified","date":"2025-12"},"persistent_id":"e44fbdfa2e7731eb166fd1be193b45089bc461050df10ecea081cef7ccc0424e","id":132321326,"location_subtype":"","month":"2025-11"},{"category":"other-theft","location_type":"Force","location":{"latitude":"51.495977","street":{"id":2277776,"name":"On or near Lakewood Crescent"},"longitude":"-2.606731"},"context":"","outcome_status":{"category":"Unable to prosecute suspect","date":"2026-01"},"persistent_id":"91d30a2e5bd6d8343967833a7803e538c726ad117f40ebc959356a856fa93ef1","id":132312131,"location_subtype":"","month":"2025-11"},{"category":"other-theft","location_type":"Force","location":{"latitude":"51.513374","street":{"id":2277273,"name":"On or near Swanmoor Crescent"},"longitude":"-2.613836"},"context":"","outcome_status":{"category":"Unable to prosecute suspect","date":"2025-12"},"persistent_id":"d9a43887dfae0bb5c2086a2f97483ccd8f992a4e980e43eefb2ceec8c5abc5b9","id":132314997,"location_subtype":"","month":"2025-11"},{"category":"other-theft","location_type":"Force","location":{"latitude":"51.494631","street":{"id":2277651,"name":"On or near Comb Paddock"},"longitude":"-2.609637"},"context":"","outcome_status":{"category":"Investigation complete; no suspect identified","date":"2025-12"},"persistent_id":"37f962b650fe3dd1e42ff9260f0525eb6a86abbbc5830557f98e26399ee0caee","id":132315791,"location_subtype":"","month":"2025-11"},{"category":"other-theft","location_type":"Force","location":{"latitude":"51.498172","street":{"id":2278641,"name":"On or near Southmead Road"},"longitude":"-2.595985"},"context":"","outcome_status":{"category":"Investigation complete; no suspect identified","date":"2025-11"},"persistent_id":"bfc936be35c427a4a09d9eef10869fab4e7b52ebc00db2ab8f0b7a4d99430fe0","id":132317312,"location_subtype":"","month":"2025-11"},{"category":"other-theft","location_type":"Force","location":{"latitude":"51.500044","street":{"id":2278500,"name":"On or near Coleford Road"},"longitude":"-2.597406"},"context":"","outcome_status":{"category":"Investigation complete; no suspect identified","date":"2025-11"},"persistent_id":"a07b0390e1d2ed9ef88c5897b3a6c8f7fe1d3c557a645bba79709f2e0912a716","id":132321051,"location_subtype":"","month":"2025-11"},{"category":"other-theft","location_type":"Force","location":{"latitude":"51.507812","street":{"id":2278073,"name":"On or near Standon Way"},"longitude":"-2.604597"},"context":"","outcome_status":{"category":"Unable to prosecute suspect","date":"2025-11"},"persistent_id":"5c17735ee2b58540163be510d27331516b5860e5d3bc180c39656da7141263cc","id":132310134,"location_subtype":"","month":"2025-11"},{"category":"other-theft","location_type":"Force","location":{"latitude":"51.507812","street":{"id":2278073,"name":"On or near Standon Way"},"longitude":"-2.604597"},"context":"","outcome_status":{"category":"Unable to prosecute suspect","date":"2025-11"},"persistent_id":"7514003ddfd7bcb14c3a3532e668c0ad3fc9c66d0810d3a0ddb55042f7398f1b","id":132309986,"location_subtype":"","month":"2025-11"},{"category":"other-theft","location_type":"Force","location":{"latitude":"51.504193","street":{"id":2277697,"name":"On or near Ambleside Avenue"},"longitude":"-2.608742"},"context":"","outcome_status":{"category":"Investigation complete; no suspect identified","date":"2025-11"},"persistent_id":"20d3fd6e1e5d59a107f169c23c7f4c4000a833a1ac2bf84f2ecdfb36a4cef837","id":132310099,"location_subtype":"","month":"2025-11"},{"category":"other-theft","location_type":"Force","location":{"latitude":"51.503793","street":{"id":2278625,"name":"On or near Eastleigh Road"},"longitude":"-2.595755"},"context":"","outcome_status":{"category":"Formal action is not in the public interest","date":"2025-11"},"persistent_id":"b69befcc309fef3b7cc42ee4a7fd108c081051cc936fe219a1dbbcf9609f22b8","id":132321593,"location_subtype":"","month":"2025-11"},{"category":"other-theft","location_type":"Force","location":{"latitude":"51.497842","street":{"id":2277047,"name":"On or near Southover Close"},"longitude":"-2.619634"},"context":"","outcome_status":{"category":"Investigation complete; no suspect identified","date":"2025-11"},"persistent_id":"c92067b5c6cab6ee537772e9b02359c4e71089024c0598a50ba7c0c6a090c985","id":132313584,"location_subtype":"","month":"2025-11"},{"category":"other-theft","location_type":"Force","location":{"latitude":"51.513374","street":{"id":2277273,"name":"On or near Swanmoor Crescent"},"longitude":"-2.613836"},"context":"","outcome_status":{"category":"Under investigation","date":"2025-11"},"persistent_id":"40aa1218c18764a4c4b6eb9acb7b51c96b91966149d91681c3877184ebc982bc","id":132310862,"location_subtype":"","month":"2025-11"},{"category":"possession-of-weapons","location_type":"Force","location":{"latitude":"51.505999","street":{"id":2276868,"name":"On or near Richeson Walk"},"longitude":"-2.622684"},"context":"","outcome_status":{"category":"Unable to prosecute suspect","date":"2025-11"},"persistent_id":"99dccf637fa278c2002684283a661c719ceb58fed3782e8e7e2bacc77b3896eb","id":132316738,"location_subtype":"","month":"2025-11"},{"category":"public-order","location_type":"Force","location":{"latitude":"51.508228","street":{"id":2278442,"name":"On or near Easedale Close"},"longitude":"-2.598854"},"context":"","outcome_status":{"category":"Unable to prosecute suspect","date":"2025-12"},"persistent_id":"2219328e1f932a983eec7f8d83a82ae5fd611d504b3d643d610fe2cdffe6b761","id":132322141,"location_subtype":"","month":"2025-11"},{"category":"public-order","location_type":"Force","location":{"latitude":"51.509212","street":{"id":2277457,"name":"On or near Brentry Lane"},"longitude":"-2.613593"},"context":"","outcome_status":{"category":"Unable to prosecute suspect","date":"2025-12"},"persistent_id":"2776659fad890b458188a1101b65bd37b48e94d221a9083565a4d8b51fcfd8ff","id":132322861,"location_subtype":"","month":"2025-11"},{"category":"public-order","location_type":"Force","location":{"latitude":"51.514084","street":{"id":2277027,"name":"On or near Barnwell Close"},"longitude":"-2.617448"},"context":"","outcome_status":{"category":"Unable to prosecute suspect","date":"2025-12"},"persistent_id":"9d36b2688fc878b6f0386babc7261f0cd3da98a28060c19365a0b8b59fb2dfe6","id":132324743,"location_subtype":"","month":"2025-11"},{"category":"public-order","location_type":"Force","location":{"latitude":"51.509605","street":{"id":2276962,"name":"On or near Machin Road"},"longitude":"-2.620990"},"context":"","outcome_status":{"category":"Unable to prosecute suspect","date":"2025-11"},"persistent_id":"7f72052f4b6616f4119f95fc2ccb4f671afeb3e1bde100b4a3509ae6e1f7f979","id":132320364,"location_subtype":"","month":"2025-11"},{"category":"public-order","location_type":"Force","location":{"latitude":"51.505713","street":{"id":2278065,"name":"On or near Wigton Crescent"},"longitude":"-2.603561"},"context":"","outcome_status":{"category":"Awaiting court outcome","date":"2025-11"},"persistent_id":"7d488e574bffe11ccbe08e5763c5e5da4c9ab25a57fe65250dae5103b25fc64b","id":132322887,"location_subtype":"","month":"2025-11"},{"category":"public-order","location_type":"Force","location":{"latitude":"51.501096","street":{"id":2277592,"name":"On or near Lorton Close"},"longitude":"-2.609493"},"context":"","outcome_status":{"category":"Under investigation","date":"2025-11"},"persistent_id":"6d328a66a956dd5541375c7a488a22c54eec96b32297ce71874987670f55e968","id":132317692,"location_subtype":"","month":"2025-11"},{"category":"public-order","location_type":"Force","location":{"latitude":"51.508830","street":{"id":2277039,"name":"On or near Priestwood Close"},"longitude":"-2.619668"},"context":"","outcome_status":{"category":"Investigation complete; no suspect identified","date":"2025-12"},"persistent_id":"4f9cad585a6cffde27914e41b88559be4ded11f8667ee6cd43e9293c563929cd","id":132316915,"location_subtype":"","month":"2025-11"},{"category":"public-order","location_type":"Force","location":{"latitude":"51.506620","street":{"id":2276452,"name":"On or near Church Close"},"longitude":"-2.631021"},"context":"","outcome_status":{"category":"Unable to prosecute suspect","date":"2025-12"},"persistent_id":"4d6f953af23878bb4215c72ac40d0b6c3a5db88785059163c852b45c2293c4f3","id":132319263,"location_subtype":"","month":"2025-11"},{"category":"public-order","location_type":"Force","location":{"latitude":"51.502582","street":{"id":2278220,"name":"On or near Lilac Close"},"longitude":"-2.602223"},"context":"","outcome_status":{"category":"Unable to prosecute suspect","date":"2025-11"},"persistent_id":"422ea447cd2714fe4976f96bdc51c6bb2dca257cd1e43309f1d18dc35738e2eb","id":132323276,"location_subtype":"","month":"2025-11"},{"category":"public-order","location_type":"Force","location":{"latitude":"51.508830","street":{"id":2277039,"name":"On or near Priestwood Close"},"longitude":"-2.619668"},"context":"","outcome_status":{"category":"Unable to prosecute suspect","date":"2025-11"},"persistent_id":"da55df48a07187f333a316263a0a44a94fa27d01d7d0f87d85286a637f8361a7","id":132323663,"location_subtype":"","month":"2025-11"},{"category":"public-order","location_type":"Force","location":{"latitude":"51.498715","street":{"id":2277415,"name":"On or near Cricket Lane"},"longitude":"-2.614359"},"context":"","outcome_status":{"category":"Under investigation","date":"2025-11"},"persistent_id":"d291b2d457fa5f999eee2174fb766e214874131b7b1bf645297c7a7ee83eb587","id":132320142,"location_subtype":"","month":"2025-11"},{"category":"public-order","location_type":"Force","location":{"latitude":"51.494631","street":{"id":2277651,"name":"On or near Comb Paddock"},"longitude":"-2.609637"},"context":"","outcome_status":{"category":"Unable to prosecute suspect","date":"2025-12"},"persistent_id":"8be747325a04552d09f2221cc63540734d68d0e781ae7d4a0890bc81a0478024","id":132319574,"location_subtype":"","month":"2025-11"},{"category":"public-order","location_type":"Force","location":{"latitude":"51.504668","street":{"id":2278188,"name":"On or near Glencoyne Square"},"longitude":"-2.602207"},"context":"","outcome_status":{"category":"Under investigation","date":"2025-11"},"persistent_id":"14c67aa5bb88b78b04ca122d1f83d5b8e03df987ea99500115d4d47934915fa0","id":132316043,"location_subtype":"","month":"2025-11"},{"category":"public-order","location_type":"Force","location":{"latitude":"51.503265","street":{"id":2278136,"name":"On or near Supermarket"},"longitude":"-2.603361"},"context":"","outcome_status":{"category":"Investigation complete; no suspect identified","date":"2025-11"},"persistent_id":"ce54ab5df07378a0af884d01b1b69d51c19234a3dd31ac0c669a6a90cf718fcc","id":132320834,"location_subtype":"","month":"2025-11"},{"category":"public-order","location_type":"Force","location":{"latitude":"51.501985","street":{"id":2277527,"name":"On or near Concorde Drive"},"longitude":"-2.611479"},"context":"","outcome_status":{"category":"Action to be taken by another organisation","date":"2025-11"},"persistent_id":"80cf9897873d72363bba5410ebb5b9d4f63965595b7dfdefc2428c9227cc9b3d","id":132315073,"location_subtype":"","month":"2025-11"},{"category":"public-order","location_type":"Force","location":{"latitude":"51.516501","street":{"id":2278666,"name":"On or near Siddeley Close"},"longitude":"-2.595013"},"context":"","outcome_status":{"category":"Under investigation","date":"2025-11"},"persistent_id":"0c51b3b93a8adbaf4fa07d191ab7d7076621544d0a2229b732ddd94724ccf179","id":132315674,"location_subtype":"","month":"2025-11"},{"category":"public-order","location_type":"Force","location":{"latitude":"51.507696","street":{"id":2277800,"name":"On or near Robin Close"},"longitude":"-2.607866"},"context":"","outcome_status":{"category":"Under investigation","date":"2025-11"},"persistent_id":"0c51b3b93a8adbaf4fa07d191ab7d7076621544d0a2229b732ddd94724ccf179","id":132315673,"location_subtype":"","month":"2025-11"},{"category":"public-order","location_type":"Force","location":{"latitude":"51.495076","street":{"id":2277085,"name":"On or near Westfield Road"},"longitude":"-2.619093"},"context":"","outcome_status":{"category":"Under investigation","date":"2025-11"},"persistent_id":"9653b03a87dd30255aa593073d35c7670eca0f8056f12ec7cef398404d4cad44","id":132312308,"location_subtype":"","month":"2025-11"},{"category":"public-order","location_type":"Force","location":{"latitude":"51.507812","street":{"id":2278073,"name":"On or near Standon Way"},"longitude":"-2.604597"},"context":"","outcome_status":{"category":"Unable to prosecute suspect","date":"2025-12"},"persistent_id":"401cf820e9bd9cc69c8c4ec9dc67877108adf81339860f36eb540788f25b57e2","id":132314507,"location_subtype":"","month":"2025-11"},{"category":"robbery","location_type":"Force","location":{"latitude":"51.506778","street":{"id":2276413,"name":"On or near Church Lane"},"longitude":"-2.631801"},"context":"","outcome_status":{"category":"Investigation complete; no suspect identified","date":"2026-01"},"persistent_id":"758368ff5cc41cd2ff65c8c8db96ae82d8f98f2a4b146e51431b8e07e75a9a5e","id":132321439,"location_subtype":"","month":"2025-11"},{"category":"robbery","location_type":"Force","location":{"latitude":"51.518100","street":{"id":2276821,"name":"On or near Station Road"},"longitude":"-2.623008"},"context":"","outcome_status":{"category":"Investigation complete; no suspect identified","date":"2025-12"},"persistent_id":"a5f2e0bb77a3fbb261b2f7f410b0506690c7324fe2bdf4281c7b99fd49cced1a","id":132314439,"location_subtype":"","month":"2025-11"},{"category":"robbery","location_type":"Force","location":{"latitude":"51.513070","street":{"id":2277187,"name":"On or near Tranmere Avenue"},"longitude":"-2.616959"},"context":"","outcome_status":{"category":"Under investigation","date":"2025-11"},"persistent_id":"8f435c8960b8ed07e86755be23147cee431711c4c077a93fd3ef7ebe4b5f2962","id":132321355,"location_subtype":"","month":"2025-11"},{"category":"robbery","location_type":"Force","location":{"latitude":"51.507696","street":{"id":2277800,"name":"On or near Robin Close"},"longitude":"-2.607866"},"context":"","outcome_status":{"category":"Unable to prosecute suspect","date":"2026-01"},"persistent_id":"7aeda8eede0bd5a83c2f5e78614d635fbb4b4208a7ca3f35092a44791ebce5d2","id":132313595,"location_subtype":"","month":"2025-11"},{"category":"robbery","location_type":"Force","location":{"latitude":"51.503883","street":{"id":2278184,"name":"On or near Ullswater Road"},"longitude":"-2.602715"},"context":"","outcome_status":{"category":"Unable to prosecute suspect","date":"2025-12"},"persistent_id":"e6ebe80058859747e117f2faf5d1532979b72351eb68ff6f8e551d9d60cb012d","id":132313766,"location_subtype":"","month":"2025-11"},{"category":"robbery","location_type":"Force","location":{"latitude":"51.512047","street":{"id":2278478,"name":"On or near Rockstowes Way"},"longitude":"-2.597549"},"context":"","outcome_status":{"category":"Awaiting court outcome","date":"2025-12"},"persistent_id":"08fbef8a260c1e01c619ada199586be764f4e8b9c511dc657daf0d1b56acdbb8","id":132324197,"location_subtype":"","month":"2025-11"},{"category":"robbery","location_type":"Force","location":{"latitude":"51.503265","street":{"id":2278136,"name":"On or near Supermarket"},"longitude":"-2.603361"},"context":"","outcome_status":{"category":"Awaiting court outcome","date":"2025-12"},"persistent_id":"85c7242ec5f032d4edcbd98f2a12becf15b922efd8ce32e89d4d3913afac5f50","id":132321138,"location_subtype":"","month":"2025-11"},{"category":"robbery","location_type":"Force","location":{"latitude":"51.511061","street":{"id":2276558,"name":"On or near Station Road"},"longitude":"-2.629512"},"context":"","outcome_status":{"category":"Under investigation","date":"2025-11"},"persistent_id":"c13fbbf33546a46bdf512d196f0054b421af1d9ed594ef7a0af30da6d52f50fd","id":132322748,"location_subtype":"","month":"2025-11"},{"category":"shoplifting","location_type":"Force","location":{"latitude":"51.509605","street":{"id":2276962,"name":"On or near Machin Road"},"longitude":"-2.620990"},"context":"","outcome_status":{"category":"Awaiting court outcome","date":"2025-11"},"persistent_id":"214be06371285305eaf20e541efdfcfe9ab31d04568a69b1273f1945f0bb32b1","id":132311453,"location_subtype":"","month":"2025-11"},{"category":"shoplifting","location_type":"Force","location":{"latitude":"51.512047","street":{"id":2278478,"name":"On or near Rockstowes Way"},"longitude":"-2.597549"},"context":"","outcome_status":{"category":"Investigation complete; no suspect identified","date":"2025-12"},"persistent_id":"d6c2fbc2c094bd883c9d8586f2f687c618bf155e11be823d31763952e93ffa9e","id":132324582,"location_subtype":"","month":"2025-11"},{"category":"shoplifting","location_type":"Force","location":{"latitude":"51.503265","street":{"id":2278136,"name":"On or near Supermarket"},"longitude":"-2.603361"},"context":"","outcome_status":{"category":"Investigation complete; no suspect identified","date":"2025-12"},"persistent_id":"a302e821ccdc7c72bedec9debfcd781c9040b30647a0d89eaab264fbbea7a580","id":132315598,"location_subtype":"","month":"2025-11"},{"category":"shoplifting","location_type":"Force","location":{"latitude":"51.503265","street":{"id":2278136,"name":"On or near Supermarket"},"longitude":"-2.603361"},"context":"","outcome_status":{"category":"Investigation complete; no suspect identified","date":"2025-11"},"persistent_id":"cb921ab2d52470ac67c1d5841ff782a2dce5538fed11e7bcf6f11acad7fbc106","id":132316903,"location_subtype":"","month":"2025-11"},{"category":"shoplifting","location_type":"Force","location":{"latitude":"51.502582","street":{"id":2278220,"name":"On or near Lilac Close"},"longitude":"-2.602223"},"context":"","outcome_status":{"category":"Unable to prosecute suspect","date":"2025-11"},"persistent_id":"245d80ae15d21080ae88ddab2cb93fa66330fe75fe01af934a42ebd622053c1a","id":132312002,"location_subtype":"","month":"2025-11"},{"category":"shoplifting","location_type":"Force","location":{"latitude":"51.503265","street":{"id":2278136,"name":"On or near Supermarket"},"longitude":"-2.603361"},"context":"","outcome_status":{"category":"Investigation complete; no suspect identified","date":"2025-12"},"persistent_id":"088564d4a546a12b1805fe9cc77244348c6c0fef78b990399b23228afaa88ea9","id":132320095,"location_subtype":"","month":"2025-11"},{"category":"shoplifting","location_type":"Force","location":{"latitude":"51.502582","street":{"id":2278220,"name":"On or near Lilac Close"},"longitude":"-2.602223"},"context":"","outcome_status":{"category":"Awaiting court outcome","date":"2025-12"},"persistent_id":"95fdb1b54335df3e38e92f5469373b40c68ee8785176164350470fb9b8b46d3a","id":132313493,"location_subtype":"","month":"2025-11"},{"category":"shoplifting","location_type":"Force","location":{"latitude":"51.512047","street":{"id":2278478,"name":"On or near Rockstowes Way"},"longitude":"-2.597549"},"context":"","outcome_status":{"category":"Investigation complete; no suspect identified","date":"2025-11"},"persistent_id":"9d376e7d4ac554e117c064676a1a8e6e6c1e3793a6e0f26bef1292cc9d738110","id":132314722,"location_subtype":"","month":"2025-11"},{"category":"shoplifting","location_type":"Force","location":{"latitude":"51.503883","street":{"id":2278184,"name":"On or near Ullswater Road"},"longitude":"-2.602715"},"context":"","outcome_status":{"category":"Investigation complete; no suspect identified","date":"2025-11"},"persistent_id":"48911a68d1140b59d323c6099459109b278c1f76ec53a09500f999388f292cd5","id":132314521,"location_subtype":"","month":"2025-11"},{"category":"shoplifting","location_type":"Force","location":{"latitude":"51.503533","street":{"id":2278213,"name":"On or near Arnside Road"},"longitude":"-2.602524"},"context":"","outcome_status":{"category":"Investigation complete; no suspect identified","date":"2025-12"},"persistent_id":"5207abfca6f6db49c94abde00cc200359e37d2f783595ee98d8ef5b80076546c","id":132319784,"location_subtype":"","month":"2025-11"},{"category":"shoplifting","location_type":"Force","location":{"latitude":"51.509605","street":{"id":2276962,"name":"On or near Machin Road"},"longitude":"-2.620990"},"context":"","outcome_status":{"category":"Awaiting court outcome","date":"2025-12"},"persistent_id":"d39da314769fdc86025da294e58f310924acd86aeaacb6ebab0b1d4e0f384993","id":132315515,"location_subtype":"","month":"2025-11"},{"category":"shoplifting","location_type":"Force","location":{"latitude":"51.502582","street":{"id":2278220,"name":"On or near Lilac Close"},"longitude":"-2.602223"},"context":"","outcome_status":{"category":"Awaiting court outcome","date":"2025-12"},"persistent_id":"d14f001d3d5ffc8b69321c59dbd185e0a25e41fb06f06c1d2da45a555e900cc6","id":132319971,"location_subtype":"","month":"2025-11"},{"category":"shoplifting","location_type":"Force","location":{"latitude":"51.512047","street":{"id":2278478,"name":"On or near Rockstowes Way"},"longitude":"-2.597549"},"context":"","outcome_status":{"category":"Investigation complete; no suspect identified","date":"2025-11"},"persistent_id":"6bb9231e1fe4c51548baf893f8c62a930c8b82353b46f48a62b9af133e9d148e","id":132313949,"location_subtype":"","month":"2025-11"},{"category":"shoplifting","location_type":"Force","location":{"latitude":"51.507985","street":{"id":2276857,"name":"On or near Crow Lane"},"longitude":"-2.623057"},"context":"","outcome_status":{"category":"Investigation complete; no suspect identified","date":"2025-11"},"persistent_id":"1ed16886a52f7176e4e7a0943049bac39ee5172edd7936a15dc3c1fa73859800","id":132313744,"location_subtype":"","month":"2025-11"},{"category":"shoplifting","location_type":"Force","location":{"latitude":"51.512877","street":{"id":2278550,"name":"On or near Charlton Place"},"longitude":"-2.596854"},"context":"","outcome_status":{"category":"Investigation complete; no suspect identified","date":"2025-11"},"persistent_id":"d981b1f6191f5b98f64e9eee72c606c7af8a8e4bc8ed13b9bf33c2e5f41bd18d","id":132313734,"location_subtype":"","month":"2025-11"},{"category":"shoplifting","location_type":"Force","location":{"latitude":"51.503265","street":{"id":2278136,"name":"On or near Supermarket"},"longitude":"-2.603361"},"context":"","outcome_status":{"category":"Investigation complete; no suspect identified","date":"2025-12"},"persistent_id":"fd3260a9bafb3340a191c7eaadac3650f6e8f7a6ce434bb27c62ac6e09bd53cd","id":132322302,"location_subtype":"","month":"2025-11"},{"category":"shoplifting","location_type":"Force","location":{"latitude":"51.511061","street":{"id":2276558,"name":"On or near Station Road"},"longitude":"-2.629512"},"context":"","outcome_status":{"category":"Awaiting court outcome","date":"2025-12"},"persistent_id":"b7bb3a2bc069aa30a6b96d4373e2445bc37cb8e5a24e185e51d6d3499dd51562","id":132322832,"location_subtype":"","month":"2025-11"},{"category":"shoplifting","location_type":"Force","location":{"latitude":"51.502582","street":{"id":2278220,"name":"On or near Lilac Close"},"longitude":"-2.602223"},"context":"","outcome_status":{"category":"Awaiting court outcome","date":"2025-12"},"persistent_id":"b9dee4ce6812e263f9cd5f4e619648ea1097f1cb04747808974e2928d05281ac","id":132315944,"location_subtype":"","month":"2025-11"},{"category":"shoplifting","location_type":"Force","location":{"latitude":"51.503265","street":{"id":2278136,"name":"On or near Supermarket"},"longitude":"-2.603361"},"context":"","outcome_status":{"category":"Under investigation","date":"2025-11"},"persistent_id":"053aab7b80f45009b691c651d31ace266a4f54514a263acd631939aba41d7e5f","id":132316428,"location_subtype":"","month":"2025-11"},{"category":"shoplifting","location_type":"Force","location":{"latitude":"51.502582","street":{"id":2278220,"name":"On or near Lilac Close"},"longitude":"-2.602223"},"context":"","outcome_status":{"category":"Awaiting court outcome","date":"2025-12"},"persistent_id":"491f5717b3964ee0358b637a98ec169d71bb6c4cd4d9c5a8924b9efdc8facc4b","id":132321483,"location_subtype":"","month":"2025-11"},{"category":"shoplifting","location_type":"Force","location":{"latitude":"51.511061","street":{"id":2276558,"name":"On or near Station Road"},"longitude":"-2.629512"},"context":"","outcome_status":{"category":"Awaiting court outcome","date":"2025-11"},"persistent_id":"a2227dd27cf397bc2ce1a12a78f2986d43ca4a8931c4e4296dc65ff0c22025ea","id":132310911,"location_subtype":"","month":"2025-11"},{"category":"shoplifting","location_type":"Force","location":{"latitude":"51.511061","street":{"id":2276558,"name":"On or near Station Road"},"longitude":"-2.629512"},"context":"","outcome_status":{"category":"Awaiting court outcome","date":"2026-01"},"persistent_id":"445757e53f40ac84ca658686f7897d7c509acaa38cda44ba17626cd913c7e1f5","id":132319343,"location_subtype":"","month":"2025-11"},{"category":"shoplifting","location_type":"Force","location":{"latitude":"51.509605","street":{"id":2276962,"name":"On or near Machin Road"},"longitude":"-2.620990"},"context":"","outcome_status":{"category":"Awaiting court outcome","date":"2025-11"},"persistent_id":"f00cb7a793be6cf33304a07fe3be98df5f4e0b6595afbfaeec8351a6a69600da","id":132310877,"location_subtype":"","month":"2025-11"},{"category":"shoplifting","location_type":"Force","location":{"latitude":"51.511061","street":{"id":2276558,"name":"On or near Station Road"},"longitude":"-2.629512"},"context":"","outcome_status":{"category":"Awaiting court outcome","date":"2025-11"},"persistent_id":"b311afdede498d0cc1c647f8c669b5bfced6ab7b6606622e125fe8646940ad16","id":132311451,"location_subtype":"","month":"2025-11"},{"category":"shoplifting","location_type":"Force","location":{"latitude":"51.502582","street":{"id":2278220,"name":"On or near Lilac Close"},"longitude":"-2.602223"},"context":"","outcome_status":{"category":"Awaiting court outcome","date":"2025-11"},"persistent_id":"1645da46ad3cf27926929551ef8010c7bcf72fcb2fe8636d194b40ec8a690263","id":132310992,"location_subtype":"","month":"2025-11"},{"category":"shoplifting","location_type":"Force","location":{"latitude":"51.502582","street":{"id":2278220,"name":"On or near Lilac Close"},"longitude":"-2.602223"},"context":"","outcome_status":{"category":"Unable to prosecute suspect","date":"2025-12"},"persistent_id":"cc6b2da38694aec4e1eba06726aa69f9a9fd4aa55cb271ea43769eaea8d429ef","id":132318340,"location_subtype":"","month":"2025-11"},{"category":"shoplifting","location_type":"Force","location":{"latitude":"51.502582","street":{"id":2278220,"name":"On or near Lilac Close"},"longitude":"-2.602223"},"context":"","outcome_status":{"category":"Investigation complete; no suspect identified","date":"2025-12"},"persistent_id":"f12ac152867a72563637364c808fa887d82bf15d2813e99d2300676964147411","id":132321548,"location_subtype":"","month":"2025-11"},{"category":"shoplifting","location_type":"Force","location":{"latitude":"51.502582","street":{"id":2278220,"name":"On or near Lilac Close"},"longitude":"-2.602223"},"context":"","outcome_status":{"category":"Investigation complete; no suspect identified","date":"2025-11"},"persistent_id":"e2051e4dfc3358908b6ef86dc140d4f9e48532a72ede39ec9ba764911aaacdd1","id":132324436,"location_subtype":"","month":"2025-11"},{"category":"shoplifting","location_type":"Force","location":{"latitude":"51.519346","street":{"id":2276967,"name":"On or near Hazel Brook Gardens"},"longitude":"-2.620344"},"context":"","outcome_status":{"category":"Under investigation","date":"2025-11"},"persistent_id":"fca84d0972e9305b4639f1f4c07e3a6e2f0b3def993c44d5338350611421502a","id":132316496,"location_subtype":"","month":"2025-11"},{"category":"shoplifting","location_type":"Force","location":{"latitude":"51.503265","street":{"id":2278136,"name":"On or near Supermarket"},"longitude":"-2.603361"},"context":"","outcome_status":{"category":"Investigation complete; no suspect identified","date":"2025-11"},"persistent_id":"835589893bb2b84218ff7494b25726894fcf5ad6305d83a5ad653bf044f25425","id":132323461,"location_subtype":"","month":"2025-11"},{"category":"shoplifting","location_type":"Force","location":{"latitude":"51.502582","street":{"id":2278220,"name":"On or near Lilac Close"},"longitude":"-2.602223"},"context":"","outcome_status":{"category":"Awaiting court outcome","date":"2025-12"},"persistent_id":"8c3bcb19f6ddc16b9131ce77424d6501d4462aff944f395ba697c0aeb3944c9d","id":132316836,"location_subtype":"","month":"2025-11"},{"category":"shoplifting","location_type":"Force","location":{"latitude":"51.503265","street":{"id":2278136,"name":"On or near Supermarket"},"longitude":"-2.603361"},"context":"","outcome_status":{"category":"Investigation complete; no suspect identified","date":"2025-12"},"persistent_id":"f3a3dd64c5b1964c80099ea630a870614fae9c75dc0a1bf6f5345028aec12381","id":132322208,"location_subtype":"","month":"2025-11"},{"category":"shoplifting","location_type":"Force","location":{"latitude":"51.503265","street":{"id":2278136,"name":"On or near Supermarket"},"longitude":"-2.603361"},"context":"","outcome_status":{"category":"Under investigation","date":"2025-11"},"persistent_id":"c9a44249fc5b2e8ef20b061876570d9b89f7db451ccefae79d88e565314bebd0","id":132321233,"location_subtype":"","month":"2025-11"},{"category":"shoplifting","location_type":"Force","location":{"latitude":"51.509605","street":{"id":2276962,"name":"On or near Machin Road"},"longitude":"-2.620990"},"context":"","outcome_status":{"category":"Under investigation","date":"2025-11"},"persistent_id":"2222aec7a7f83516ee0141d6ddbdfd3d9b2773bd8c674837639dcf214f54ef11","id":132318916,"location_subtype":"","month":"2025-11"},{"category":"shoplifting","location_type":"Force","location":{"latitude":"51.503265","street":{"id":2278136,"name":"On or near Supermarket"},"longitude":"-2.603361"},"context":"","outcome_status":{"category":"Investigation complete; no suspect identified","date":"2025-12"},"persistent_id":"10df70ae7e4af155e0f48124d9728485fa842845eb644ed4f338ae2999a0f936","id":132323442,"location_subtype":"","month":"2025-11"},{"category":"shoplifting","location_type":"Force","location":{"latitude":"51.503265","street":{"id":2278136,"name":"On or near Supermarket"},"longitude":"-2.603361"},"context":"","outcome_status":{"category":"Investigation complete; no suspect identified","date":"2025-11"},"persistent_id":"4316b57d6154434d7fc07930f000c4c31f0db55a9210806b48ff2e1100dc71bb","id":132321852,"location_subtype":"","month":"2025-11"},{"category":"shoplifting","location_type":"Force","location":{"latitude":"51.502582","street":{"id":2278220,"name":"On or near Lilac Close"},"longitude":"-2.602223"},"context":"","outcome_status":{"category":"Awaiting court outcome","date":"2025-12"},"persistent_id":"721d55a69dba3bf763f82d4a29eea8cd2badbe1f56bf2c38c0e8e7bc4182eeac","id":132319968,"location_subtype":"","month":"2025-11"},{"category":"shoplifting","location_type":"Force","location":{"latitude":"51.512047","street":{"id":2278478,"name":"On or near Rockstowes Way"},"longitude":"-2.597549"},"context":"","outcome_status":{"category":"Investigation complete; no suspect identified","date":"2025-12"},"persistent_id":"14f51ad3270b20d79a39c449c7ac3bfc1de5f09aa1e664c5fb92e5e8fd434218","id":132317510,"location_subtype":"","month":"2025-11"},{"category":"shoplifting","location_type":"Force","location":{"latitude":"51.502582","street":{"id":2278220,"name":"On or near Lilac Close"},"longitude":"-2.602223"},"context":"","outcome_status":{"category":"Unable to prosecute suspect","date":"2025-11"},"persistent_id":"fdac31db1cc6908ef766a259700b3320dd61788b76cd3f486023b7ada97d493a","id":132319464,"location_subtype":"","month":"2025-11"},{"category":"shoplifting","location_type":"Force","location":{"latitude":"51.502582","street":{"id":2278220,"name":"On or near Lilac Close"},"longitude":"-2.602223"},"context":"","outcome_status":{"category":"Investigation complete; no suspect identified","date":"2025-11"},"persistent_id":"9fe40c19cd1c4d58bb150cd1e62fb0d26999f312f0385780917ac6eca1c6c822","id":132318333,"location_subtype":"","month":"2025-11"},{"category":"shoplifting","location_type":"Force","location":{"latitude":"51.509605","street":{"id":2276962,"name":"On or near Machin Road"},"longitude":"-2.620990"},"context":"","outcome_status":{"category":"Awaiting court outcome","date":"2026-01"},"persistent_id":"693b4065cf58fc47d2d8a1128f8c7c8874cbcb146d35f07ab3b92ace47ec5136","id":132318367,"location_subtype":"","month":"2025-11"},{"category":"shoplifting","location_type":"Force","location":{"latitude":"51.502582","street":{"id":2278220,"name":"On or near Lilac Close"},"longitude":"-2.602223"},"context":"","outcome_status":{"category":"Investigation complete; no suspect identified","date":"2025-11"},"persistent_id":"88546340c017bce447ff36b3346a88afabe09f5d9c8e91d53544a53d5bd14ace","id":132318327,"location_subtype":"","month":"2025-11"},{"category":"shoplifting","location_type":"Force","location":{"latitude":"51.502582","street":{"id":2278220,"name":"On or near Lilac Close"},"longitude":"-2.602223"},"context":"","outcome_status":{"category":"Investigation complete; no suspect identified","date":"2025-11"},"persistent_id":"0d3962e018f6c1234ec723ac73b0cec883254f0a0aa2a0661b295f37044a7dda","id":132318325,"location_subtype":"","month":"2025-11"},{"category":"shoplifting","location_type":"Force","location":{"latitude":"51.509605","street":{"id":2276962,"name":"On or near Machin Road"},"longitude":"-2.620990"},"context":"","outcome_status":{"category":"Under investigation","date":"2025-11"},"persistent_id":"8e91bdff074c008ce5786274befbbd295dd5315502583dc70e6a6ab3282c5539","id":132318847,"location_subtype":"","month":"2025-11"},{"category":"shoplifting","location_type":"Force","location":{"latitude":"51.502582","street":{"id":2278220,"name":"On or near Lilac Close"},"longitude":"-2.602223"},"context":"","outcome_status":{"category":"Awaiting court outcome","date":"2025-11"},"persistent_id":"8dee248a8b14054cffafc8ca204fa2a183cd751be0ba68e19196e37a8b139700","id":132310821,"location_subtype":"","month":"2025-11"},{"category":"shoplifting","location_type":"Force","location":{"latitude":"51.512047","street":{"id":2278478,"name":"On or near Rockstowes Way"},"longitude":"-2.597549"},"context":"","outcome_status":{"category":"Investigation complete; no suspect identified","date":"2025-11"},"persistent_id":"aacba7570dff3d99d1aac4fe1bee8be544c6ef02b0ac383d73966f392df74856","id":132313539,"location_subtype":"","month":"2025-11"},{"category":"shoplifting","location_type":"Force","location":{"latitude":"51.519346","street":{"id":2276967,"name":"On or near Hazel Brook Gardens"},"longitude":"-2.620344"},"context":"","outcome_status":{"category":"Investigation complete; no suspect identified","date":"2025-12"},"persistent_id":"792660fb599f355cb16fd5132cb067796519a234eb094b871326353a55a4f609","id":132323526,"location_subtype":"","month":"2025-11"},{"category":"shoplifting","location_type":"Force","location":{"latitude":"51.511061","street":{"id":2276558,"name":"On or near Station Road"},"longitude":"-2.629512"},"context":"","outcome_status":{"category":"Investigation complete; no suspect identified","date":"2025-12"},"persistent_id":"44fe075bbeeef4d262abcffa61581e8db2008bff01ead52ffe3119df2dc82dfc","id":132323070,"location_subtype":"","month":"2025-11"},{"category":"shoplifting","location_type":"Force","location":{"latitude":"51.502582","street":{"id":2278220,"name":"On or near Lilac Close"},"longitude":"-2.602223"},"context":"","outcome_status":{"category":"Awaiting court outcome","date":"2025-12"},"persistent_id":"02be9bd2943533c2c0d4499516c03b6b9eb1d37e378037fc9a9168183f8bb8f5","id":132322981,"location_subtype":"","month":"2025-11"},{"category":"shoplifting","location_type":"Force","location":{"latitude":"51.519346","street":{"id":2276967,"name":"On or near Hazel Brook Gardens"},"longitude":"-2.620344"},"context":"","outcome_status":{"category":"Investigation complete; no suspect identified","date":"2025-11"},"persistent_id":"27077a3e4337b385feb9cf2d9c859923146bf4624f9a2e7091c9663c7d39a15e","id":132311848,"location_subtype":"","month":"2025-11"},{"category":"shoplifting","location_type":"Force","location":{"latitude":"51.502582","street":{"id":2278220,"name":"On or near Lilac Close"},"longitude":"-2.602223"},"context":"","outcome_status":{"category":"Investigation complete; no suspect identified","date":"2025-12"},"persistent_id":"61cddb4855211998bf8411b0c31a6dc65d20b642090ef8704416cb5ea1a4ece4","id":132322909,"location_subtype":"","month":"2025-11"},{"category":"shoplifting","location_type":"Force","location":{"latitude":"51.503265","street":{"id":2278136,"name":"On or near Supermarket"},"longitude":"-2.603361"},"context":"","outcome_status":{"category":"Investigation complete; no suspect identified","date":"2025-12"},"persistent_id":"45f9e24321f302e36e022dda915147a355a2b837b6589d6a47e0b02adc5e116f","id":132324518,"location_subtype":"","month":"2025-11"},{"category":"shoplifting","location_type":"Force","location":{"latitude":"51.511061","street":{"id":2276558,"name":"On or near Station Road"},"longitude":"-2.629512"},"context":"","outcome_status":{"category":"Awaiting court outcome","date":"2025-12"},"persistent_id":"aafc4da1fc2038fa1560299bdd6e3cdec8ba7e07761f93e7886da1cf82c61817","id":132322201,"location_subtype":"","month":"2025-11"},{"category":"shoplifting","location_type":"Force","location":{"latitude":"51.502582","street":{"id":2278220,"name":"On or near Lilac Close"},"longitude":"-2.602223"},"context":"","outcome_status":{"category":"Awaiting court outcome","date":"2025-12"},"persistent_id":"73437e7a2bdd38b8d9fc23b5f30d7a2fc8e6cda7efa3fca6b5dbce8d681dae46","id":132319441,"location_subtype":"","month":"2025-11"},{"category":"shoplifting","location_type":"Force","location":{"latitude":"51.507985","street":{"id":2276857,"name":"On or near Crow Lane"},"longitude":"-2.623057"},"context":"","outcome_status":{"category":"Investigation complete; no suspect identified","date":"2025-11"},"persistent_id":"3f64c6b380e3a789e0c7154628a12798ec1760583b878f64010a77e235ebf137","id":132318508,"location_subtype":"","month":"2025-11"},{"category":"shoplifting","location_type":"Force","location":{"latitude":"51.502582","street":{"id":2278220,"name":"On or near Lilac Close"},"longitude":"-2.602223"},"context":"","outcome_status":{"category":"Awaiting court outcome","date":"2025-12"},"persistent_id":"fecf4e3328f483401cf568067b4a7baad435da4e17c0050fe31d3428ff29d623","id":132315603,"location_subtype":"","month":"2025-11"},{"category":"shoplifting","location_type":"Force","location":{"latitude":"51.519346","street":{"id":2276967,"name":"On or near Hazel Brook Gardens"},"longitude":"-2.620344"},"context":"","outcome_status":{"category":"Investigation complete; no suspect identified","date":"2025-12"},"persistent_id":"66ad8b92de0e7f0c566d8800ba1bc20001ca65c27c0be8f66925f404200317db","id":132322337,"location_subtype":"","month":"2025-11"},{"category":"shoplifting","location_type":"Force","location":{"latitude":"51.509605","street":{"id":2276962,"name":"On or near Machin Road"},"longitude":"-2.620990"},"context":"","outcome_status":{"category":"Unable to prosecute suspect","date":"2025-11"},"persistent_id":"0e50907bd86b14b4e21708fe39ce7b3611d61b43c952e8898948355b25e5b2d9","id":132312482,"location_subtype":"","month":"2025-11"},{"category":"shoplifting","location_type":"Force","location":{"latitude":"51.502582","street":{"id":2278220,"name":"On or near Lilac Close"},"longitude":"-2.602223"},"context":"","outcome_status":{"category":"Awaiting court outcome","date":"2025-12"},"persistent_id":"4562facde94ad9a54361a44b97b85ea049de232f117abc03636078b078663fbf","id":132312341,"location_subtype":"","month":"2025-11"},{"category":"shoplifting","location_type":"Force","location":{"latitude":"51.503265","street":{"id":2278136,"name":"On or near Supermarket"},"longitude":"-2.603361"},"context":"","outcome_status":{"category":"Investigation complete; no suspect identified","date":"2025-11"},"persistent_id":"292aec67c1395f34839252f3ec96b65b52d5d21c467d124adddf86b21434ec70","id":132316426,"location_subtype":"","month":"2025-11"},{"category":"shoplifting","location_type":"Force","location":{"latitude":"51.502582","street":{"id":2278220,"name":"On or near Lilac Close"},"longitude":"-2.602223"},"context":"","outcome_status":{"category":"Investigation complete; no suspect identified","date":"2025-12"},"persistent_id":"658ee3ed52deb3f26e012c16df43061351b498c03cbfdb37ca96177c5f785c36","id":132323930,"location_subtype":"","month":"2025-11"},{"category":"shoplifting","location_type":"Force","location":{"latitude":"51.512047","street":{"id":2278478,"name":"On or near Rockstowes Way"},"longitude":"-2.597549"},"context":"","outcome_status":{"category":"Investigation complete; no suspect identified","date":"2025-12"},"persistent_id":"ce118147b77c544b44b42e40b357b55ad4d07cfb540c81a8db52ea26bca73bed","id":132314247,"location_subtype":"","month":"2025-11"},{"category":"shoplifting","location_type":"Force","location":{"latitude":"51.503265","street":{"id":2278136,"name":"On or near Supermarket"},"longitude":"-2.603361"},"context":"","outcome_status":{"category":"Investigation complete; no suspect identified","date":"2025-12"},"persistent_id":"0cf3ae2207e04efb09ae5768dc9bf60ed4ad9f1ccff79c3f60369e0deef427ca","id":132319902,"location_subtype":"","month":"2025-11"},{"category":"theft-from-the-person","location_type":"Force","location":{"latitude":"51.510380","street":{"id":2277159,"name":"On or near Ardenton Walk"},"longitude":"-2.617355"},"context":"","outcome_status":{"category":"Investigation complete; no suspect identified","date":"2025-11"},"persistent_id":"c32c173deab4cc4e3cd288aa716bf9968a1db239932b3c7234fb8cfd654a59d2","id":132311067,"location_subtype":"","month":"2025-11"},{"category":"vehicle-crime","location_type":"Force","location":{"latitude":"51.506309","street":{"id":2277834,"name":"On or near Twenty Acres Road"},"longitude":"-2.608280"},"context":"","outcome_status":{"category":"Under investigation","date":"2025-11"},"persistent_id":"3e2d08adfd12073b8d8901b3b222991eb133b488643a4d01a67ffa961700d3ec","id":132322358,"location_subtype":"","month":"2025-11"},{"category":"vehicle-crime","location_type":"Force","location":{"latitude":"51.511086","street":{"id":2278271,"name":"On or near Sturmy Close"},"longitude":"-2.600779"},"context":"","outcome_status":{"category":"Investigation complete; no suspect identified","date":"2025-12"},"persistent_id":"c2a0f425b2e470085e9dedfbeaeab13fccf739d763bd85b7fca40927b1e4b0c4","id":132318235,"location_subtype":"","month":"2025-11"},{"category":"vehicle-crime","location_type":"Force","location":{"latitude":"51.506079","street":{"id":2278743,"name":"On or near Davidson Road"},"longitude":"-2.593465"},"context":"","outcome_status":{"category":"Investigation complete; no suspect identified","date":"2025-12"},"persistent_id":"d5bc3bf7fbeeed5ba5b3fc236223aa67e8e150823cdde58eb110f91ec5b9299d","id":132319329,"location_subtype":"","month":"2025-11"},{"category":"vehicle-crime","location_type":"Force","location":{"latitude":"51.496373","street":{"id":2277344,"name":"On or near Whytes Close"},"longitude":"-2.615206"},"context":"","outcome_status":{"category":"Investigation complete; no suspect identified","date":"2025-11"},"persistent_id":"100454c2002efe98d73d04b8697e1c975cc36738f2745c94ce5d31233c0b915c","id":132317424,"location_subtype":"","month":"2025-11"},{"category":"vehicle-crime","location_type":"Force","location":{"latitude":"51.514041","street":{"id":2276779,"name":"On or near Tormarton Crescent"},"longitude":"-2.623860"},"context":"","outcome_status":{"category":"Investigation complete; no suspect identified","date":"2025-11"},"persistent_id":"5706059384937c70d6e24bfffbac5c64b23eabd22b451719c34b2ab3788edc29","id":132321615,"location_subtype":"","month":"2025-11"},{"category":"vehicle-crime","location_type":"Force","location":{"latitude":"51.506004","street":{"id":2277485,"name":"On or near Royal Victoria Park"},"longitude":"-2.611518"},"context":"","outcome_status":{"category":"Investigation complete; no suspect identified","date":"2025-12"},"persistent_id":"7cfc50cfbc08bbc60a53dc3779b03e6f961336a892c9d0510ee939a084180a41","id":132315476,"location_subtype":"","month":"2025-11"},{"category":"vehicle-crime","location_type":"Force","location":{"latitude":"51.506529","street":{"id":2278648,"name":"On or near Pen Park Road"},"longitude":"-2.595085"},"context":"","outcome_status":{"category":"Investigation complete; no suspect identified","date":"2025-11"},"persistent_id":"b08fa2cebd492dbe1afaac99ebbb7882afdb701c63f4bb8e5e34cbdc13f6b4f3","id":132312271,"location_subtype":"","month":"2025-11"},{"category":"vehicle-crime","location_type":"Force","location":{"latitude":"51.501252","street":{"id":2277773,"name":"On or near Lorton Road"},"longitude":"-2.609063"},"context":"","outcome_status":{"category":"Investigation complete; no suspect identified","date":"2025-11"},"persistent_id":"02a1bb23cb5195d39a3af955361beec367ae61e35114a58d8bc52a21cea3dd09","id":132321052,"location_subtype":"","month":"2025-11"},{"category":"vehicle-crime","location_type":"Force","location":{"latitude":"51.503585","street":{"id":2277835,"name":"On or near Gosforth Close"},"longitude":"-2.608258"},"context":"","outcome_status":{"category":"Investigation complete; no suspect identified","date":"2025-11"},"persistent_id":"69b497ced4c40b6bda14b671babfe8fb297d921f090687a1d44ffd238c0191b9","id":132321236,"location_subtype":"","month":"2025-11"},{"category":"vehicle-crime","location_type":"Force","location":{"latitude":"51.513551","street":{"id":2278439,"name":"On or near Bensaunt Grove"},"longitude":"-2.598765"},"context":"","outcome_status":{"category":"Investigation complete; no suspect identified","date":"2025-11"},"persistent_id":"629f5cbce8c9100578e62d676f982e83e80e209ae80c42d5ee2101d5d399000f","id":132318220,"location_subtype":"","month":"2025-11"},{"category":"vehicle-crime","location_type":"Force","location":{"latitude":"51.500863","street":{"id":2278655,"name":"On or near Shetland Road"},"longitude":"-2.595371"},"context":"","outcome_status":{"category":"Investigation complete; no suspect identified","date":"2025-12"},"persistent_id":"b4d89e823b2aa15626e5be2c01709881a66912205878fde74a6cde1cd89e3f7e","id":132321768,"location_subtype":"","month":"2025-11"},{"category":"vehicle-crime","location_type":"Force","location":{"latitude":"51.521744","street":{"id":2277405,"name":"On or near Catbrain Hill"},"longitude":"-2.612378"},"context":"","outcome_status":{"category":"Investigation complete; no suspect identified","date":"2025-11"},"persistent_id":"7c57e3c3bec4db437df3bf4e513cdf091a8a3581a5670a2d2e682eb6231765ce","id":132321863,"location_subtype":"","month":"2025-11"},{"category":"vehicle-crime","location_type":"Force","location":{"latitude":"51.512892","street":{"id":2278403,"name":"On or near Turnbridge Close"},"longitude":"-2.599217"},"context":"","outcome_status":{"category":"Investigation complete; no suspect identified","date":"2026-01"},"persistent_id":"06c3e0fc9f25f40dbee9a0e7fc2d422c913a24ea8d88abffb2216050877a19f9","id":132319949,"location_subtype":"","month":"2025-11"},{"category":"vehicle-crime","location_type":"Force","location":{"latitude":"51.505381","street":{"id":2278319,"name":"On or near Mardale Close"},"longitude":"-2.599882"},"context":"","outcome_status":{"category":"Investigation complete; no suspect identified","date":"2025-11"},"persistent_id":"916f728c53a1f7383b1c31a23027d63ab4e77765376e91a67a8f0c4bcfc286bb","id":132313500,"location_subtype":"","month":"2025-11"},{"category":"vehicle-crime","location_type":"Force","location":{"latitude":"51.506004","street":{"id":2277485,"name":"On or near Royal Victoria Park"},"longitude":"-2.611518"},"context":"","outcome_status":{"category":"Investigation complete; no suspect identified","date":"2025-11"},"persistent_id":"d0c10d9eebf560090345d53b3f40215003af014ce8e294419f476a3d067a8910","id":132313978,"location_subtype":"","month":"2025-11"},{"category":"vehicle-crime","location_type":"Force","location":{"latitude":"51.503585","street":{"id":2277835,"name":"On or near Gosforth Close"},"longitude":"-2.608258"},"context":"","outcome_status":{"category":"Investigation complete; no suspect identified","date":"2025-11"},"persistent_id":"fd6532710b859f0d783574986c54cf71cbae77abe14afe8d6242dd2d54d7bcab","id":132314012,"location_subtype":"","month":"2025-11"},{"category":"vehicle-crime","location_type":"Force","location":{"latitude":"51.493272","street":{"id":2277563,"name":"On or near Home Ground"},"longitude":"-2.609864"},"context":"","outcome_status":{"category":"Investigation complete; no suspect identified","date":"2025-11"},"persistent_id":"e6fb52f5b821e19b02e9d14aa3f22b7ef6f5acda104807e761c62e3259c90662","id":132314172,"location_subtype":"","month":"2025-11"},{"category":"vehicle-crime","location_type":"Force","location":{"latitude":"51.499476","street":{"id":2278176,"name":"On or near Doncaster Road"},"longitude":"-2.602845"},"context":"","outcome_status":{"category":"Investigation complete; no suspect identified","date":"2025-11"},"persistent_id":"44e143e2177749d77f4089d78f5d6a961cd0c4ccd63be2ee8d20ffd862ba7d67","id":132316357,"location_subtype":"","month":"2025-11"},{"category":"vehicle-crime","location_type":"Force","location":{"latitude":"51.506004","street":{"id":2277485,"name":"On or near Royal Victoria Park"},"longitude":"-2.611518"},"context":"","outcome_status":{"category":"Investigation complete; no suspect identified","date":"2025-11"},"persistent_id":"aa3acf4cf93de29373dda0cbef6e8318e5a7378f464448f2a762b360c8ba00c8","id":132316545,"location_subtype":"","month":"2025-11"},{"category":"vehicle-crime","location_type":"Force","location":{"latitude":"51.503812","street":{"id":2278509,"name":"On or near Ringwood Crescent"},"longitude":"-2.597326"},"context":"","outcome_status":{"category":"Investigation complete; no suspect identified","date":"2025-11"},"persistent_id":"3fab93445cbc94c972917a613e3818c8fe0250c83e75cd7eac29db0586476e43","id":132311767,"location_subtype":"","month":"2025-11"},{"category":"vehicle-crime","location_type":"Force","location":{"latitude":"51.503360","street":{"id":2278896,"name":"On or near Felstead Road"},"longitude":"-2.590722"},"context":"","outcome_status":{"category":"Investigation complete; no suspect identified","date":"2025-11"},"persistent_id":"09f5f70098ecf7847772823ed5f0d49dfbd6ee0813ebf858315d0b17aae50d67","id":132311816,"location_subtype":"","month":"2025-11"},{"category":"vehicle-crime","location_type":"Force","location":{"latitude":"51.501096","street":{"id":2277592,"name":"On or near Lorton Close"},"longitude":"-2.609493"},"context":"","outcome_status":{"category":"Investigation complete; no suspect identified","date":"2025-12"},"persistent_id":"3585d7dabf3810e7fc498e5bfaca6e0ee9149e0e253c602eb0df28045ac6c009","id":132318266,"location_subtype":"","month":"2025-11"},{"category":"vehicle-crime","location_type":"Force","location":{"latitude":"51.512877","street":{"id":2278550,"name":"On or near Charlton Place"},"longitude":"-2.596854"},"context":"","outcome_status":{"category":"Investigation complete; no suspect identified","date":"2025-12"},"persistent_id":"c8e8e54ba151fa4c532fcbb7354612d7d01953694156db8fbb2a56b41c91092e","id":132318961,"location_subtype":"","month":"2025-11"},{"category":"vehicle-crime","location_type":"Force","location":{"latitude":"51.512386","street":{"id":2278258,"name":"On or near Redshelf Walk"},"longitude":"-2.601459"},"context":"","outcome_status":{"category":"Investigation complete; no suspect identified","date":"2025-12"},"persistent_id":"dd5f34f145e823028132accb222c0cd67ca967902aee91cc34e6218cb5fdd827","id":132318785,"location_subtype":"","month":"2025-11"},{"category":"vehicle-crime","location_type":"Force","location":{"latitude":"51.503360","street":{"id":2278896,"name":"On or near Felstead Road"},"longitude":"-2.590722"},"context":"","outcome_status":{"category":"Investigation complete; no suspect identified","date":"2025-12"},"persistent_id":"71d131848bcdd9a2288d9a0791902552035be04e44c548e087e089e8f59cfe9e","id":132318768,"location_subtype":"","month":"2025-11"},{"category":"vehicle-crime","location_type":"Force","location":{"latitude":"51.509112","street":{"id":2278501,"name":"On or near Homeleaze Road"},"longitude":"-2.596531"},"context":"","outcome_status":{"category":"Investigation complete; no suspect identified","date":"2025-12"},"persistent_id":"8a3077b36e2baf27321450e66b5db1d2c6d01d56c96c97004c5ac9491476925c","id":132318413,"location_subtype":"","month":"2025-11"},{"category":"vehicle-crime","location_type":"Force","location":{"latitude":"51.512892","street":{"id":2278403,"name":"On or near Turnbridge Close"},"longitude":"-2.599217"},"context":"","outcome_status":{"category":"Investigation complete; no suspect identified","date":"2026-01"},"persistent_id":"eae0e684a7b5be28aa169a3d04b8f14a48d972019273010d03e02e9f0fb4abed","id":132318610,"location_subtype":"","month":"2025-11"},{"category":"violent-crime","location_type":"Force","location":{"latitude":"51.503533","street":{"id":2278213,"name":"On or near Arnside Road"},"longitude":"-2.602524"},"context":"","outcome_status":{"category":"Unable to prosecute suspect","date":"2025-12"},"persistent_id":"1c06fee62f9ad5089f40ddd8f1a97b96b2c4f20e20bf1cec2220ae07523fb167","id":132319643,"location_subtype":"","month":"2025-11"},{"category":"violent-crime","location_type":"Force","location":{"latitude":"51.507704","street":{"id":2276896,"name":"On or near Ellsworth Road"},"longitude":"-2.621699"},"context":"","outcome_status":{"category":"Under investigation","date":"2025-11"},"persistent_id":"2c56ba9f0fbd095017d87dbd497f8a7c4491655454a4975a8c9c725097976060","id":132323415,"location_subtype":"","month":"2025-11"},{"category":"violent-crime","location_type":"Force","location":{"latitude":"51.509535","street":{"id":2277319,"name":"On or near Lower Knole Lane"},"longitude":"-2.615485"},"context":"","outcome_status":{"category":"Unable to prosecute suspect","date":"2025-11"},"persistent_id":"824c8dca9fa98870e7c851a1637759af8520c252f296255a8da4212c02a341ec","id":132318168,"location_subtype":"","month":"2025-11"},{"category":"violent-crime","location_type":"Force","location":{"latitude":"51.506876","street":{"id":2278183,"name":"On or near Lanercost Road"},"longitude":"-2.601256"},"context":"","outcome_status":{"category":"Further investigation is not in the public interest","date":"2025-11"},"persistent_id":"6d09e474f7566b1f50dcc03ea06213c443e5991cda0ed75422bbc50844bcdfe6","id":132311909,"location_subtype":"","month":"2025-11"},{"category":"violent-crime","location_type":"Force","location":{"latitude":"51.509927","street":{"id":2277906,"name":"On or near Forest Drive"},"longitude":"-2.605908"},"context":"","outcome_status":{"category":"Unable to prosecute suspect","date":"2025-11"},"persistent_id":"71730ced0be516e21e7975110f85db88bde434c56526654a6f59db4a8e587691","id":132312649,"location_subtype":"","month":"2025-11"},{"category":"violent-crime","location_type":"Force","location":{"latitude":"51.512852","street":{"id":2277836,"name":"On or near Okebourne Close"},"longitude":"-2.607056"},"context":"","outcome_status":{"category":"Unable to prosecute suspect","date":"2025-11"},"persistent_id":"bf278a47b6eff2dc963a40f1b16a14ebe9071f0b9d27258ade7f56a31b39834b","id":132318263,"location_subtype":"","month":"2025-11"},{"category":"violent-crime","location_type":"Force","location":{"latitude":"51.493272","street":{"id":2277563,"name":"On or near Home Ground"},"longitude":"-2.609864"},"context":"","outcome_status":{"category":"Unable to prosecute suspect","date":"2025-12"},"persistent_id":"1650857d187a646ef47e132e763b956d9a80f9caf2d5160b301e5859f12699cf","id":132319199,"location_subtype":"","month":"2025-11"},{"category":"violent-crime","location_type":"Force","location":{"latitude":"51.500044","street":{"id":2278500,"name":"On or near Coleford Road"},"longitude":"-2.597406"},"context":"","outcome_status":{"category":"Investigation complete; no suspect identified","date":"2026-01"},"persistent_id":"1dd5eb9ae8bcaba25270de64283e9e7989d59ccc1c7747326a5af1ed71d23861","id":132318862,"location_subtype":"","month":"2025-11"},{"category":"violent-crime","location_type":"Force","location":{"latitude":"51.493852","street":{"id":2277898,"name":"On or near Vintery Leys"},"longitude":"-2.607250"},"context":"","outcome_status":{"category":"Under investigation","date":"2025-11"},"persistent_id":"1852695f5f07c3c86c928d8bdff1bac613b8d8a063fad0da59b8d8fb47f3c64c","id":132322499,"location_subtype":"","month":"2025-11"},{"category":"violent-crime","location_type":"Force","location":{"latitude":"51.513070","street":{"id":2277187,"name":"On or near Tranmere Avenue"},"longitude":"-2.616959"},"context":"","outcome_status":{"category":"Under investigation","date":"2025-11"},"persistent_id":"6ea2e7a395de08a5344efa6d532d36b5abcccec5f2d3ee1c4d8652505200cbf2","id":132318343,"location_subtype":"","month":"2025-11"},{"category":"violent-crime","location_type":"Force","location":{"latitude":"51.506619","street":{"id":2276559,"name":"On or near Rectory Gardens"},"longitude":"-2.629594"},"context":"","outcome_status":{"category":"Further action is not in the public interest","date":"2025-12"},"persistent_id":"fbc27f874a5f4515068e199cf281eafcd97afe7b11239bc63025eaefb5fe9bae","id":132318146,"location_subtype":"","month":"2025-11"},{"category":"violent-crime","location_type":"Force","location":{"latitude":"51.500601","street":{"id":2278848,"name":"On or near Supermarket"},"longitude":"-2.592098"},"context":"","outcome_status":{"category":"Under investigation","date":"2025-11"},"persistent_id":"6743daab1a64bc132cc3907c07d3eb2633ed80aff9923a87df19c527e4c3c808","id":132323420,"location_subtype":"","month":"2025-11"},{"category":"violent-crime","location_type":"Force","location":{"latitude":"51.505713","street":{"id":2278065,"name":"On or near Wigton Crescent"},"longitude":"-2.603561"},"context":"","outcome_status":{"category":"Unable to prosecute suspect","date":"2025-11"},"persistent_id":"8679fb0f5003581a9885bc7837a1509a994ffb99208ee982773bec667f3d813d","id":132311946,"location_subtype":"","month":"2025-11"},{"category":"violent-crime","location_type":"Force","location":{"latitude":"51.504193","street":{"id":2277697,"name":"On or near Ambleside Avenue"},"longitude":"-2.608742"},"context":"","outcome_status":{"category":"Investigation complete; no suspect identified","date":"2025-11"},"persistent_id":"1007162ecd8aa60c34817c87456a1c6f3d1c1cf6ea00dbdfb258dc4c4c3ca170","id":132318914,"location_subtype":"","month":"2025-11"},{"category":"violent-crime","location_type":"Force","location":{"latitude":"51.513374","street":{"id":2277273,"name":"On or near Swanmoor Crescent"},"longitude":"-2.613836"},"context":"","outcome_status":{"category":"Unable to prosecute suspect","date":"2025-11"},"persistent_id":"3eb792d3b29654e4981be5e701303a4b89e28b62b3b7a928b307e68b60c64ae6","id":132312023,"location_subtype":"","month":"2025-11"},{"category":"violent-crime","location_type":"Force","location":{"latitude":"51.512182","street":{"id":2276383,"name":"On or near Birdale Close"},"longitude":"-2.631732"},"context":"","outcome_status":{"category":"Unable to prosecute suspect","date":"2025-11"},"persistent_id":"560f12b1644119d0606ef15a0ab07c4d51ec509888f7c207d7893d57b9563161","id":132319350,"location_subtype":"","month":"2025-11"},{"category":"violent-crime","location_type":"Force","location":{"latitude":"51.501096","street":{"id":2277592,"name":"On or near Lorton Close"},"longitude":"-2.609493"},"context":"","outcome_status":{"category":"Unable to prosecute suspect","date":"2026-01"},"persistent_id":"2e14edc47541f159a5b18d5b99d55ee88e2a5e39d5bd3b45fea536f1ce2b94bb","id":132317566,"location_subtype":"","month":"2025-11"},{"category":"violent-crime","location_type":"Force","location":{"latitude":"51.505381","street":{"id":2278319,"name":"On or near Mardale Close"},"longitude":"-2.599882"},"context":"","outcome_status":{"category":"Unable to prosecute suspect","date":"2025-11"},"persistent_id":"c1fdbade0d8348d1a9a9dd0c9dfe304b07f7b13719649a0d6b1e598eb96041c6","id":132319585,"location_subtype":"","month":"2025-11"},{"category":"violent-crime","location_type":"Force","location":{"latitude":"51.514392","street":{"id":2278297,"name":"On or near Suffolk Close"},"longitude":"-2.599525"},"context":"","outcome_status":{"category":"Unable to prosecute suspect","date":"2025-12"},"persistent_id":"cadaa6f58662be042ef57143f9daf8edfcfbfa7229827ef96a23ba96c4ae100b","id":132324019,"location_subtype":"","month":"2025-11"},{"category":"violent-crime","location_type":"Force","location":{"latitude":"51.513374","street":{"id":2277273,"name":"On or near Swanmoor Crescent"},"longitude":"-2.613836"},"context":"","outcome_status":{"category":"Investigation complete; no suspect identified","date":"2025-11"},"persistent_id":"13a63d0184e6b86bc50250ac6821a6da5de91840a79c55296317660bcf43a526","id":132319975,"location_subtype":"","month":"2025-11"},{"category":"violent-crime","location_type":"Force","location":{"latitude":"51.502552","street":{"id":2278277,"name":"On or near Westleigh Road"},"longitude":"-2.599283"},"context":"","outcome_status":{"category":"Unable to prosecute suspect","date":"2025-12"},"persistent_id":"9c20d80914c45cb106038bb692d526b067b6ed11b0a1e49b4c979d4440953b45","id":132317184,"location_subtype":"","month":"2025-11"},{"category":"violent-crime","location_type":"Force","location":{"latitude":"51.512558","street":{"id":2276897,"name":"On or near Fitchett Walk"},"longitude":"-2.622039"},"context":"","outcome_status":{"category":"Investigation complete; no suspect identified","date":"2025-11"},"persistent_id":"463fbaa2a9e87a3612ff2634e6ed7d249638a11068a07f78212e7c738b3af84d","id":132312440,"location_subtype":"","month":"2025-11"},{"category":"violent-crime","location_type":"Force","location":{"latitude":"51.514093","street":{"id":2277666,"name":"On or near Kingfisher Close"},"longitude":"-2.610445"},"context":"","outcome_status":{"category":"Investigation complete; no suspect identified","date":"2025-12"},"persistent_id":"8d9cc769c454d0395204bc2b49a7290a279aa56395fc075174beea9697ebe318","id":132323785,"location_subtype":"","month":"2025-11"},{"category":"violent-crime","location_type":"Force","location":{"latitude":"51.494126","street":{"id":2277785,"name":"On or near Clover Ground"},"longitude":"-2.608161"},"context":"","outcome_status":{"category":"Unable to prosecute suspect","date":"2025-11"},"persistent_id":"8e27e09d4606be35965bf78476b2a68e404420d37f0523ed2a8dbdc2fd7537df","id":132320857,"location_subtype":"","month":"2025-11"},{"category":"violent-crime","location_type":"Force","location":{"latitude":"51.512558","street":{"id":2276897,"name":"On or near Fitchett Walk"},"longitude":"-2.622039"},"context":"","outcome_status":{"category":"Investigation complete; no suspect identified","date":"2025-11"},"persistent_id":"63340a13e264b20e073c35ba6310b9ad8f775f930e92d2d4f45fc51fffae8512","id":132312456,"location_subtype":"","month":"2025-11"},{"category":"violent-crime","location_type":"Force","location":{"latitude":"51.502375","street":{"id":2278545,"name":"On or near Westleigh Close"},"longitude":"-2.596846"},"context":"","outcome_status":{"category":"Unable to prosecute suspect","date":"2025-11"},"persistent_id":"4c3e277c1c40b731b3619d7008ee0cbc863029026e724cc75c2ff605fa547c71","id":132312369,"location_subtype":"","month":"2025-11"},{"category":"violent-crime","location_type":"Force","location":{"latitude":"51.499434","street":{"id":2278707,"name":"On or near Penrith Gardens"},"longitude":"-2.593437"},"context":"","outcome_status":{"category":"Under investigation","date":"2025-11"},"persistent_id":"2d8b372e76939be155ae03024f28e0ae2377a4c987ea1aeb1e99fee2868f32c3","id":132314564,"location_subtype":"","month":"2025-11"},{"category":"violent-crime","location_type":"Force","location":{"latitude":"51.510632","street":{"id":2276431,"name":"On or near Marissal Close"},"longitude":"-2.630745"},"context":"","outcome_status":{"category":"Under investigation","date":"2025-11"},"persistent_id":"5caae6db0b5735306240c5cb1829efff1a23f92cad22a0b3af82e31cad79b3d9","id":132314454,"location_subtype":"","month":"2025-11"},{"category":"violent-crime","location_type":"Force","location":{"latitude":"51.510405","street":{"id":2276870,"name":"On or near Standfast Road"},"longitude":"-2.622759"},"context":"","outcome_status":{"category":"Unable to prosecute suspect","date":"2025-12"},"persistent_id":"7cdba0e218afe2d8ee182d761ce1b4cde0ca15b790072f2d7fa9f3f263707834","id":132323859,"location_subtype":"","month":"2025-11"},{"category":"violent-crime","location_type":"Force","location":{"latitude":"51.495076","street":{"id":2277085,"name":"On or near Westfield Road"},"longitude":"-2.619093"},"context":"","outcome_status":{"category":"Unable to prosecute suspect","date":"2025-12"},"persistent_id":"aee464d2c0cd5c2e72a69a73c9981bc9bbbde0888abc6de489028a32d859bbf6","id":132323034,"location_subtype":"","month":"2025-11"},{"category":"violent-crime","location_type":"Force","location":{"latitude":"51.510380","street":{"id":2277159,"name":"On or near Ardenton Walk"},"longitude":"-2.617355"},"context":"","outcome_status":{"category":"Unable to prosecute suspect","date":"2025-11"},"persistent_id":"9a4d5e3bc0501e2671e6ccd503895ad7544058a34d21dc44e5728b06484c528d","id":132317210,"location_subtype":"","month":"2025-11"},{"category":"violent-crime","location_type":"Force","location":{"latitude":"51.512182","street":{"id":2276383,"name":"On or near Birdale Close"},"longitude":"-2.631732"},"context":"","outcome_status":{"category":"Formal action is not in the public interest","date":"2025-12"},"persistent_id":"48d63a377183ae2545663e7237b7e6c4659b7644bd810add41c2dca665aa8971","id":132314432,"location_subtype":"","month":"2025-11"},{"category":"violent-crime","location_type":"Force","location":{"latitude":"51.510380","street":{"id":2277159,"name":"On or near Ardenton Walk"},"longitude":"-2.617355"},"context":"","outcome_status":{"category":"Unable to prosecute suspect","date":"2025-11"},"persistent_id":"eb717b1d5b33ea3a02c9cd46de370b82d545662d9220298d5234768755eef030","id":132321542,"location_subtype":"","month":"2025-11"},{"category":"violent-crime","location_type":"Force","location":{"latitude":"51.513374","street":{"id":2277273,"name":"On or near Swanmoor Crescent"},"longitude":"-2.613836"},"context":"","outcome_status":{"category":"Awaiting court outcome","date":"2025-11"},"persistent_id":"f133541a687586d7254ae6d70e4e3015d6e9cb547014afcc68eede54fffd12ca","id":132321683,"location_subtype":"","month":"2025-11"},{"category":"violent-crime","location_type":"Force","location":{"latitude":"51.521744","street":{"id":2277405,"name":"On or near Catbrain Hill"},"longitude":"-2.612378"},"context":"","outcome_status":{"category":"Unable to prosecute suspect","date":"2025-11"},"persistent_id":"90983faf0619e40b816c7407e059092916d089601d2cd44a4d0c0ee24ae9b93b","id":132321817,"location_subtype":"","month":"2025-11"},{"category":"violent-crime","location_type":"Force","location":{"latitude":"51.503533","street":{"id":2278213,"name":"On or near Arnside Road"},"longitude":"-2.602524"},"context":"","outcome_status":{"category":"Awaiting court outcome","date":"2025-12"},"persistent_id":"bf92082fe3917f2ea5475dea137a1368173e64a5f6bb4a42a775bb98b3699afe","id":132317033,"location_subtype":"","month":"2025-11"},{"category":"violent-crime","location_type":"Force","location":{"latitude":"51.513149","street":{"id":2277913,"name":"On or near Trevisa Grove"},"longitude":"-2.605316"},"context":"","outcome_status":{"category":"Unable to prosecute suspect","date":"2025-11"},"persistent_id":"1a8e7fe535d6c91778ca309749e98f2a7b5cd302b810f332e6cb48a8932e120d","id":132322026,"location_subtype":"","month":"2025-11"},{"category":"violent-crime","location_type":"Force","location":{"latitude":"51.508830","street":{"id":2277039,"name":"On or near Priestwood Close"},"longitude":"-2.619668"},"context":"","outcome_status":{"category":"Unable to prosecute suspect","date":"2025-11"},"persistent_id":"d358095133e95aee3de1dd18bcc345562521a1c87e81e1487ae3955cf128e3e2","id":132322190,"location_subtype":"","month":"2025-11"},{"category":"violent-crime","location_type":"Force","location":{"latitude":"51.504797","street":{"id":2277105,"name":"On or near Sheepwood Road"},"longitude":"-2.618835"},"context":"","outcome_status":{"category":"Under investigation","date":"2025-11"},"persistent_id":"bf92082fe3917f2ea5475dea137a1368173e64a5f6bb4a42a775bb98b3699afe","id":132317032,"location_subtype":"","month":"2025-11"},{"category":"violent-crime","location_type":"Force","location":{"latitude":"51.503793","street":{"id":2278625,"name":"On or near Eastleigh Road"},"longitude":"-2.595755"},"context":"","outcome_status":{"category":"Unable to prosecute suspect","date":"2025-11"},"persistent_id":"d7e4a04e20a0e2e23998ea8a282b1f5bf93749dae47af5392eb64ca7fe9e6e2e","id":132323159,"location_subtype":"","month":"2025-11"},{"category":"violent-crime","location_type":"Force","location":{"latitude":"51.505160","street":{"id":2276833,"name":"On or near Lorain Walk"},"longitude":"-2.623379"},"context":"","outcome_status":{"category":"Unable to prosecute suspect","date":"2025-12"},"persistent_id":"08c6e3168ed3d50327a1d48c13a3dd600960783a2818a2dac70e6d1ffcb38a45","id":132323851,"location_subtype":"","month":"2025-11"},{"category":"violent-crime","location_type":"Force","location":{"latitude":"51.501851","street":{"id":2278261,"name":"On or near Trowbridge Walk"},"longitude":"-2.600945"},"context":"","outcome_status":{"category":"Under investigation","date":"2025-11"},"persistent_id":"cd0ee7228197cc8196527603908bb8d411c433665a2e87b52bea26391452ab81","id":132313362,"location_subtype":"","month":"2025-11"},{"category":"violent-crime","location_type":"Force","location":{"latitude":"51.493272","street":{"id":2277563,"name":"On or near Home Ground"},"longitude":"-2.609864"},"context":"","outcome_status":{"category":"Action to be taken by another organisation","date":"2025-12"},"persistent_id":"1c185708989d048676ae1dddeb35ae16799b121612469a4eb8b9b909afc1f726","id":132311907,"location_subtype":"","month":"2025-11"},{"category":"violent-crime","location_type":"Force","location":{"latitude":"51.519600","street":{"id":2276656,"name":"On or near Sports/recreation Area"},"longitude":"-2.623206"},"context":"","outcome_status":{"category":"Under investigation","date":"2025-11"},"persistent_id":"4cee87b9eacc69f6dc88203294e781190d2e65478d8c217869950ce38a033528","id":132311264,"location_subtype":"","month":"2025-11"},{"category":"violent-crime","location_type":"Force","location":{"latitude":"51.505978","street":{"id":2277141,"name":"On or near Dragonswell Road"},"longitude":"-2.618290"},"context":"","outcome_status":{"category":"Investigation complete; no suspect identified","date":"2025-12"},"persistent_id":"02afa5b52763b0004b1004ef417d96576d77b5781163230549e5cab4b23725dc","id":132324353,"location_subtype":"","month":"2025-11"},{"category":"violent-crime","location_type":"Force","location":{"latitude":"51.513199","street":{"id":2276845,"name":"On or near Loveringe Close"},"longitude":"-2.623244"},"context":"","outcome_status":{"category":"Unable to prosecute suspect","date":"2025-11"},"persistent_id":"d9fd2b93974d6cce438fbf49f22d63e2b67d2da369f2469f882960cd225e8405","id":132312874,"location_subtype":"","month":"2025-11"},