[{"category":"criminal-damage-arson","location_type":"Force","location":{"latitude":"54.517806","street":{"id":2256298,"name":"On or near Highfield Road"},"longitude":"-3.519088"},"context":"","outcome_status":{"category":"Unable to prosecute suspect","date":"2025-02"},"persistent_id":"347552fd4e9fa8eab11081faf7d34074b5e19e3e2cce4439096b9f79743c89f6","id":126335403,"location_subtype":"","month":"2025-02"},{"category":"criminal-damage-arson","location_type":"Force","location":{"latitude":"54.526860","street":{"id":2256143,"name":"On or near Whitehaven Road"},"longitude":"-3.530906"},"context":"","outcome_status":{"category":"Investigation complete; no suspect identified","date":"2025-03"},"persistent_id":"6871cd8681cb0896d7f91a0172e16e4d4ca5735b6cd617e29a3c648730b8be6f","id":126335494,"location_subtype":"","month":"2025-02"},{"category":"possession-of-weapons","location_type":"Force","location":{"latitude":"54.517806","street":{"id":2256298,"name":"On or near Highfield Road"},"longitude":"-3.519088"},"context":"","outcome_status":{"category":"Status update unavailable","date":"2025-06"},"persistent_id":"47e5fbd5d8626517966c54fd961c83243b75add966282f33fbd7bf77fd636658","id":126335401,"location_subtype":"","month":"2025-02"},{"category":"public-order","location_type":"Force","location":{"latitude":"54.526860","street":{"id":2256143,"name":"On or near Whitehaven Road"},"longitude":"-3.530906"},"context":"","outcome_status":{"category":"Status update unavailable","date":"2025-06"},"persistent_id":"44cc9182875b85943d5df2de3be188b02d49e4fafba79a4596c737e8ac189196","id":126335491,"location_subtype":"","month":"2025-02"},{"category":"vehicle-crime","location_type":"Force","location":{"latitude":"54.522705","street":{"id":2256271,"name":"On or near St John's Close"},"longitude":"-3.522607"},"context":"","outcome_status":{"category":"Unable to prosecute suspect","date":"2025-03"},"persistent_id":"5187d857b57ed1f2fcab716fd66abc97f157293864a350fbcaf767dd58f6211e","id":126335447,"location_subtype":"","month":"2025-02"},{"category":"violent-crime","location_type":"Force","location":{"latitude":"54.526860","street":{"id":2256143,"name":"On or near Whitehaven Road"},"longitude":"-3.530906"},"context":"","outcome_status":{"category":"Unable to prosecute suspect","date":"2025-06"},"persistent_id":"b73f9fcd0789f173239cea35a18a007f6873db25ede99c937a06921266939d05","id":126335492,"location_subtype":"","month":"2025-02"},{"category":"violent-crime","location_type":"Force","location":{"latitude":"54.526540","street":{"id":2256163,"name":"On or near The Crescent"},"longitude":"-3.529225"},"context":"","outcome_status":{"category":"Awaiting court outcome","date":"2025-10"},"persistent_id":"9a66c8ff7a17ab3908f7a2e29314aa8bcacda7757871bafa08b1ebcfef60ca21","id":126335479,"location_subtype":"","month":"2025-02"},{"category":"violent-crime","location_type":"Force","location":{"latitude":"54.515485","street":{"id":2255968,"name":"On or near Pearson Close"},"longitude":"-3.536999"},"context":"","outcome_status":{"category":"Unable to prosecute suspect","date":"2025-06"},"persistent_id":"dbd28a4e7b88cccce49ef97257e89fe8f850675aaf4a2620c61ab8499228e8b8","id":126335387,"location_subtype":"","month":"2025-02"},{"category":"other-crime","location_type":"Force","location":{"latitude":"54.524073","street":{"id":2256246,"name":"On or near Leconfield Street"},"longitude":"-3.523879"},"context":"","outcome_status":{"category":"Status update unavailable","date":"2025-06"},"persistent_id":"113bd70cc773b8fc60be4ada88811728097844d636e022c129cb65376193629c","id":126335456,"location_subtype":"","month":"2025-02"}]