[{"category":"anti-social-behaviour","location_type":"Force","location":{"latitude":"51.536332","street":{"id":1863024,"name":"On or near Parking Area"},"longitude":"-3.251395"},"context":"","outcome_status":null,"persistent_id":"","id":130547490,"location_subtype":"","month":"2025-08"},{"category":"anti-social-behaviour","location_type":"Force","location":{"latitude":"51.540393","street":{"id":1862754,"name":"On or near Llys Hafn"},"longitude":"-3.264282"},"context":"","outcome_status":null,"persistent_id":"","id":130547771,"location_subtype":"","month":"2025-08"},{"category":"anti-social-behaviour","location_type":"Force","location":{"latitude":"51.544737","street":{"id":1862975,"name":"On or near Ty Rhiw"},"longitude":"-3.259124"},"context":"","outcome_status":null,"persistent_id":"","id":130546011,"location_subtype":"","month":"2025-08"},{"category":"anti-social-behaviour","location_type":"Force","location":{"latitude":"51.539533","street":{"id":1862695,"name":"On or near South Glade"},"longitude":"-3.267301"},"context":"","outcome_status":null,"persistent_id":"","id":130547686,"location_subtype":"","month":"2025-08"},{"category":"anti-social-behaviour","location_type":"Force","location":{"latitude":"51.526145","street":{"id":1862967,"name":"On or near Chapel Road"},"longitude":"-3.259635"},"context":"","outcome_status":null,"persistent_id":"","id":130547583,"location_subtype":"","month":"2025-08"},{"category":"anti-social-behaviour","location_type":"Force","location":{"latitude":"51.542043","street":{"id":1862599,"name":"On or near Miles Court"},"longitude":"-3.269649"},"context":"","outcome_status":null,"persistent_id":"","id":130549100,"location_subtype":"","month":"2025-08"},{"category":"burglary","location_type":"Force","location":{"latitude":"51.533083","street":{"id":1862962,"name":"On or near Birch Hill"},"longitude":"-3.253338"},"context":"","outcome_status":{"category":"Investigation complete; no suspect identified","date":"2025-09"},"persistent_id":"a6db8fd52f13922331e4ace62980e7a914da2e15bc0d7e8c2efb0f8313f1db1b","id":130534373,"location_subtype":"","month":"2025-08"},{"category":"criminal-damage-arson","location_type":"Force","location":{"latitude":"51.526145","street":{"id":1862967,"name":"On or near Chapel Road"},"longitude":"-3.259635"},"context":"","outcome_status":{"category":"Investigation complete; no suspect identified","date":"2025-09"},"persistent_id":"2e6d6b8b4af6571b121814ea60090101014c5368c1cd24e297f0850e6db50c2f","id":130538378,"location_subtype":"","month":"2025-08"},{"category":"criminal-damage-arson","location_type":"Force","location":{"latitude":"51.544737","street":{"id":1862975,"name":"On or near Ty Rhiw"},"longitude":"-3.259124"},"context":"","outcome_status":{"category":"Investigation complete; no suspect identified","date":"2025-09"},"persistent_id":"2b5575724be6f4fa4be39f4db81ac7696616150bf76d403cc69c08e3f285c01c","id":130535101,"location_subtype":"","month":"2025-08"},{"category":"criminal-damage-arson","location_type":"Force","location":{"latitude":"51.526882","street":{"id":1862836,"name":"On or near Clos Ysgallen"},"longitude":"-3.263028"},"context":"","outcome_status":{"category":"Investigation complete; no suspect identified","date":"2025-08"},"persistent_id":"9080202235880c3ac9a2cb269342d5b60848ebd3756db9328b97ee69bcfeb847","id":130537356,"location_subtype":"","month":"2025-08"},{"category":"criminal-damage-arson","location_type":"Force","location":{"latitude":"51.530702","street":{"id":1862148,"name":"On or near Heol Danyrodyn"},"longitude":"-3.294577"},"context":"","outcome_status":{"category":"Investigation complete; no suspect identified","date":"2025-09"},"persistent_id":"cf49802d454118c27b9d1b3595e4caa723a38f89e9dac7ec40d0280283bf9992","id":130537196,"location_subtype":"","month":"2025-08"},{"category":"criminal-damage-arson","location_type":"Force","location":{"latitude":"51.527020","street":{"id":1862747,"name":"On or near Barnfield Drive"},"longitude":"-3.264445"},"context":"","outcome_status":{"category":"Investigation complete; no suspect identified","date":"2025-08"},"persistent_id":"eac0090979e52631e048fd87cb7ecbb74d9ba81d2d8447f64a61eae7b707b8d9","id":130537340,"location_subtype":"","month":"2025-08"},{"category":"other-theft","location_type":"Force","location":{"latitude":"51.536332","street":{"id":1863024,"name":"On or near Parking Area"},"longitude":"-3.251395"},"context":"","outcome_status":{"category":"Investigation complete; no suspect identified","date":"2025-08"},"persistent_id":"37e7e968f446ebbdea19fe0cf0155a7b0e5b63de69437be33b2588c70d28a4f0","id":130536165,"location_subtype":"","month":"2025-08"},{"category":"other-theft","location_type":"Force","location":{"latitude":"51.544351","street":{"id":1862631,"name":"On or near Tabor Street"},"longitude":"-3.268228"},"context":"","outcome_status":{"category":"Investigation complete; no suspect identified","date":"2025-12"},"persistent_id":"4183a7811d8ddd941bcc9c783321bbebed9de192b1553d4181712dd2bb6e5886","id":130536618,"location_subtype":"","month":"2025-08"},{"category":"public-order","location_type":"Force","location":{"latitude":"51.540393","street":{"id":1862754,"name":"On or near Llys Hafn"},"longitude":"-3.264282"},"context":"","outcome_status":{"category":"Investigation complete; no suspect identified","date":"2025-08"},"persistent_id":"1ca330647a73e048a323ef4a4f7fe655aeac40cce51e73c521f5a5be2f5a03a8","id":130539915,"location_subtype":"","month":"2025-08"},{"category":"public-order","location_type":"Force","location":{"latitude":"51.524797","street":{"id":1862989,"name":"On or near Maes-y-bryn"},"longitude":"-3.258805"},"context":"","outcome_status":{"category":"Investigation complete; no suspect identified","date":"2025-09"},"persistent_id":"ee829c1316751e090ab83d41b654c61836885036a8f823e66c0b35af6e3b9a6a","id":130539607,"location_subtype":"","month":"2025-08"},{"category":"public-order","location_type":"Force","location":{"latitude":"51.526882","street":{"id":1862836,"name":"On or near Clos Ysgallen"},"longitude":"-3.263028"},"context":"","outcome_status":{"category":"Unable to prosecute suspect","date":"2025-10"},"persistent_id":"0a0e2d8a046e81b9ac15817f19765c79c279d9dfc2e6827c4c6233f7a14011dc","id":130539279,"location_subtype":"","month":"2025-08"},{"category":"shoplifting","location_type":"Force","location":{"latitude":"51.542226","street":{"id":1862672,"name":"On or near Supermarket"},"longitude":"-3.267664"},"context":"","outcome_status":{"category":"Investigation complete; no suspect identified","date":"2025-08"},"persistent_id":"dd3ea0167164b0695d9d2dcab9af49085d13f1e160bfd378fed4ccd16e8a94cf","id":130541916,"location_subtype":"","month":"2025-08"},{"category":"shoplifting","location_type":"Force","location":{"latitude":"51.542226","street":{"id":1862672,"name":"On or near Supermarket"},"longitude":"-3.267664"},"context":"","outcome_status":{"category":"Investigation complete; no suspect identified","date":"2025-08"},"persistent_id":"7ede307834111e288012127dcf182c81cfa5ce38cdced93e3c4b2dba100d7aa1","id":130541910,"location_subtype":"","month":"2025-08"},{"category":"shoplifting","location_type":"Force","location":{"latitude":"51.542226","street":{"id":1862672,"name":"On or near Supermarket"},"longitude":"-3.267664"},"context":"","outcome_status":{"category":"Investigation complete; no suspect identified","date":"2025-08"},"persistent_id":"ee728b29b3ff04c38af42e8782282fdcbcf98490c0e30bc19bf823f5d55f732b","id":130541777,"location_subtype":"","month":"2025-08"},{"category":"shoplifting","location_type":"Force","location":{"latitude":"51.542226","street":{"id":1862672,"name":"On or near Supermarket"},"longitude":"-3.267664"},"context":"","outcome_status":{"category":"Investigation complete; no suspect identified","date":"2025-08"},"persistent_id":"6fc02ae42e378e05192d15bc454f394af88086788333eb0e7727918b429a5476","id":130544022,"location_subtype":"","month":"2025-08"},{"category":"shoplifting","location_type":"Force","location":{"latitude":"51.542226","street":{"id":1862672,"name":"On or near Supermarket"},"longitude":"-3.267664"},"context":"","outcome_status":{"category":"Awaiting court outcome","date":"2025-10"},"persistent_id":"b056efe6e95e3d6e2c2bedfae3f1596aa86de7aa423ac8ba85c8399b52b7e16b","id":130541644,"location_subtype":"","month":"2025-08"},{"category":"shoplifting","location_type":"Force","location":{"latitude":"51.542226","street":{"id":1862672,"name":"On or near Supermarket"},"longitude":"-3.267664"},"context":"","outcome_status":{"category":"Awaiting court outcome","date":"2025-10"},"persistent_id":"d045bb1bf3bb7473477df0c9736298d9c1b8ea251365808c7230c2bf740a4cbd","id":130543774,"location_subtype":"","month":"2025-08"},{"category":"shoplifting","location_type":"Force","location":{"latitude":"51.528957","street":{"id":1862930,"name":"On or near Gelynis Terrace North"},"longitude":"-3.259914"},"context":"","outcome_status":{"category":"Investigation complete; no suspect identified","date":"2025-08"},"persistent_id":"be397022c4740b493811b800bb34610e014c5c64e671529179b536d1447b66fd","id":130542748,"location_subtype":"","month":"2025-08"},{"category":"shoplifting","location_type":"Force","location":{"latitude":"51.542226","street":{"id":1862672,"name":"On or near Supermarket"},"longitude":"-3.267664"},"context":"","outcome_status":{"category":"Investigation complete; no suspect identified","date":"2025-08"},"persistent_id":"a810c51b6c6744217e54f7e9662a999f108b0e6df1a54116e47d7fa6931948db","id":130542977,"location_subtype":"","month":"2025-08"},{"category":"shoplifting","location_type":"Force","location":{"latitude":"51.542226","street":{"id":1862672,"name":"On or near Supermarket"},"longitude":"-3.267664"},"context":"","outcome_status":{"category":"Investigation complete; no suspect identified","date":"2025-08"},"persistent_id":"f561208ba869d46cc2b9c5888892586f1a1364263a766895de8f8e0acf018d2a","id":130542235,"location_subtype":"","month":"2025-08"},{"category":"vehicle-crime","location_type":"Force","location":{"latitude":"51.522552","street":{"id":1862911,"name":"On or near Graig Hir"},"longitude":"-3.260962"},"context":"","outcome_status":{"category":"Investigation complete; no suspect identified","date":"2025-08"},"persistent_id":"df5ee8f80068c24e7863d0bd4d4cfc03c61b69662438a6b799eca825d3b1d173","id":130530464,"location_subtype":"","month":"2025-08"},{"category":"vehicle-crime","location_type":"Force","location":{"latitude":"51.524807","street":{"id":1862758,"name":"On or near Maes Y Brialiu"},"longitude":"-3.264556"},"context":"","outcome_status":{"category":"Investigation complete; no suspect identified","date":"2025-09"},"persistent_id":"f9c6c5c84a6a4c229c76f6d60276fc2efc65bed2ef9853afb992e640d72fa22c","id":130531325,"location_subtype":"","month":"2025-08"},{"category":"vehicle-crime","location_type":"Force","location":{"latitude":"51.527020","street":{"id":1862747,"name":"On or near Barnfield Drive"},"longitude":"-3.264445"},"context":"","outcome_status":{"category":"Investigation complete; no suspect identified","date":"2025-08"},"persistent_id":"a286b1f0626ad6d53991b0864e0475e9917b21e7c5502c5e86088544181a473f","id":130531319,"location_subtype":"","month":"2025-08"},{"category":"violent-crime","location_type":"Force","location":{"latitude":"51.540393","street":{"id":1862754,"name":"On or near Llys Hafn"},"longitude":"-3.264282"},"context":"","outcome_status":{"category":"Unable to prosecute suspect","date":"2025-09"},"persistent_id":"6d89ae23b363d9e2eb2e78c818dac3baea76bc339b0c21cb1e67dfe1eb8c474a","id":130522538,"location_subtype":"","month":"2025-08"},{"category":"violent-crime","location_type":"Force","location":{"latitude":"51.540393","street":{"id":1862754,"name":"On or near Llys Hafn"},"longitude":"-3.264282"},"context":"","outcome_status":{"category":"Unable to prosecute suspect","date":"2025-09"},"persistent_id":"2715abc109ae6c82a89357b565f0823a9fdcc08dee411146257915bb70a1e685","id":130524269,"location_subtype":"","month":"2025-08"},{"category":"violent-crime","location_type":"Force","location":{"latitude":"51.540393","street":{"id":1862754,"name":"On or near Llys Hafn"},"longitude":"-3.264282"},"context":"","outcome_status":{"category":"Action to be taken by another organisation","date":"2025-10"},"persistent_id":"3850cf89ca36f0f1be3490c6bd500303a1545594f039a769b859e42e00262b58","id":130559452,"location_subtype":"","month":"2025-08"},{"category":"violent-crime","location_type":"Force","location":{"latitude":"51.524797","street":{"id":1862989,"name":"On or near Maes-y-bryn"},"longitude":"-3.258805"},"context":"","outcome_status":{"category":"Investigation complete; no suspect identified","date":"2025-10"},"persistent_id":"736ad8c2ae1979a98e538f2183ae174f532ddca3acfb9e2a7e32cbbfeb929c6f","id":130517871,"location_subtype":"","month":"2025-08"},{"category":"violent-crime","location_type":"Force","location":{"latitude":"51.540393","street":{"id":1862754,"name":"On or near Llys Hafn"},"longitude":"-3.264282"},"context":"","outcome_status":{"category":"Status update unavailable","date":"2025-12"},"persistent_id":"ff7601f57038b7a34f16b0906f7298a3f1741f82d1bd18970937b02f899807be","id":130521309,"location_subtype":"","month":"2025-08"},{"category":"violent-crime","location_type":"Force","location":{"latitude":"51.521762","street":{"id":1863015,"name":"On or near Cilfedw"},"longitude":"-3.258404"},"context":"","outcome_status":{"category":"Status update unavailable","date":"2025-12"},"persistent_id":"c74144cd4b440773224c38451c9e85e78e4a97a18f687b227cee7e04f64fee54","id":130527536,"location_subtype":"","month":"2025-08"},{"category":"violent-crime","location_type":"Force","location":{"latitude":"51.531538","street":{"id":1863213,"name":"On or near Merthyr Road"},"longitude":"-3.250672"},"context":"","outcome_status":{"category":"Investigation complete; no suspect identified","date":"2025-08"},"persistent_id":"d599acbc7012e426efd94d1c6f928b16b95dcea8dfc64d7eeccb08a8c6582419","id":130522909,"location_subtype":"","month":"2025-08"},{"category":"violent-crime","location_type":"Force","location":{"latitude":"51.540393","street":{"id":1862754,"name":"On or near Llys Hafn"},"longitude":"-3.264282"},"context":"","outcome_status":{"category":"Investigation complete; no suspect identified","date":"2025-09"},"persistent_id":"2d7f5faa263f1921272ef84aab015c3ae29c512dfb5ac3f7f7f9043d7b0e44a6","id":130521866,"location_subtype":"","month":"2025-08"},{"category":"violent-crime","location_type":"Force","location":{"latitude":"51.540386","street":{"id":1862625,"name":"On or near Llys Tripp"},"longitude":"-3.268204"},"context":"","outcome_status":{"category":"Further investigation is not in the public interest","date":"2025-09"},"persistent_id":"1b802a71433177f0eca33efde5b76321ab5fb11db8c10a18b623d616a14f91cf","id":130523322,"location_subtype":"","month":"2025-08"},{"category":"other-crime","location_type":"Force","location":{"latitude":"51.530702","street":{"id":1862148,"name":"On or near Heol Danyrodyn"},"longitude":"-3.294577"},"context":"","outcome_status":{"category":"Unable to prosecute suspect","date":"2025-08"},"persistent_id":"8960dbe2e4c685b0958e5cf2c55dfc75a75315d1ed57b17672a995e84ce4cdd3","id":130533906,"location_subtype":"","month":"2025-08"}]