[{"category":"anti-social-behaviour","location_type":"Force","location":{"latitude":"51.644659","street":{"id":1857824,"name":"On or near Lloyd Street"},"longitude":"-3.481344"},"context":"","outcome_status":null,"persistent_id":"","id":128460899,"location_subtype":"","month":"2025-05"},{"category":"anti-social-behaviour","location_type":"Force","location":{"latitude":"51.643935","street":{"id":1857789,"name":"On or near Gelli Road"},"longitude":"-3.483141"},"context":"","outcome_status":null,"persistent_id":"","id":128460569,"location_subtype":"","month":"2025-05"},{"category":"anti-social-behaviour","location_type":"Force","location":{"latitude":"51.656130","street":{"id":1857606,"name":"On or near Margaret Street"},"longitude":"-3.492922"},"context":"","outcome_status":null,"persistent_id":"","id":128460808,"location_subtype":"","month":"2025-05"},{"category":"anti-social-behaviour","location_type":"Force","location":{"latitude":"51.654893","street":{"id":1857611,"name":"On or near Alma Place"},"longitude":"-3.492636"},"context":"","outcome_status":null,"persistent_id":"","id":128459620,"location_subtype":"","month":"2025-05"},{"category":"anti-social-behaviour","location_type":"Force","location":{"latitude":"51.653285","street":{"id":1857582,"name":"On or near Baglan Street"},"longitude":"-3.493884"},"context":"","outcome_status":null,"persistent_id":"","id":128460937,"location_subtype":"","month":"2025-05"},{"category":"anti-social-behaviour","location_type":"Force","location":{"latitude":"51.647872","street":{"id":1857725,"name":"On or near Petrol Station"},"longitude":"-3.486088"},"context":"","outcome_status":null,"persistent_id":"","id":128461017,"location_subtype":"","month":"2025-05"},{"category":"anti-social-behaviour","location_type":"Force","location":{"latitude":"51.656941","street":{"id":1857583,"name":"On or near St Stephen's Avenue"},"longitude":"-3.492775"},"context":"","outcome_status":null,"persistent_id":"","id":128461120,"location_subtype":"","month":"2025-05"},{"category":"anti-social-behaviour","location_type":"Force","location":{"latitude":"51.645979","street":{"id":1857980,"name":"On or near Nebo Estate"},"longitude":"-3.472903"},"context":"","outcome_status":null,"persistent_id":"","id":128460312,"location_subtype":"","month":"2025-05"},{"category":"anti-social-behaviour","location_type":"Force","location":{"latitude":"51.650999","street":{"id":1857652,"name":"On or near Forge Lane"},"longitude":"-3.489154"},"context":"","outcome_status":null,"persistent_id":"","id":128460697,"location_subtype":"","month":"2025-05"},{"category":"anti-social-behaviour","location_type":"Force","location":{"latitude":"51.650999","street":{"id":1857652,"name":"On or near Forge Lane"},"longitude":"-3.489154"},"context":"","outcome_status":null,"persistent_id":"","id":128460074,"location_subtype":"","month":"2025-05"},{"category":"anti-social-behaviour","location_type":"Force","location":{"latitude":"51.644644","street":{"id":1858127,"name":"On or near Gelligaled Road"},"longitude":"-3.464607"},"context":"","outcome_status":null,"persistent_id":"","id":128460177,"location_subtype":"","month":"2025-05"},{"category":"anti-social-behaviour","location_type":"Force","location":{"latitude":"51.650999","street":{"id":1857652,"name":"On or near Forge Lane"},"longitude":"-3.489154"},"context":"","outcome_status":null,"persistent_id":"","id":128459929,"location_subtype":"","month":"2025-05"},{"category":"burglary","location_type":"Force","location":{"latitude":"51.642952","street":{"id":1858133,"name":"On or near Ffordd Seren"},"longitude":"-3.463280"},"context":"","outcome_status":{"category":"Investigation complete; no suspect identified","date":"2025-07"},"persistent_id":"53a20069607f53dfa1c2a051fb22622a71ca1517006801e5a9734c6bc4b6f450","id":128456239,"location_subtype":"","month":"2025-05"},{"category":"burglary","location_type":"Force","location":{"latitude":"51.644504","street":{"id":1857616,"name":"On or near Co-operative Street"},"longitude":"-3.490719"},"context":"","outcome_status":{"category":"Investigation complete; no suspect identified","date":"2025-08"},"persistent_id":"f89bcf585e21c56785ac4d75cc69fb72b4fb1f1755fab6de0fbfac7dd5ee1f79","id":128456126,"location_subtype":"","month":"2025-05"},{"category":"criminal-damage-arson","location_type":"Force","location":{"latitude":"51.644039","street":{"id":1857837,"name":"On or near Rees Street"},"longitude":"-3.479907"},"context":"","outcome_status":{"category":"Unable to prosecute suspect","date":"2025-06"},"persistent_id":"b0f66c0bfbbdbb739e38853320774637ac9a90da5b94babcbc3061a51b5aa46f","id":128457314,"location_subtype":"","month":"2025-05"},{"category":"criminal-damage-arson","location_type":"Force","location":{"latitude":"51.643336","street":{"id":1857634,"name":"On or near Kennard Street"},"longitude":"-3.489944"},"context":"","outcome_status":{"category":"Unable to prosecute suspect","date":"2025-05"},"persistent_id":"5471afcc8efd1c6243dc5e0222dc0327ecf6fd66dc00339b1e689211daf6646d","id":128457143,"location_subtype":"","month":"2025-05"},{"category":"criminal-damage-arson","location_type":"Force","location":{"latitude":"51.652509","street":{"id":1857661,"name":"On or near Petrol Station"},"longitude":"-3.489131"},"context":"","outcome_status":{"category":"Court result unavailable","date":"2025-11"},"persistent_id":"e995cc0e527ef05bd1400fd9e2a7acba1c56592244ae185ca911fdc4bd8a3ec6","id":128457322,"location_subtype":"","month":"2025-05"},{"category":"criminal-damage-arson","location_type":"Force","location":{"latitude":"51.643657","street":{"id":1857823,"name":"On or near B4223"},"longitude":"-3.481644"},"context":"","outcome_status":{"category":"Unable to prosecute suspect","date":"2025-05"},"persistent_id":"f8d1a7e5f83d8d2c2ed11a285ab88db7c59c507060ffff87818fd5527073776b","id":128457533,"location_subtype":"","month":"2025-05"},{"category":"criminal-damage-arson","location_type":"Force","location":{"latitude":"51.643336","street":{"id":1857634,"name":"On or near Kennard Street"},"longitude":"-3.489944"},"context":"","outcome_status":{"category":"Unable to prosecute suspect","date":"2025-06"},"persistent_id":"cc87e3d161fdd98ac470e680a13bd9b965b5f1f0c1610a6e75e0662101603bfa","id":128457701,"location_subtype":"","month":"2025-05"},{"category":"criminal-damage-arson","location_type":"Force","location":{"latitude":"51.644687","street":{"id":1857895,"name":"On or near Swn-yr-afon"},"longitude":"-3.477009"},"context":"","outcome_status":{"category":"Unable to prosecute suspect","date":"2025-05"},"persistent_id":"d99c47775e50798824e08e48de3fc8d876dbb4991ef54ba46e491d18c6085083","id":128456037,"location_subtype":"","month":"2025-05"},{"category":"criminal-damage-arson","location_type":"Force","location":{"latitude":"51.645979","street":{"id":1857980,"name":"On or near Nebo Estate"},"longitude":"-3.472903"},"context":"","outcome_status":{"category":"Investigation complete; no suspect identified","date":"2025-05"},"persistent_id":"94b01ba545bb41c11dc773bf967978755a1a65f546e7b00bb5eb891025d2455e","id":128457584,"location_subtype":"","month":"2025-05"},{"category":"criminal-damage-arson","location_type":"Force","location":{"latitude":"51.655312","street":{"id":1857551,"name":"On or near Volunteer Street"},"longitude":"-3.496451"},"context":"","outcome_status":{"category":"Unable to prosecute suspect","date":"2025-06"},"persistent_id":"7a9c05575345200f67405fe717e91094716fdd23e0537fc886430b41819f6452","id":128457639,"location_subtype":"","month":"2025-05"},{"category":"drugs","location_type":"Force","location":{"latitude":"51.654893","street":{"id":1857611,"name":"On or near Alma Place"},"longitude":"-3.492636"},"context":"","outcome_status":{"category":"Formal action is not in the public interest","date":"2025-08"},"persistent_id":"09724d8cdee126a6bce8482756e51ace84d377972a7fc053747476ae659b0fb8","id":128454848,"location_subtype":"","month":"2025-05"},{"category":"drugs","location_type":"Force","location":{"latitude":"51.653862","street":{"id":1857600,"name":"On or near Elizabeth Street"},"longitude":"-3.493050"},"context":"","outcome_status":{"category":"Investigation complete; no suspect identified","date":"2025-08"},"persistent_id":"ac637b3beb009f3d3c9e7cced11f323aeb062e943ca3e71d8071034cc9aa30d9","id":128454905,"location_subtype":"","month":"2025-05"},{"category":"drugs","location_type":"Force","location":{"latitude":"51.642415","street":{"id":1857801,"name":"On or near Ravenhill Street"},"longitude":"-3.479638"},"context":"","outcome_status":{"category":"Local resolution","date":"2025-06"},"persistent_id":"823523ef2263c705e132e376d05fdebdf81adf9a663247e36c4961552bfa1831","id":128454996,"location_subtype":"","month":"2025-05"},{"category":"drugs","location_type":"Force","location":{"latitude":"51.644644","street":{"id":1858127,"name":"On or near Gelligaled Road"},"longitude":"-3.464607"},"context":"","outcome_status":{"category":"Investigation complete; no suspect identified","date":"2025-10"},"persistent_id":"b9533d1165c144b4e734fc03b3d8f4450d3cbd1023ae80000fc3db708a9ba026","id":128454809,"location_subtype":"","month":"2025-05"},{"category":"other-theft","location_type":"Force","location":{"latitude":"51.652509","street":{"id":1857661,"name":"On or near Petrol Station"},"longitude":"-3.489131"},"context":"","outcome_status":{"category":"Unable to prosecute suspect","date":"2025-05"},"persistent_id":"5803c7fd5913237e3e500ab995d41c3fd25980a8edeca73bed1b294de8a89afa","id":128455465,"location_subtype":"","month":"2025-05"},{"category":"other-theft","location_type":"Force","location":{"latitude":"51.652509","street":{"id":1857661,"name":"On or near Petrol Station"},"longitude":"-3.489131"},"context":"","outcome_status":{"category":"Investigation complete; no suspect identified","date":"2025-05"},"persistent_id":"44e6e203baa007b418a58cfdc7c5d507a49acfcec9cfbdce5142d9cf633c54aa","id":128455467,"location_subtype":"","month":"2025-05"},{"category":"other-theft","location_type":"Force","location":{"latitude":"51.647872","street":{"id":1857725,"name":"On or near Petrol Station"},"longitude":"-3.486088"},"context":"","outcome_status":{"category":"Investigation complete; no suspect identified","date":"2025-06"},"persistent_id":"c4697c5b5de895f16bcb017ca21044d29d5be2fee33c98989664b9bb4789d3e9","id":128455482,"location_subtype":"","month":"2025-05"},{"category":"other-theft","location_type":"Force","location":{"latitude":"51.654373","street":{"id":1857569,"name":"On or near John Street"},"longitude":"-3.494642"},"context":"","outcome_status":{"category":"Investigation complete; no suspect identified","date":"2025-05"},"persistent_id":"fb9bfe6a688691fd8260bfa7c4bd722c118bb262a163a7ff4463489593edeeb3","id":128456744,"location_subtype":"","month":"2025-05"},{"category":"other-theft","location_type":"Force","location":{"latitude":"51.643698","street":{"id":1857762,"name":"On or near Stanley Road"},"longitude":"-3.484781"},"context":"","outcome_status":{"category":"Status update unavailable","date":"2025-09"},"persistent_id":"44f4e0b0c6a57a043fba7ba339317c6619c863bf651aaf84aa6f0e00f2746fb5","id":128456805,"location_subtype":"","month":"2025-05"},{"category":"other-theft","location_type":"Force","location":{"latitude":"51.646144","street":{"id":1857666,"name":"On or near Parry Street"},"longitude":"-3.489053"},"context":"","outcome_status":{"category":"Unable to prosecute suspect","date":"2025-06"},"persistent_id":"3acc5a9abb910e27f466eb4e98da4d06fa2e47fce9eac80925fada501e1f9459","id":128456846,"location_subtype":"","month":"2025-05"},{"category":"other-theft","location_type":"Force","location":{"latitude":"51.643336","street":{"id":1857634,"name":"On or near Kennard Street"},"longitude":"-3.489944"},"context":"","outcome_status":{"category":"Investigation complete; no suspect identified","date":"2025-05"},"persistent_id":"114ebdc1c925acef01259a695e6fd1d575459eeba8c6113aa7d945c07ae2d503","id":128456978,"location_subtype":"","month":"2025-05"},{"category":"other-theft","location_type":"Force","location":{"latitude":"51.646356","street":{"id":1857752,"name":"On or near Ystrad Road"},"longitude":"-3.482281"},"context":"","outcome_status":{"category":"Investigation complete; no suspect identified","date":"2025-07"},"persistent_id":"0fa77d074f9b75df96c2e080d1364cc89a1bafa3ac28e2061177e60ef0b1eab5","id":128456823,"location_subtype":"","month":"2025-05"},{"category":"other-theft","location_type":"Force","location":{"latitude":"51.652509","street":{"id":1857661,"name":"On or near Petrol Station"},"longitude":"-3.489131"},"context":"","outcome_status":{"category":"Investigation complete; no suspect identified","date":"2025-07"},"persistent_id":"1e800b3913042d390ddfad512c8b56f5aaaf9b692c49d6a45cc8679a8cd2827a","id":128454581,"location_subtype":"","month":"2025-05"},{"category":"public-order","location_type":"Force","location":{"latitude":"51.654023","street":{"id":1857638,"name":"On or near Catherine Street"},"longitude":"-3.488169"},"context":"","outcome_status":{"category":"Unable to prosecute suspect","date":"2025-05"},"persistent_id":"fdd60c1bfa7fcfe8e19c943a1cc12a35a52c4450ddc053dc4df976d2d2c26ad7","id":128458296,"location_subtype":"","month":"2025-05"},{"category":"public-order","location_type":"Force","location":{"latitude":"51.644832","street":{"id":1858086,"name":"On or near Amry Place"},"longitude":"-3.466868"},"context":"","outcome_status":{"category":"Unable to prosecute suspect","date":"2025-05"},"persistent_id":"ab733d19dc7b9e7a091daf796ead650863d2bde782c692e9b85a36d1702778e9","id":128458473,"location_subtype":"","month":"2025-05"},{"category":"public-order","location_type":"Force","location":{"latitude":"51.653966","street":{"id":1857632,"name":"On or near Rees Place"},"longitude":"-3.491304"},"context":"","outcome_status":{"category":"Unable to prosecute suspect","date":"2025-06"},"persistent_id":"d08a49cced5f23bfc29c4a33561c85c7e59b429053af97a23e6b0920816d1112","id":128455345,"location_subtype":"","month":"2025-05"},{"category":"public-order","location_type":"Force","location":{"latitude":"51.645979","street":{"id":1857980,"name":"On or near Nebo Estate"},"longitude":"-3.472903"},"context":"","outcome_status":{"category":"Unable to prosecute suspect","date":"2025-07"},"persistent_id":"ae8197c8b841932007408be23532d22d9621a0d8f5164c61bc0a4e0eedbb6d9f","id":128458339,"location_subtype":"","month":"2025-05"},{"category":"public-order","location_type":"Force","location":{"latitude":"51.645979","street":{"id":1857980,"name":"On or near Nebo Estate"},"longitude":"-3.472903"},"context":"","outcome_status":{"category":"Unable to prosecute suspect","date":"2025-06"},"persistent_id":"9ca29168b62cab6e365cc9700fff65c1b3201c25e66d9fe0703519ab285d991c","id":128456326,"location_subtype":"","month":"2025-05"},{"category":"public-order","location_type":"Force","location":{"latitude":"51.645535","street":{"id":1858049,"name":"On or near William Street"},"longitude":"-3.470301"},"context":"","outcome_status":{"category":"Unable to prosecute suspect","date":"2025-05"},"persistent_id":"c8bce76f6294b5eafdbcc55de2e3b6ca36786933f30bfe998d5417afd2adc3eb","id":128458324,"location_subtype":"","month":"2025-05"},{"category":"public-order","location_type":"Force","location":{"latitude":"51.648832","street":{"id":1857650,"name":"On or near Crawshay Street"},"longitude":"-3.489806"},"context":"","outcome_status":{"category":"Investigation complete; no suspect identified","date":"2025-05"},"persistent_id":"035ed6400a7ee7f0bef9a164e8a18c4d892c857ac6ac9971fcad483e96e7c88f","id":128457789,"location_subtype":"","month":"2025-05"},{"category":"public-order","location_type":"Force","location":{"latitude":"51.647114","street":{"id":1857657,"name":"On or near Partridge Street"},"longitude":"-3.489157"},"context":"","outcome_status":{"category":"Unable to prosecute suspect","date":"2025-06"},"persistent_id":"69d64f76c21bf8b61014e15d9dd7bc8673af14bbd8cb2265c193103c72165509","id":128458230,"location_subtype":"","month":"2025-05"},{"category":"public-order","location_type":"Force","location":{"latitude":"51.647053","street":{"id":1857628,"name":"On or near Clara Street"},"longitude":"-3.491092"},"context":"","outcome_status":{"category":"Unable to prosecute suspect","date":"2025-06"},"persistent_id":"6be802b8fefb489304d809514aae7e304d761051a3b7613ece50c3b31f56e416","id":128457796,"location_subtype":"","month":"2025-05"},{"category":"public-order","location_type":"Force","location":{"latitude":"51.647053","street":{"id":1857628,"name":"On or near Clara Street"},"longitude":"-3.491092"},"context":"","outcome_status":{"category":"Unable to prosecute suspect","date":"2025-06"},"persistent_id":"43d733d21d7fb34759c8679ae08552538398368131426043c83e9491f09f489f","id":128458100,"location_subtype":"","month":"2025-05"},{"category":"public-order","location_type":"Force","location":{"latitude":"51.656332","street":{"id":1857521,"name":"On or near Swn Yr Afon"},"longitude":"-3.497569"},"context":"","outcome_status":{"category":"Unable to prosecute suspect","date":"2025-05"},"persistent_id":"3725c0bf44b440fe10d58ed853cf26f6c987ee51721f413eb23f8982427e6cfa","id":128458171,"location_subtype":"","month":"2025-05"},{"category":"public-order","location_type":"Force","location":{"latitude":"51.646358","street":{"id":1857719,"name":"On or near Sports/recreation Area"},"longitude":"-3.485244"},"context":"","outcome_status":{"category":"Unable to prosecute suspect","date":"2025-07"},"persistent_id":"f63886ac2e20c0016d1962603a3a18e86bcd5aaa1f665f7a6d00b0a0dce5e109","id":128456419,"location_subtype":"","month":"2025-05"},{"category":"public-order","location_type":"Force","location":{"latitude":"51.650999","street":{"id":1857652,"name":"On or near Forge Lane"},"longitude":"-3.489154"},"context":"","outcome_status":{"category":"Investigation complete; no suspect identified","date":"2025-06"},"persistent_id":"3cda4df3e120300f6d138447c777661b78d1d74368bd24db3dfac11c2d0103dc","id":128458180,"location_subtype":"","month":"2025-05"},{"category":"robbery","location_type":"Force","location":{"latitude":"51.644789","street":{"id":1858172,"name":"On or near Vicarage Close"},"longitude":"-3.462415"},"context":"","outcome_status":{"category":"Unable to prosecute suspect","date":"2025-12"},"persistent_id":"88e593fbc58927e2166100d3960b32ade867c9bbf1aed1a8c207de7dea82737c","id":128455671,"location_subtype":"","month":"2025-05"},{"category":"robbery","location_type":"Force","location":{"latitude":"51.647288","street":{"id":1857674,"name":"On or near Church Road"},"longitude":"-3.488223"},"context":"","outcome_status":{"category":"Awaiting court outcome","date":"2025-10"},"persistent_id":"8ce8bb3d1e0c2d77bf81fe1012e2cdc73e5d5b1c2f8f0b311a06e496ac5f334f","id":128455685,"location_subtype":"","month":"2025-05"},{"category":"theft-from-the-person","location_type":"Force","location":{"latitude":"51.646144","street":{"id":1857666,"name":"On or near Parry Street"},"longitude":"-3.489053"},"context":"","outcome_status":{"category":"Investigation complete; no suspect identified","date":"2025-06"},"persistent_id":"9b81131112507ba1c219d29253eb2f54229b3e8df5a57c856ffcf73b50c481ab","id":128454679,"location_subtype":"","month":"2025-05"},{"category":"violent-crime","location_type":"Force","location":{"latitude":"51.657726","street":{"id":1857531,"name":"On or near Myrtle Row"},"longitude":"-3.497500"},"context":"","outcome_status":{"category":"Unable to prosecute suspect","date":"2025-06"},"persistent_id":"3b7407d8cd21a61c6c2a31b18d5fc9b8d6a4c3f6e956ee011fc7c4144d855300","id":128451366,"location_subtype":"","month":"2025-05"},{"category":"violent-crime","location_type":"Force","location":{"latitude":"51.642014","street":{"id":1857791,"name":"On or near King Street"},"longitude":"-3.482154"},"context":"","outcome_status":{"category":"Formal action is not in the public interest","date":"2025-06"},"persistent_id":"91b4d1ecb3895aeec1374113b044bbc6e4296f2e8b72f26fb8a2d3dcdc7961ad","id":128453686,"location_subtype":"","month":"2025-05"},{"category":"violent-crime","location_type":"Force","location":{"latitude":"51.643125","street":{"id":1857815,"name":"On or near Avondale Road"},"longitude":"-3.481814"},"context":"","outcome_status":{"category":"Unable to prosecute suspect","date":"2025-10"},"persistent_id":"37c4e797cf2679e041c46c18553402f382fa96422ed4ff56c31947c9e8149f82","id":128449584,"location_subtype":"","month":"2025-05"},{"category":"violent-crime","location_type":"Force","location":{"latitude":"51.644688","street":{"id":1857723,"name":"On or near School Street"},"longitude":"-3.486187"},"context":"","outcome_status":{"category":"Unable to prosecute suspect","date":"2025-06"},"persistent_id":"2f7a88a4dcb5f300e774f626867faec54ffe352405ea6af2d1367fdc850d2f9f","id":128450031,"location_subtype":"","month":"2025-05"},{"category":"violent-crime","location_type":"Force","location":{"latitude":"51.644688","street":{"id":1857723,"name":"On or near School Street"},"longitude":"-3.486187"},"context":"","outcome_status":{"category":"Unable to prosecute suspect","date":"2025-06"},"persistent_id":"f4c0ff4f180f2890190dcf5e0bcb3dce646ec219060eac345800b2c69af98f41","id":128450044,"location_subtype":"","month":"2025-05"},{"category":"violent-crime","location_type":"Force","location":{"latitude":"51.645064","street":{"id":1857345,"name":"On or near Dinam Park"},"longitude":"-3.494062"},"context":"","outcome_status":{"category":"Unable to prosecute suspect","date":"2025-06"},"persistent_id":"60e4bffdc792d5d3bcacd37a3c442da8b0b633cdc5ef7557116fbb93505ffbb3","id":128450336,"location_subtype":"","month":"2025-05"},{"category":"violent-crime","location_type":"Force","location":{"latitude":"51.644688","street":{"id":1857723,"name":"On or near School Street"},"longitude":"-3.486187"},"context":"","outcome_status":{"category":"Unable to prosecute suspect","date":"2025-05"},"persistent_id":"61c9b92fb004f206c4cdd864d25b0072cb0d9b9e2f3ee4c3afecfb2d008d9f8d","id":128450730,"location_subtype":"","month":"2025-05"},{"category":"violent-crime","location_type":"Force","location":{"latitude":"51.653966","street":{"id":1857632,"name":"On or near Rees Place"},"longitude":"-3.491304"},"context":"","outcome_status":{"category":"Unable to prosecute suspect","date":"2025-08"},"persistent_id":"f0696fa8bdaa3fbc7be5c17879dd89069e67c468e4ff4fbcc1b96839c14cc16f","id":128451393,"location_subtype":"","month":"2025-05"},{"category":"violent-crime","location_type":"Force","location":{"latitude":"51.642952","street":{"id":1858133,"name":"On or near Ffordd Seren"},"longitude":"-3.463280"},"context":"","outcome_status":{"category":"Unable to prosecute suspect","date":"2025-07"},"persistent_id":"ffb914ee2c86c91d7966f23b823dfd78debfc2eff1ed627c1158c1502594c18d","id":128452033,"location_subtype":"","month":"2025-05"},{"category":"violent-crime","location_type":"Force","location":{"latitude":"51.644039","street":{"id":1857837,"name":"On or near Rees Street"},"longitude":"-3.479907"},"context":"","outcome_status":{"category":"Investigation complete; no suspect identified","date":"2025-05"},"persistent_id":"0e6729870621441da7df76f0f26e90fb9cd7ffbb852f0d3a3a3db54a20279cde","id":128452865,"location_subtype":"","month":"2025-05"},{"category":"violent-crime","location_type":"Force","location":{"latitude":"51.645106","street":{"id":1857870,"name":"On or near Ystrad Terrace"},"longitude":"-3.478670"},"context":"","outcome_status":{"category":"Status update unavailable","date":"2025-09"},"persistent_id":"87557403429b9e2f8f54f4410cebf0deaee2037ad53f7e121870fd869b856cad","id":128453005,"location_subtype":"","month":"2025-05"},{"category":"violent-crime","location_type":"Force","location":{"latitude":"51.642415","street":{"id":1857801,"name":"On or near Ravenhill Street"},"longitude":"-3.479638"},"context":"","outcome_status":{"category":"Unable to prosecute suspect","date":"2025-09"},"persistent_id":"0fc327aae801e72f74fda4259af2deba34fc0b22b59b57f729090faa89eff742","id":128453021,"location_subtype":"","month":"2025-05"},{"category":"violent-crime","location_type":"Force","location":{"latitude":"51.643935","street":{"id":1857789,"name":"On or near Gelli Road"},"longitude":"-3.483141"},"context":"","outcome_status":{"category":"Status update unavailable","date":"2025-09"},"persistent_id":"bfbdd27d75854321bee256e6eae4b0275e23a6a96f2d3ca04a4d48575bb0fcee","id":128453031,"location_subtype":"","month":"2025-05"},{"category":"violent-crime","location_type":"Force","location":{"latitude":"51.644655","street":{"id":1857957,"name":"On or near Princess Street"},"longitude":"-3.474522"},"context":"","outcome_status":{"category":"Further investigation is not in the public interest","date":"2025-05"},"persistent_id":"4091c9ae84c178d8e414a55775d09eaa06b682764d1484801857491ee03dbb26","id":128453679,"location_subtype":"","month":"2025-05"},{"category":"violent-crime","location_type":"Force","location":{"latitude":"51.647872","street":{"id":1857725,"name":"On or near Petrol Station"},"longitude":"-3.486088"},"context":"","outcome_status":{"category":"Investigation complete; no suspect identified","date":"2025-05"},"persistent_id":"cfd112f0ef3cc0f691c69f5eb0b241bb4068adb8617c11582ac18f052d4a9175","id":128450415,"location_subtype":"","month":"2025-05"},{"category":"violent-crime","location_type":"Force","location":{"latitude":"51.644832","street":{"id":1858086,"name":"On or near Amry Place"},"longitude":"-3.466868"},"context":"","outcome_status":{"category":"Unable to prosecute suspect","date":"2025-05"},"persistent_id":"f6fb606f30a143d478c2bb229baf94cf9b2af90518543a958aca249052c04bc2","id":128450978,"location_subtype":"","month":"2025-05"},{"category":"violent-crime","location_type":"Force","location":{"latitude":"51.656361","street":{"id":1857548,"name":"On or near High Street"},"longitude":"-3.495966"},"context":"","outcome_status":{"category":"Local resolution","date":"2025-05"},"persistent_id":"3541178e0979b0f32bd5c4131bfe4e6d1774e5e59d3da46aaaefcdfe838494c3","id":128451455,"location_subtype":"","month":"2025-05"},{"category":"violent-crime","location_type":"Force","location":{"latitude":"51.648481","street":{"id":1857659,"name":"On or near Augusta Street"},"longitude":"-3.489144"},"context":"","outcome_status":{"category":"Unable to prosecute suspect","date":"2025-05"},"persistent_id":"02709b236126fa337c5ec70bc325917fb7f4aa611bd6f65ffeffc5e1dacb59f3","id":128452030,"location_subtype":"","month":"2025-05"},{"category":"violent-crime","location_type":"Force","location":{"latitude":"51.643685","street":{"id":1857884,"name":"On or near The Orchard"},"longitude":"-3.477323"},"context":"","outcome_status":{"category":"Unable to prosecute suspect","date":"2025-07"},"persistent_id":"be1def3dc05fed49c42f4ea20581731e4b516bf6712ee41f20b34556a516ac27","id":128452218,"location_subtype":"","month":"2025-05"},{"category":"violent-crime","location_type":"Force","location":{"latitude":"51.644687","street":{"id":1857895,"name":"On or near Swn-yr-afon"},"longitude":"-3.477009"},"context":"","outcome_status":{"category":"Unable to prosecute suspect","date":"2025-07"},"persistent_id":"048e37b4eb791c2815ad0623eb124af06e03f239d9c9fa3d7d2ee820cd708782","id":128453096,"location_subtype":"","month":"2025-05"},{"category":"violent-crime","location_type":"Force","location":{"latitude":"51.645979","street":{"id":1857980,"name":"On or near Nebo Estate"},"longitude":"-3.472903"},"context":"","outcome_status":{"category":"Unable to prosecute suspect","date":"2025-06"},"persistent_id":"e768de9374249841d105791494d4036d1d8c54b2230ab983a71584694f579c36","id":128451188,"location_subtype":"","month":"2025-05"},{"category":"violent-crime","location_type":"Force","location":{"latitude":"51.641233","street":{"id":1857786,"name":"On or near Ardwyn Terrace"},"longitude":"-3.483458"},"context":"","outcome_status":{"category":"Unable to prosecute suspect","date":"2025-06"},"persistent_id":"73e60a35da6c0a680f8b6af58d6b7b4799de286fa5e10950fa6e6af2d0d68d54","id":128451262,"location_subtype":"","month":"2025-05"},{"category":"violent-crime","location_type":"Force","location":{"latitude":"51.650999","street":{"id":1857652,"name":"On or near Forge Lane"},"longitude":"-3.489154"},"context":"","outcome_status":{"category":"Local resolution","date":"2025-08"},"persistent_id":"106fae3781771af76b6c492a8ff1f9a6fe7f212de4b84660f5dfab77b59c5a53","id":128450199,"location_subtype":"","month":"2025-05"},{"category":"violent-crime","location_type":"Force","location":{"latitude":"51.643125","street":{"id":1857815,"name":"On or near Avondale Road"},"longitude":"-3.481814"},"context":"","outcome_status":{"category":"Unable to prosecute suspect","date":"2025-07"},"persistent_id":"2b4372ca6a32448b4aad482f2b32ce22d310afa78dda96d3d1d4079099f6f2c1","id":128450864,"location_subtype":"","month":"2025-05"},{"category":"violent-crime","location_type":"Force","location":{"latitude":"51.646144","street":{"id":1857666,"name":"On or near Parry Street"},"longitude":"-3.489053"},"context":"","outcome_status":{"category":"Investigation complete; no suspect identified","date":"2025-06"},"persistent_id":"d1c517c13e3e1780f53adb46bc54c2b568e1ef416d341e5c4d574f933fbfae3b","id":128451928,"location_subtype":"","month":"2025-05"},{"category":"violent-crime","location_type":"Force","location":{"latitude":"51.655312","street":{"id":1857551,"name":"On or near Volunteer Street"},"longitude":"-3.496451"},"context":"","outcome_status":{"category":"Investigation complete; no suspect identified","date":"2025-06"},"persistent_id":"654931817184967379b30d860edf6077e1d118122603606bb2091c8797a79c20","id":128450677,"location_subtype":"","month":"2025-05"},{"category":"other-crime","location_type":"Force","location":{"latitude":"51.657726","street":{"id":1857531,"name":"On or near Myrtle Row"},"longitude":"-3.497500"},"context":"","outcome_status":{"category":"Investigation complete; no suspect identified","date":"2025-06"},"persistent_id":"7878e749f7f0096786b12195370403288eff6a78409e63580667b9e4bdc15a3c","id":128455523,"location_subtype":"","month":"2025-05"},{"category":"other-crime","location_type":"Force","location":{"latitude":"51.654893","street":{"id":1857611,"name":"On or near Alma Place"},"longitude":"-3.492636"},"context":"","outcome_status":{"category":"Status update unavailable","date":"2025-09"},"persistent_id":"f7889475e2fd1897c5ab2a5dd41a8704fe653681c8b8d9d8718cb6d53fdb5184","id":128455441,"location_subtype":"","month":"2025-05"},{"category":"other-crime","location_type":"Force","location":{"latitude":"51.647775","street":{"id":1857990,"name":"On or near Derwen Road"},"longitude":"-3.468827"},"context":"","outcome_status":{"category":"Unable to prosecute suspect","date":"2025-06"},"persistent_id":"dcbd45546776b0bd9d6506eec64599a37941f5c1925f4d1e875f74de54533c41","id":128455582,"location_subtype":"","month":"2025-05"}]