[{"category":"anti-social-behaviour","location_type":"Force","location":{"latitude":"51.945340","street":{"id":2154924,"name":"On or near Station Road"},"longitude":"1.061710"},"context":"","outcome_status":null,"persistent_id":"","id":132002563,"location_subtype":"","month":"2025-10"},{"category":"burglary","location_type":"Force","location":{"latitude":"51.941754","street":{"id":2155112,"name":"On or near Stourview Close"},"longitude":"1.091866"},"context":"","outcome_status":{"category":"Investigation complete; no suspect identified","date":"2025-10"},"persistent_id":"541bd32443bcd6afc50fd78cd0813c4f13a4cbee183790470e6f54580e7cf144","id":132000943,"location_subtype":"","month":"2025-10"},{"category":"burglary","location_type":"Force","location":{"latitude":"51.941754","street":{"id":2155112,"name":"On or near Stourview Close"},"longitude":"1.091866"},"context":"","outcome_status":{"category":"Unable to prosecute suspect","date":"2025-11"},"persistent_id":"dbf2d88ceba9fde68699238ea9e6a7df2aca6ef28add24711af401d83dbea323","id":132000942,"location_subtype":"","month":"2025-10"},{"category":"criminal-damage-arson","location_type":"Force","location":{"latitude":"51.943144","street":{"id":2154959,"name":"On or near Norman Road"},"longitude":"1.065548"},"context":"","outcome_status":{"category":"Investigation complete; no suspect identified","date":"2025-10"},"persistent_id":"f625bf477fb30895b1a88f4033c20dd7e8960e899b9f4c46ceac0b454b29d082","id":131995195,"location_subtype":"","month":"2025-10"},{"category":"drugs","location_type":"Force","location":{"latitude":"51.941084","street":{"id":2155114,"name":"On or near Cambria Close"},"longitude":"1.092038"},"context":"","outcome_status":{"category":"Awaiting court outcome","date":"2025-11"},"persistent_id":"84228b083fe7d2cfe55e8c0c4c6cfd17f4458677ef2fd3b23a9848662410104f","id":131997277,"location_subtype":"","month":"2025-10"},{"category":"other-theft","location_type":"Force","location":{"latitude":"51.940842","street":{"id":2155103,"name":"On or near Harwich Road"},"longitude":"1.089271"},"context":"","outcome_status":{"category":"Under investigation","date":"2025-10"},"persistent_id":"c03f02e5380e106b2d77758f833c004c0bf4168f46f502dcd8a8d75cd40c88a5","id":131997670,"location_subtype":"","month":"2025-10"},{"category":"public-order","location_type":"Force","location":{"latitude":"51.945340","street":{"id":2154924,"name":"On or near Station Road"},"longitude":"1.061710"},"context":"","outcome_status":{"category":"Action to be taken by another organisation","date":"2025-11"},"persistent_id":"3a4ea10b73439b8e8c79d9761c5125dca423461e029af5bd90d51210494e85eb","id":131994871,"location_subtype":"","month":"2025-10"},{"category":"public-order","location_type":"Force","location":{"latitude":"51.940842","street":{"id":2155103,"name":"On or near Harwich Road"},"longitude":"1.089271"},"context":"","outcome_status":{"category":"Investigation complete; no suspect identified","date":"2025-10"},"persistent_id":"61a84f4fc926e4cfaa2fdf53e93c919a8fa13003bf68e30953b448b992ee3b67","id":131991692,"location_subtype":"","month":"2025-10"},{"category":"shoplifting","location_type":"Force","location":{"latitude":"51.945340","street":{"id":2154924,"name":"On or near Station Road"},"longitude":"1.061710"},"context":"","outcome_status":{"category":"Awaiting court outcome","date":"2025-12"},"persistent_id":"b81db3bb79a17bd61f3325af9055b189a413049b36163c06a2c96a5ee0ef08c3","id":131994924,"location_subtype":"","month":"2025-10"},{"category":"shoplifting","location_type":"Force","location":{"latitude":"51.945340","street":{"id":2154924,"name":"On or near Station Road"},"longitude":"1.061710"},"context":"","outcome_status":{"category":"Investigation complete; no suspect identified","date":"2025-10"},"persistent_id":"38264888ad191b7f24f2ac673cc74099876a68322ae096c4a48769f0b6116d1b","id":131998855,"location_subtype":"","month":"2025-10"},{"category":"shoplifting","location_type":"Force","location":{"latitude":"51.947221","street":{"id":2154912,"name":"On or near Supermarket"},"longitude":"1.060616"},"context":"","outcome_status":{"category":"Unable to prosecute suspect","date":"2025-12"},"persistent_id":"0dc59a9d4fb3aeba0b5c1a6910902c7f2eb5e45e45ddf7058d0fd1fe0a0e379a","id":131996166,"location_subtype":"","month":"2025-10"},{"category":"shoplifting","location_type":"Force","location":{"latitude":"51.945340","street":{"id":2154924,"name":"On or near Station Road"},"longitude":"1.061710"},"context":"","outcome_status":{"category":"Investigation complete; no suspect identified","date":"2025-12"},"persistent_id":"9c95d8756603329bf583fd37fc25fc26c6a902d7104ebc748696dff6b5e6f60c","id":131999985,"location_subtype":"","month":"2025-10"},{"category":"theft-from-the-person","location_type":"Force","location":{"latitude":"51.945409","street":{"id":2154948,"name":"On or near High Street"},"longitude":"1.064553"},"context":"","outcome_status":{"category":"Investigation complete; no suspect identified","date":"2025-10"},"persistent_id":"e4c1a917007143480f8ad219c2fed9fea00db339a75637a19c0d844cc8e98ee5","id":131992973,"location_subtype":"","month":"2025-10"},{"category":"vehicle-crime","location_type":"Force","location":{"latitude":"51.943940","street":{"id":2154934,"name":"On or near Brook Street"},"longitude":"1.062954"},"context":"","outcome_status":{"category":"Under investigation","date":"2025-10"},"persistent_id":"b6f125283e040c00b663c8f2f6e2aafe40d360b6d9aacd2e526bbf8a592fca32","id":132000428,"location_subtype":"","month":"2025-10"},{"category":"violent-crime","location_type":"Force","location":{"latitude":"51.939039","street":{"id":2155092,"name":"On or near Rigby Avenue"},"longitude":"1.088739"},"context":"","outcome_status":{"category":"Awaiting court outcome","date":"2025-10"},"persistent_id":"6d780b39d821d01a71f1343568c4eedf736c061133277abf26280e71df4a9d58","id":131990785,"location_subtype":"","month":"2025-10"},{"category":"violent-crime","location_type":"Force","location":{"latitude":"51.941084","street":{"id":2155114,"name":"On or near Cambria Close"},"longitude":"1.092038"},"context":"","outcome_status":{"category":"Investigation complete; no suspect identified","date":"2025-11"},"persistent_id":"1759e87b07bd5298f21469cf168d0e889cd20ec6baba355a7d7a13b3a552b30c","id":131997925,"location_subtype":"","month":"2025-10"},{"category":"violent-crime","location_type":"Force","location":{"latitude":"51.939039","street":{"id":2155092,"name":"On or near Rigby Avenue"},"longitude":"1.088739"},"context":"","outcome_status":{"category":"Awaiting court outcome","date":"2025-11"},"persistent_id":"fd4916a2b8747ba7cfdb90324af664d2d6026b4bb9e40eff69511e91ae024652","id":132000913,"location_subtype":"","month":"2025-10"},{"category":"violent-crime","location_type":"Force","location":{"latitude":"51.941080","street":{"id":2154892,"name":"On or near Colchester Road"},"longitude":"1.055337"},"context":"","outcome_status":{"category":"Formal action is not in the public interest","date":"2025-11"},"persistent_id":"87ec848333fb54e1f8aace1497f35e206a9a0bae34ed7fee20896cb650a1306b","id":132000593,"location_subtype":"","month":"2025-10"},{"category":"violent-crime","location_type":"Force","location":{"latitude":"51.941646","street":{"id":2154944,"name":"On or near The Chase"},"longitude":"1.065053"},"context":"","outcome_status":{"category":"Action to be taken by another organisation","date":"2026-01"},"persistent_id":"58ed14bf65b57a7962bccfa1d19e0399889acf1be90138f1447053c74ce61118","id":131998674,"location_subtype":"","month":"2025-10"},{"category":"violent-crime","location_type":"Force","location":{"latitude":"51.941080","street":{"id":2154892,"name":"On or near Colchester Road"},"longitude":"1.055337"},"context":"","outcome_status":{"category":"Unable to prosecute suspect","date":"2025-10"},"persistent_id":"0c57e39d440e2fb0decd476b6be15f02648156e6e6302c518396dd95ca87b88e","id":131996803,"location_subtype":"","month":"2025-10"}]