[{"category":"anti-social-behaviour","location_type":"Force","location":{"latitude":"51.865791","street":{"id":2153129,"name":"On or near Sheering Walk"},"longitude":"0.902050"},"context":"","outcome_status":null,"persistent_id":"","id":133170084,"location_subtype":"","month":"2026-01"},{"category":"anti-social-behaviour","location_type":"Force","location":{"latitude":"51.871493","street":{"id":2152582,"name":"On or near Supermarket"},"longitude":"0.871994"},"context":"","outcome_status":null,"persistent_id":"","id":133169425,"location_subtype":"","month":"2026-01"},{"category":"anti-social-behaviour","location_type":"Force","location":{"latitude":"51.864029","street":{"id":2152679,"name":"On or near Minerva End"},"longitude":"0.878970"},"context":"","outcome_status":null,"persistent_id":"","id":133169491,"location_subtype":"","month":"2026-01"},{"category":"anti-social-behaviour","location_type":"Force","location":{"latitude":"51.860536","street":{"id":2153331,"name":"On or near West Donyland Court"},"longitude":"0.907609"},"context":"","outcome_status":null,"persistent_id":"","id":133170108,"location_subtype":"","month":"2026-01"},{"category":"anti-social-behaviour","location_type":"Force","location":{"latitude":"51.867253","street":{"id":2152838,"name":"On or near Ilex Close"},"longitude":"0.887210"},"context":"","outcome_status":null,"persistent_id":"","id":133169216,"location_subtype":"","month":"2026-01"},{"category":"anti-social-behaviour","location_type":"Force","location":{"latitude":"51.861901","street":{"id":2153146,"name":"On or near James Parnell Drive"},"longitude":"0.900420"},"context":"","outcome_status":null,"persistent_id":"","id":133169082,"location_subtype":"","month":"2026-01"},{"category":"anti-social-behaviour","location_type":"Force","location":{"latitude":"51.878397","street":{"id":2152663,"name":"On or near Eudo Road"},"longitude":"0.877288"},"context":"","outcome_status":null,"persistent_id":"","id":133170117,"location_subtype":"","month":"2026-01"},{"category":"bicycle-theft","location_type":"Force","location":{"latitude":"51.879155","street":{"id":2152717,"name":"On or near Alport Avenue"},"longitude":"0.879370"},"context":"","outcome_status":{"category":"Under investigation","date":"2026-01"},"persistent_id":"760af8ff32e154c75f16ebd69a2a38d948229a908e38f1fbf0fcf372f38d4101","id":133154200,"location_subtype":"","month":"2026-01"},{"category":"bicycle-theft","location_type":"Force","location":{"latitude":"51.863462","street":{"id":2153208,"name":"On or near Monkwick Avenue"},"longitude":"0.903121"},"context":"","outcome_status":{"category":"Investigation complete; no suspect identified","date":"2026-01"},"persistent_id":"33a905b33e090bc8e02d9566b022822764da75f4f42666ed371147a2bf167996","id":133165736,"location_subtype":"","month":"2026-01"},{"category":"burglary","location_type":"Force","location":{"latitude":"51.878108","street":{"id":2153028,"name":"On or near Circular Road South"},"longitude":"0.896377"},"context":"","outcome_status":{"category":"Under investigation","date":"2026-01"},"persistent_id":"fe92ced4e7a410c5ce10e0395b48596eeac23409cdd4ab3cbd77fb69a3ad54fe","id":133165346,"location_subtype":"","month":"2026-01"},{"category":"burglary","location_type":"Force","location":{"latitude":"51.868619","street":{"id":2152660,"name":"On or near Salamanca Way"},"longitude":"0.876649"},"context":"","outcome_status":{"category":"Investigation complete; no suspect identified","date":"2026-01"},"persistent_id":"ffa6f7c81d6bd02a61a674996670dde7651832663a3f60718188699a9e2b9edc","id":133167312,"location_subtype":"","month":"2026-01"},{"category":"burglary","location_type":"Force","location":{"latitude":"51.866779","street":{"id":2153259,"name":"On or near School Road"},"longitude":"0.904642"},"context":"","outcome_status":{"category":"Awaiting court outcome","date":"2026-01"},"persistent_id":"53df784f142ca8777ee3870ea4213bc172da8284985b67f20b9f90e2f82d691f","id":133166153,"location_subtype":"","month":"2026-01"},{"category":"burglary","location_type":"Force","location":{"latitude":"51.864029","street":{"id":2152679,"name":"On or near Minerva End"},"longitude":"0.878970"},"context":"","outcome_status":{"category":"Under investigation","date":"2026-01"},"persistent_id":"9aae428e6c74896debc54e69301c9398afbeedced3b91209abf6015fbcd2ad3d","id":133165345,"location_subtype":"","month":"2026-01"},{"category":"burglary","location_type":"Force","location":{"latitude":"51.871461","street":{"id":2152597,"name":"On or near Iceni Way"},"longitude":"0.872965"},"context":"","outcome_status":{"category":"Investigation complete; no suspect identified","date":"2026-01"},"persistent_id":"72e1c37b15e50e60cd82669bb8cfdb67fef27c5adb554258c0d42557da17ad1f","id":133153840,"location_subtype":"","month":"2026-01"},{"category":"burglary","location_type":"Force","location":{"latitude":"51.876813","street":{"id":2152773,"name":"On or near Turnstile Square"},"longitude":"0.882853"},"context":"","outcome_status":{"category":"Investigation complete; no suspect identified","date":"2026-01"},"persistent_id":"954bac15bc24484d8a1be96ae4e9efbf2dc6df6ebf12a3b9bf2843a9a44c1ae8","id":133154534,"location_subtype":"","month":"2026-01"},{"category":"burglary","location_type":"Force","location":{"latitude":"51.863462","street":{"id":2153208,"name":"On or near Monkwick Avenue"},"longitude":"0.903121"},"context":"","outcome_status":{"category":"Under investigation","date":"2026-01"},"persistent_id":"759e8bfb6db3b95a66c7429f421ec86e9baf98777a046d77789a808abdce5e07","id":133157361,"location_subtype":"","month":"2026-01"},{"category":"burglary","location_type":"Force","location":{"latitude":"51.867106","street":{"id":2152667,"name":"On or near Lordswood Road"},"longitude":"0.876726"},"context":"","outcome_status":{"category":"Investigation complete; no suspect identified","date":"2026-01"},"persistent_id":"7884d148d759dbd02870f39cffad21b511981b23eaa0cb31295eac4b19c9786b","id":133153841,"location_subtype":"","month":"2026-01"},{"category":"criminal-damage-arson","location_type":"Force","location":{"latitude":"51.862384","street":{"id":2153442,"name":"On or near Darwin Close"},"longitude":"0.911084"},"context":"","outcome_status":{"category":"Unable to prosecute suspect","date":"2026-01"},"persistent_id":"00c0dba4469c0fd41a4ea173fd2fe204a16f05b3772461290f8b25338c7ced26","id":133154577,"location_subtype":"","month":"2026-01"},{"category":"criminal-damage-arson","location_type":"Force","location":{"latitude":"51.860712","street":{"id":2153093,"name":"On or near Thomas Benold Walk"},"longitude":"0.899385"},"context":"","outcome_status":{"category":"Under investigation","date":"2026-01"},"persistent_id":"606c8ffd48d0e62f243e7e8ef2dd877680e6243336ad5fc6a57793e8d19d34c9","id":133168740,"location_subtype":"","month":"2026-01"},{"category":"criminal-damage-arson","location_type":"Force","location":{"latitude":"51.879483","street":{"id":2152851,"name":"On or near Goojerat Road"},"longitude":"0.889113"},"context":"","outcome_status":{"category":"Formal action is not in the public interest","date":"2026-01"},"persistent_id":"07fb22e52012dacd60feb05cca3a21248a0a08a216490b5ef8ca62d3f31b52b3","id":133165758,"location_subtype":"","month":"2026-01"},{"category":"criminal-damage-arson","location_type":"Force","location":{"latitude":"51.882492","street":{"id":2153040,"name":"On or near Sports/recreation Area"},"longitude":"0.898193"},"context":"","outcome_status":{"category":"Investigation complete; no suspect identified","date":"2026-01"},"persistent_id":"110392b3766f0c51f3c9e81237b3f08fef4419362fffce80bf3378857ec3bb28","id":133157417,"location_subtype":"","month":"2026-01"},{"category":"criminal-damage-arson","location_type":"Force","location":{"latitude":"51.879762","street":{"id":2153296,"name":"On or near Campion Road"},"longitude":"0.906612"},"context":"","outcome_status":{"category":"Investigation complete; no suspect identified","date":"2026-01"},"persistent_id":"ebfe07bea0689c24434ab28478940d809e58ecd61cfd3fbfeb59524cc4bc4de1","id":133153870,"location_subtype":"","month":"2026-01"},{"category":"criminal-damage-arson","location_type":"Force","location":{"latitude":"51.862221","street":{"id":2153287,"name":"On or near Terling Close"},"longitude":"0.906047"},"context":"","outcome_status":{"category":"Under investigation","date":"2026-01"},"persistent_id":"1a3477277bd90f705f53215a0fdcf3fd23c0f88893e8081ef9b784ada439121b","id":133168380,"location_subtype":"","month":"2026-01"},{"category":"criminal-damage-arson","location_type":"Force","location":{"latitude":"51.863491","street":{"id":2153209,"name":"On or near Bevan Close"},"longitude":"0.903050"},"context":"","outcome_status":{"category":"Unable to prosecute suspect","date":"2026-01"},"persistent_id":"b8958c24ff013f9ed54322d628553982200a03e04632ed0abc712ca69d8f594d","id":133163672,"location_subtype":"","month":"2026-01"},{"category":"criminal-damage-arson","location_type":"Force","location":{"latitude":"51.878108","street":{"id":2153028,"name":"On or near Circular Road South"},"longitude":"0.896377"},"context":"","outcome_status":{"category":"Investigation complete; no suspect identified","date":"2026-01"},"persistent_id":"b487cd25d8ffe4730864e27ac44156b224b252f03e78ecbdb7890813861e9b8b","id":133154897,"location_subtype":"","month":"2026-01"},{"category":"criminal-damage-arson","location_type":"Force","location":{"latitude":"51.868619","street":{"id":2152660,"name":"On or near Salamanca Way"},"longitude":"0.876649"},"context":"","outcome_status":{"category":"Unable to prosecute suspect","date":"2026-01"},"persistent_id":"4bc95f88ba9dd9232469d19bb6284aed6780d9bd452dfa92273e5f01cb8fea30","id":133154896,"location_subtype":"","month":"2026-01"},{"category":"drugs","location_type":"Force","location":{"latitude":"51.873465","street":{"id":2152754,"name":"On or near Hollytree Court"},"longitude":"0.881114"},"context":"","outcome_status":{"category":"Under investigation","date":"2026-01"},"persistent_id":"f323aad3a8fe4bb12cf581408d45ee74eae518e5daad82aaba846a94c54af3d0","id":133158069,"location_subtype":"","month":"2026-01"},{"category":"drugs","location_type":"Force","location":{"latitude":"51.876442","street":{"id":2152830,"name":"On or near Mons Road"},"longitude":"0.886230"},"context":"","outcome_status":{"category":"Investigation complete; no suspect identified","date":"2026-01"},"persistent_id":"d30a5b6b401f32116e110073c7d51eb9e424d37b0351bb5aab53c9b00c6275aa","id":133154262,"location_subtype":"","month":"2026-01"},{"category":"drugs","location_type":"Force","location":{"latitude":"51.871998","street":{"id":2153099,"name":"On or near Memnon Court"},"longitude":"0.899428"},"context":"","outcome_status":{"category":"Under investigation","date":"2026-01"},"persistent_id":"5966a4c0625c93b07353ab7b63732cfaf66590ab26c4477e780570624ebed3f8","id":133161486,"location_subtype":"","month":"2026-01"},{"category":"drugs","location_type":"Force","location":{"latitude":"51.859979","street":{"id":2153095,"name":"On or near Richard Nichols Cl."},"longitude":"0.899221"},"context":"","outcome_status":{"category":"Under investigation","date":"2026-01"},"persistent_id":"856966a39733d5f05c425255cd34edc6aa6e57493ea3614110145e1b101cb912","id":133165035,"location_subtype":"","month":"2026-01"},{"category":"drugs","location_type":"Force","location":{"latitude":"51.867751","street":{"id":2152642,"name":"On or near Talavera Crescent"},"longitude":"0.876433"},"context":"","outcome_status":{"category":"Under investigation","date":"2026-01"},"persistent_id":"519dcb10b70bb466e6d1e9d51e963870f4e3035e72f1119c1e90a32f0bcde8cb","id":133168761,"location_subtype":"","month":"2026-01"},{"category":"other-theft","location_type":"Force","location":{"latitude":"51.871964","street":{"id":2153368,"name":"On or near Petrol Station"},"longitude":"0.908841"},"context":"","outcome_status":{"category":"Under investigation","date":"2026-01"},"persistent_id":"c49cdb5fe79250ca5f7e3954abff73ee6cb005c7d844fa0fa251afde834acf7a","id":133159256,"location_subtype":"","month":"2026-01"},{"category":"other-theft","location_type":"Force","location":{"latitude":"51.868326","street":{"id":2152676,"name":"On or near Corunna Drive"},"longitude":"0.877574"},"context":"","outcome_status":{"category":"Investigation complete; no suspect identified","date":"2026-01"},"persistent_id":"09bb623193ea362678f97d09a4fdd77b0d908e7ac8d2f4e141a699ff060d4f65","id":133165069,"location_subtype":"","month":"2026-01"},{"category":"other-theft","location_type":"Force","location":{"latitude":"51.871998","street":{"id":2153099,"name":"On or near Memnon Court"},"longitude":"0.899428"},"context":"","outcome_status":{"category":"Investigation complete; no suspect identified","date":"2026-01"},"persistent_id":"f9386aa607a54a6ce5a8754f709160c7585a44d707e36638b345a34bb20cffae","id":133164612,"location_subtype":"","month":"2026-01"},{"category":"other-theft","location_type":"Force","location":{"latitude":"51.883386","street":{"id":2152936,"name":"On or near Garland Road"},"longitude":"0.892779"},"context":"","outcome_status":{"category":"Awaiting court outcome","date":"2026-01"},"persistent_id":"942ccc77fdfa184bacd146bff9e0da41f95a266a0f3ba63b66a639991cfb1bb0","id":133163801,"location_subtype":"","month":"2026-01"},{"category":"other-theft","location_type":"Force","location":{"latitude":"51.871493","street":{"id":2152582,"name":"On or near Supermarket"},"longitude":"0.871994"},"context":"","outcome_status":{"category":"Under investigation","date":"2026-01"},"persistent_id":"72d1f73c92c284364490aa66f742182299f82cd74e329f7289021de2cb8a42ea","id":133167752,"location_subtype":"","month":"2026-01"},{"category":"other-theft","location_type":"Force","location":{"latitude":"51.879005","street":{"id":2153247,"name":"On or near Meyrick Crescent"},"longitude":"0.903759"},"context":"","outcome_status":{"category":"Investigation complete; no suspect identified","date":"2026-01"},"persistent_id":"13422a6a65bc77c237a77375dd53e7c362dac65d89702a8ca87c6911d7306c09","id":133159968,"location_subtype":"","month":"2026-01"},{"category":"other-theft","location_type":"Force","location":{"latitude":"51.871964","street":{"id":2153368,"name":"On or near Petrol Station"},"longitude":"0.908841"},"context":"","outcome_status":{"category":"Investigation complete; no suspect identified","date":"2026-01"},"persistent_id":"3fbe3bbc5d9ccc58462467d0b595e3ea8ea205404143594c2ab1504c10eb774e","id":133159257,"location_subtype":"","month":"2026-01"},{"category":"other-theft","location_type":"Force","location":{"latitude":"51.869900","street":{"id":2152630,"name":"On or near Sparling Close"},"longitude":"0.874638"},"context":"","outcome_status":{"category":"Investigation complete; no suspect identified","date":"2026-01"},"persistent_id":"099fd5bd3bcaa2e30e7269b35c897ceeaef75222d33b4df5c0192ebda3978494","id":133165826,"location_subtype":"","month":"2026-01"},{"category":"other-theft","location_type":"Force","location":{"latitude":"51.860536","street":{"id":2153331,"name":"On or near West Donyland Court"},"longitude":"0.907609"},"context":"","outcome_status":{"category":"Investigation complete; no suspect identified","date":"2026-01"},"persistent_id":"fc0aa729ccf3a68986497310d4618c1908e8494b50a8bb752de5b546ecf2318e","id":133165828,"location_subtype":"","month":"2026-01"},{"category":"public-order","location_type":"Force","location":{"latitude":"51.876614","street":{"id":2153198,"name":"On or near Maple Way"},"longitude":"0.904448"},"context":"","outcome_status":{"category":"Under investigation","date":"2026-01"},"persistent_id":"07018cb049664e9580b4b66a29c79a8ff7d01fecc18f8982cf00e9a490970ea4","id":133165106,"location_subtype":"","month":"2026-01"},{"category":"public-order","location_type":"Force","location":{"latitude":"51.875108","street":{"id":2152865,"name":"On or near Gryphon Road"},"longitude":"0.893308"},"context":"","outcome_status":{"category":"Under investigation","date":"2026-01"},"persistent_id":"8bd76e75a7a15ec44aa4287ae894c86556530e8430db976148f2bba825e46093","id":133166275,"location_subtype":"","month":"2026-01"},{"category":"public-order","location_type":"Force","location":{"latitude":"51.881622","street":{"id":2152826,"name":"On or near Constantine Road"},"longitude":"0.885864"},"context":"","outcome_status":{"category":"Investigation complete; no suspect identified","date":"2026-01"},"persistent_id":"85a487d522b63fd8a576f03f8fb5fbe46c429b0683d66c9fcaa38bf5ce0803c2","id":133160756,"location_subtype":"","month":"2026-01"},{"category":"public-order","location_type":"Force","location":{"latitude":"51.874078","street":{"id":2153187,"name":"On or near Harrison Road"},"longitude":"0.901872"},"context":"","outcome_status":{"category":"Investigation complete; no suspect identified","date":"2026-01"},"persistent_id":"ab97bcaf39a5ce7644d8b0085e15af3d87e3e2db3a594b71a1abf5eaca80c553","id":133162331,"location_subtype":"","month":"2026-01"},{"category":"public-order","location_type":"Force","location":{"latitude":"51.860710","street":{"id":2153026,"name":"On or near Madeley Close"},"longitude":"0.896203"},"context":"","outcome_status":{"category":"Unable to prosecute suspect","date":"2026-01"},"persistent_id":"57d2d96d9cfb13df5d203046eb20d5a64c26ab19c0d0495ddfc995328962fda2","id":133165476,"location_subtype":"","month":"2026-01"},{"category":"public-order","location_type":"Force","location":{"latitude":"51.864029","street":{"id":2152679,"name":"On or near Minerva End"},"longitude":"0.878970"},"context":"","outcome_status":{"category":"Unable to prosecute suspect","date":"2026-01"},"persistent_id":"4441a495bc425a87f82f5d5d2589381762479ebb9fcf12a3266fbb752c3c855f","id":133166274,"location_subtype":"","month":"2026-01"},{"category":"public-order","location_type":"Force","location":{"latitude":"51.879155","street":{"id":2152717,"name":"On or near Alport Avenue"},"longitude":"0.879370"},"context":"","outcome_status":{"category":"Awaiting court outcome","date":"2026-01"},"persistent_id":"4380b58dc859c8968ecd7cbeece0593900962ce294d8e65fb81897d18da116de","id":133160040,"location_subtype":"","month":"2026-01"},{"category":"robbery","location_type":"Force","location":{"latitude":"51.868137","street":{"id":2152909,"name":"On or near Berechurch Road"},"longitude":"0.891887"},"context":"","outcome_status":{"category":"Under investigation","date":"2026-01"},"persistent_id":"a76c2134ba8f252c7d1cd566d10ee5b1db9fceab663ab79c48fb96c76bd64386","id":133163891,"location_subtype":"","month":"2026-01"},{"category":"robbery","location_type":"Force","location":{"latitude":"51.864874","street":{"id":2152817,"name":"On or near Selby Close"},"longitude":"0.887058"},"context":"","outcome_status":{"category":"Under investigation","date":"2026-01"},"persistent_id":"50eb28503efa7e697c25dc48f2efe93536a2225d2af4b18bfc66a9a1c83e880c","id":133159318,"location_subtype":"","month":"2026-01"},{"category":"robbery","location_type":"Force","location":{"latitude":"51.873099","street":{"id":2153440,"name":"On or near Sargeant Close"},"longitude":"0.912023"},"context":"","outcome_status":{"category":"Under investigation","date":"2026-01"},"persistent_id":"ff9897b12b854a4206b52b5d25532257fe06055c1de24db4f95263e06821b0e7","id":133166690,"location_subtype":"","month":"2026-01"},{"category":"robbery","location_type":"Force","location":{"latitude":"51.873822","street":{"id":2152594,"name":"On or near Mason Close"},"longitude":"0.872404"},"context":"","outcome_status":{"category":"Investigation complete; no suspect identified","date":"2026-01"},"persistent_id":"489dd850d73a4d150f2216cc5211ad9a59ef727867fc3d3aa364c613c43bd71f","id":133155615,"location_subtype":"","month":"2026-01"},{"category":"robbery","location_type":"Force","location":{"latitude":"51.873483","street":{"id":2152634,"name":"On or near Somerset Close"},"longitude":"0.874867"},"context":"","outcome_status":{"category":"Under investigation","date":"2026-01"},"persistent_id":"13d7bf99b480196b5d38fd2f2d3410aea2acfb36850900ff8e7ef0c64e0c9bfa","id":133165113,"location_subtype":"","month":"2026-01"},{"category":"robbery","location_type":"Force","location":{"latitude":"51.873700","street":{"id":2153121,"name":"On or near Gurdon Road"},"longitude":"0.901150"},"context":"","outcome_status":{"category":"Investigation complete; no suspect identified","date":"2026-01"},"persistent_id":"636e7289253f19202ed9fa543d37b7c83931e24499aad37320d154c5450c1643","id":133160050,"location_subtype":"","month":"2026-01"},{"category":"shoplifting","location_type":"Force","location":{"latitude":"51.864052","street":{"id":2153322,"name":"On or near Stansted Road"},"longitude":"0.907633"},"context":"","outcome_status":{"category":"Under investigation","date":"2026-01"},"persistent_id":"23e095a83230bd708b0d6a985ecb80dbdaac58d792e20c64e3d2684e1f49952e","id":133164751,"location_subtype":"","month":"2026-01"},{"category":"shoplifting","location_type":"Force","location":{"latitude":"51.864052","street":{"id":2153322,"name":"On or near Stansted Road"},"longitude":"0.907633"},"context":"","outcome_status":{"category":"Investigation complete; no suspect identified","date":"2026-01"},"persistent_id":"69b58a996aa17a4e3d3ea5eb04e4e61793ee521ea73410623895652addfbcb3f","id":133163938,"location_subtype":"","month":"2026-01"},{"category":"shoplifting","location_type":"Force","location":{"latitude":"51.879155","street":{"id":2152717,"name":"On or near Alport Avenue"},"longitude":"0.879370"},"context":"","outcome_status":{"category":"Investigation complete; no suspect identified","date":"2026-01"},"persistent_id":"cabafaa7f390619e2c13ed5dcac5465829e34edc3036e7e32e6cb7bcd43ef727","id":133154672,"location_subtype":"","month":"2026-01"},{"category":"shoplifting","location_type":"Force","location":{"latitude":"51.871493","street":{"id":2152582,"name":"On or near Supermarket"},"longitude":"0.871994"},"context":"","outcome_status":{"category":"Under investigation","date":"2026-01"},"persistent_id":"d82b0adc5cb7bd5a88d3cb7712273c6dcd74d93562aa644798e38e1c1732285a","id":133166326,"location_subtype":"","month":"2026-01"},{"category":"shoplifting","location_type":"Force","location":{"latitude":"51.879801","street":{"id":2153297,"name":"On or near Supermarket"},"longitude":"0.905592"},"context":"","outcome_status":{"category":"Investigation complete; no suspect identified","date":"2026-01"},"persistent_id":"fb418ae6821f1072c70c47087b10815f4e0977ba8a8eee632a049d4b58fc2a7f","id":133166328,"location_subtype":"","month":"2026-01"},{"category":"shoplifting","location_type":"Force","location":{"latitude":"51.871493","street":{"id":2152582,"name":"On or near Supermarket"},"longitude":"0.871994"},"context":"","outcome_status":{"category":"Under investigation","date":"2026-01"},"persistent_id":"a48758295a9a801eb9816605b243a802cedf57b4f083eb38b339ef9fcd9dd144","id":133168866,"location_subtype":"","month":"2026-01"},{"category":"shoplifting","location_type":"Force","location":{"latitude":"51.879155","street":{"id":2152717,"name":"On or near Alport Avenue"},"longitude":"0.879370"},"context":"","outcome_status":{"category":"Investigation complete; no suspect identified","date":"2026-01"},"persistent_id":"87019efbc290f8dc8c0838f5c77bd313f142d15b8eb72864fbe634b18f6fbb87","id":133158697,"location_subtype":"","month":"2026-01"},{"category":"shoplifting","location_type":"Force","location":{"latitude":"51.871493","street":{"id":2152582,"name":"On or near Supermarket"},"longitude":"0.871994"},"context":"","outcome_status":{"category":"Under investigation","date":"2026-01"},"persistent_id":"609fd06201b237b15bc4eaecc1208f35fdd32b8c5fab770fc77ce72e895d463d","id":133167811,"location_subtype":"","month":"2026-01"},{"category":"shoplifting","location_type":"Force","location":{"latitude":"51.879632","street":{"id":2153280,"name":"On or near Supermarket"},"longitude":"0.905340"},"context":"","outcome_status":{"category":"Under investigation","date":"2026-01"},"persistent_id":"449daa8c3c7ab980f1ed7cbf7c64a63a5afa727bbf3150be27e7da70fb3c4edb","id":133161677,"location_subtype":"","month":"2026-01"},{"category":"shoplifting","location_type":"Force","location":{"latitude":"51.864052","street":{"id":2153322,"name":"On or near Stansted Road"},"longitude":"0.907633"},"context":"","outcome_status":{"category":"Investigation complete; no suspect identified","date":"2026-01"},"persistent_id":"08ead39b4c28e6b2310f7689b0ad8764e59828998f946f219e426191074362f4","id":133163940,"location_subtype":"","month":"2026-01"},{"category":"theft-from-the-person","location_type":"Force","location":{"latitude":"51.877999","street":{"id":2152850,"name":"On or near Cambrai Road"},"longitude":"0.887303"},"context":"","outcome_status":{"category":"Unable to prosecute suspect","date":"2026-01"},"persistent_id":"7ff165e13f636848328e52c731ad154278d677f05d3def2f4cb8386fb39cfca3","id":133163956,"location_subtype":"","month":"2026-01"},{"category":"vehicle-crime","location_type":"Force","location":{"latitude":"51.861901","street":{"id":2153146,"name":"On or near James Parnell Drive"},"longitude":"0.900420"},"context":"","outcome_status":{"category":"Under investigation","date":"2026-01"},"persistent_id":"852967b9b56b146dd72134f1a6f1dc73464f82911c72ecbf33dc064cfbbb6376","id":133154028,"location_subtype":"","month":"2026-01"},{"category":"vehicle-crime","location_type":"Force","location":{"latitude":"51.865214","street":{"id":2153289,"name":"On or near Parnell Close"},"longitude":"0.906473"},"context":"","outcome_status":{"category":"Investigation complete; no suspect identified","date":"2026-01"},"persistent_id":"79d565577362901af39d87eedf1801f8fda72680db9383cff95aed2df9a5f86a","id":133157036,"location_subtype":"","month":"2026-01"},{"category":"vehicle-crime","location_type":"Force","location":{"latitude":"51.862619","street":{"id":2152977,"name":"On or near Wall Mews"},"longitude":"0.895382"},"context":"","outcome_status":{"category":"Investigation complete; no suspect identified","date":"2026-01"},"persistent_id":"152392fd4a110d6cf04d2d993b284ff3c9cba717f97ed4b5d4c365b06e0f54ee","id":133167125,"location_subtype":"","month":"2026-01"},{"category":"vehicle-crime","location_type":"Force","location":{"latitude":"51.869156","street":{"id":2152598,"name":"On or near Harvey Road"},"longitude":"0.873429"},"context":"","outcome_status":{"category":"Unable to prosecute suspect","date":"2026-01"},"persistent_id":"76513804458849ea9f9cc3c8d8f0ff347200da90d4f40b725807e08eab8726a9","id":133168538,"location_subtype":"","month":"2026-01"},{"category":"vehicle-crime","location_type":"Force","location":{"latitude":"51.868619","street":{"id":2152660,"name":"On or near Salamanca Way"},"longitude":"0.876649"},"context":"","outcome_status":{"category":"Under investigation","date":"2026-01"},"persistent_id":"e6a78ab6c4356bb72979c6f185627e38afb0266199d880dda6872de33e9bebf2","id":133166736,"location_subtype":"","month":"2026-01"},{"category":"vehicle-crime","location_type":"Force","location":{"latitude":"51.868354","street":{"id":2152636,"name":"On or near Catherine Hunt Way"},"longitude":"0.874598"},"context":"","outcome_status":{"category":"Under investigation","date":"2026-01"},"persistent_id":"c54f3014b20720e2c62a93f99ab8f9debca3c2fc06e5f31e67e09a6fef8683a6","id":133168890,"location_subtype":"","month":"2026-01"},{"category":"violent-crime","location_type":"Force","location":{"latitude":"51.859964","street":{"id":2153284,"name":"On or near Wethersfield Road"},"longitude":"0.905641"},"context":"","outcome_status":{"category":"Under investigation","date":"2026-01"},"persistent_id":"602cecb9948b52173a5f46924967f24bff48eafdc38be1d57e3a550e8d174b2a","id":133165312,"location_subtype":"","month":"2026-01"},{"category":"violent-crime","location_type":"Force","location":{"latitude":"51.862239","street":{"id":2152637,"name":"On or near Berechurch Hall Road"},"longitude":"0.877505"},"context":"","outcome_status":{"category":"Under investigation","date":"2026-01"},"persistent_id":"44e9861538f9e0b28ff3b9a084bf4e521aa982daf3c3be75c75674b14dc2bf74","id":133169013,"location_subtype":"","month":"2026-01"},{"category":"violent-crime","location_type":"Force","location":{"latitude":"51.858678","street":{"id":2153182,"name":"On or near Lethe Grove"},"longitude":"0.902377"},"context":"","outcome_status":{"category":"Under investigation","date":"2026-01"},"persistent_id":"a6b4176c76ca9faaf6420ad0b97ea9ae34edecb1bcef5d36699a7c1c0da675b8","id":133169023,"location_subtype":"","month":"2026-01"},{"category":"violent-crime","location_type":"Force","location":{"latitude":"51.861392","street":{"id":2153191,"name":"On or near James Gore Drive"},"longitude":"0.901723"},"context":"","outcome_status":{"category":"Under investigation","date":"2026-01"},"persistent_id":"94de268b55eb4ba7de4c3f091ba4029ca47876d8786e1f7227060d3617c13a59","id":133169025,"location_subtype":"","month":"2026-01"},{"category":"violent-crime","location_type":"Force","location":{"latitude":"51.864520","street":{"id":2152794,"name":"On or near Bay Tree Close"},"longitude":"0.885001"},"context":"","outcome_status":{"category":"Under investigation","date":"2026-01"},"persistent_id":"d506e88cef7ffec06ef23ede8d6a0519c24121b5859cce9c8c00350d29aa6666","id":133164935,"location_subtype":"","month":"2026-01"},{"category":"violent-crime","location_type":"Force","location":{"latitude":"51.869385","street":{"id":2152571,"name":"On or near John Kent Avenue"},"longitude":"0.872165"},"context":"","outcome_status":{"category":"Under investigation","date":"2026-01"},"persistent_id":"b1f686874eb033316aaadad345f6aa52253f33313d5404ef806e893e480e7108","id":133161193,"location_subtype":"","month":"2026-01"},{"category":"violent-crime","location_type":"Force","location":{"latitude":"51.859917","street":{"id":2153299,"name":"On or near Pebmarsh Close"},"longitude":"0.906465"},"context":"","outcome_status":{"category":"Action to be taken by another organisation","date":"2026-01"},"persistent_id":"040429935b48df68612e7ccb0080ce7ca76342636909ae1330ec3d2281629678","id":133156656,"location_subtype":"","month":"2026-01"},{"category":"violent-crime","location_type":"Force","location":{"latitude":"51.871441","street":{"id":2153069,"name":"On or near Chariot Drive"},"longitude":"0.898303"},"context":"","outcome_status":{"category":"Under investigation","date":"2026-01"},"persistent_id":"ca5573591d6a9fec0f74875f48a4023d0e11de0acfb0c93d546c3ae90d14b542","id":133267940,"location_subtype":"","month":"2026-01"},{"category":"violent-crime","location_type":"Force","location":{"latitude":"51.868619","street":{"id":2152660,"name":"On or near Salamanca Way"},"longitude":"0.876649"},"context":"","outcome_status":{"category":"Under investigation","date":"2026-01"},"persistent_id":"097332cdf34264147bbf53d8d7e24b5a74ecdeb3b4a18ecac16ca5fdb134da33","id":133160425,"location_subtype":"","month":"2026-01"},{"category":"violent-crime","location_type":"Force","location":{"latitude":"51.873483","street":{"id":2152634,"name":"On or near Somerset Close"},"longitude":"0.874867"},"context":"","outcome_status":{"category":"Under investigation","date":"2026-01"},"persistent_id":"19a86b0881f692380b33e3db95b1bc99035f3d466e3e5261e4a9d175458411e5","id":133153794,"location_subtype":"","month":"2026-01"},{"category":"violent-crime","location_type":"Force","location":{"latitude":"51.876813","street":{"id":2152773,"name":"On or near Turnstile Square"},"longitude":"0.882853"},"context":"","outcome_status":{"category":"Investigation complete; no suspect identified","date":"2026-01"},"persistent_id":"157710bd03ff8cd9aebb70fe6e8942e961f096d7d40e413bcd62e1e44c971c19","id":133153795,"location_subtype":"","month":"2026-01"},{"category":"violent-crime","location_type":"Force","location":{"latitude":"51.860712","street":{"id":2153093,"name":"On or near Thomas Benold Walk"},"longitude":"0.899385"},"context":"","outcome_status":{"category":"Awaiting court outcome","date":"2026-01"},"persistent_id":"1dff7346c66028fcc8d4059fdec4c74ba1008693aed0e65b2dccef3aa7b84891","id":133153800,"location_subtype":"","month":"2026-01"},{"category":"violent-crime","location_type":"Force","location":{"latitude":"51.879483","street":{"id":2152851,"name":"On or near Goojerat Road"},"longitude":"0.889113"},"context":"","outcome_status":{"category":"Under investigation","date":"2026-01"},"persistent_id":"e900e004dbe6ae58af10a6aa70fce202a970cf542f9a4e35cecd3a239ee0f092","id":133159720,"location_subtype":"","month":"2026-01"},{"category":"violent-crime","location_type":"Force","location":{"latitude":"51.858678","street":{"id":2153182,"name":"On or near Lethe Grove"},"longitude":"0.902377"},"context":"","outcome_status":{"category":"Unable to prosecute suspect","date":"2026-01"},"persistent_id":"d17f04569c4ef20a80de80b26881ebd933661732ba87ba90bcd8f83909f523fd","id":133156153,"location_subtype":"","month":"2026-01"},{"category":"violent-crime","location_type":"Force","location":{"latitude":"51.861901","street":{"id":2153146,"name":"On or near James Parnell Drive"},"longitude":"0.900420"},"context":"","outcome_status":{"category":"Unable to prosecute suspect","date":"2026-01"},"persistent_id":"400491fe2301f56442e47039112159c92e4fe201eee62df5ddb4f55a385bfb3c","id":133154169,"location_subtype":"","month":"2026-01"},{"category":"violent-crime","location_type":"Force","location":{"latitude":"51.860712","street":{"id":2153093,"name":"On or near Thomas Benold Walk"},"longitude":"0.899385"},"context":"","outcome_status":{"category":"Unable to prosecute suspect","date":"2026-01"},"persistent_id":"81cc69ce87e13184e04b627e1f48e9f2f13ec4a8eee0f566da30ae1aea938dbc","id":133154498,"location_subtype":"","month":"2026-01"},{"category":"violent-crime","location_type":"Force","location":{"latitude":"51.875129","street":{"id":2153396,"name":"On or near Stalin Road"},"longitude":"0.910309"},"context":"","outcome_status":{"category":"Unable to prosecute suspect","date":"2026-01"},"persistent_id":"502af1588938b0caf4b7ffafac7060d6830c7f88bf04d0e317f38e1374b11adc","id":133154502,"location_subtype":"","month":"2026-01"},{"category":"violent-crime","location_type":"Force","location":{"latitude":"51.857385","street":{"id":2153085,"name":"On or near Friday Wood Green"},"longitude":"0.901567"},"context":"","outcome_status":{"category":"Under investigation","date":"2026-01"},"persistent_id":"bde2fbb066e5081d664356b395c432b7f8d3cd85a599cc009b7ed774e7039d4b","id":133155178,"location_subtype":"","month":"2026-01"},{"category":"violent-crime","location_type":"Force","location":{"latitude":"51.865016","street":{"id":2152824,"name":"On or near Oakapple Close"},"longitude":"0.885309"},"context":"","outcome_status":{"category":"Under investigation","date":"2026-01"},"persistent_id":"024ace4e2efca32e779244e6251d3c0e375bfa2de7ae77c91c7b01912a070f84","id":133154827,"location_subtype":"","month":"2026-01"},{"category":"violent-crime","location_type":"Force","location":{"latitude":"51.875129","street":{"id":2153396,"name":"On or near Stalin Road"},"longitude":"0.910309"},"context":"","outcome_status":{"category":"Unable to prosecute suspect","date":"2026-01"},"persistent_id":"02fbdc44fe47a9cd2f92c4e2a0739ba4e797769156cee085b87c2d8a9dcbe8bb","id":133154501,"location_subtype":"","month":"2026-01"},{"category":"violent-crime","location_type":"Force","location":{"latitude":"51.865016","street":{"id":2152824,"name":"On or near Oakapple Close"},"longitude":"0.885309"},"context":"","outcome_status":{"category":"Unable to prosecute suspect","date":"2026-01"},"persistent_id":"b918b3c7a307e9e3399181504024b21506a7268da6f9d7863a14290f5e7b00c5","id":133154494,"location_subtype":"","month":"2026-01"},{"category":"violent-crime","location_type":"Force","location":{"latitude":"51.860536","street":{"id":2153331,"name":"On or near West Donyland Court"},"longitude":"0.907609"},"context":"","outcome_status":{"category":"Under investigation","date":"2026-01"},"persistent_id":"4886368ca9e8845491eacdb051640d66ab5437b3573ae35b0084cdf106bd68ca","id":133155183,"location_subtype":"","month":"2026-01"},{"category":"violent-crime","location_type":"Force","location":{"latitude":"51.877062","street":{"id":2153045,"name":"On or near Colet Crescent"},"longitude":"0.897240"},"context":"","outcome_status":{"category":"Unable to prosecute suspect","date":"2026-01"},"persistent_id":"e862448cbf0242b96509ed2d77fc1a224af2eedd095ee8565f90bba52da9a304","id":133155176,"location_subtype":"","month":"2026-01"},{"category":"violent-crime","location_type":"Force","location":{"latitude":"51.862221","street":{"id":2153287,"name":"On or near Terling Close"},"longitude":"0.906047"},"context":"","outcome_status":{"category":"Unable to prosecute suspect","date":"2026-01"},"persistent_id":"9eae6997bd6748bbd64ce28049814b963dc4c94ef44484486f7ec05c1482c8d5","id":133155181,"location_subtype":"","month":"2026-01"},{"category":"violent-crime","location_type":"Force","location":{"latitude":"51.860536","street":{"id":2153331,"name":"On or near West Donyland Court"},"longitude":"0.907609"},"context":"","outcome_status":{"category":"Under investigation","date":"2026-01"},"persistent_id":"3d67d73baed2ac6539318de20a3ced3f5fdd56388b8158f09d17f4d311390715","id":133155821,"location_subtype":"","month":"2026-01"},{"category":"violent-crime","location_type":"Force","location":{"latitude":"51.883537","street":{"id":2152875,"name":"On or near Wickham Road"},"longitude":"0.889911"},"context":"","outcome_status":{"category":"Under investigation","date":"2026-01"},"persistent_id":"19d4bbcf91ebc57d48d2f3fd0e1abd2086a5d5e058542240415bdfb555ea88a2","id":133156141,"location_subtype":"","month":"2026-01"},{"category":"violent-crime","location_type":"Force","location":{"latitude":"51.869161","street":{"id":2153291,"name":"On or near Windsor Close"},"longitude":"0.906539"},"context":"","outcome_status":{"category":"Under investigation","date":"2026-01"},"persistent_id":"cee1a5a2902232c811e18dbdf61a5a0543d4f381d2f0eef857eed165a85b377c","id":133156154,"location_subtype":"","month":"2026-01"},{"category":"violent-crime","location_type":"Force","location":{"latitude":"51.875330","street":{"id":2152615,"name":"On or near Glisson Square"},"longitude":"0.873968"},"context":"","outcome_status":{"category":"Unable to prosecute suspect","date":"2026-01"},"persistent_id":"b8cd04156eec7bc7cb3928741360420c6b2a433c2d75439314b6d225bc510166","id":133156641,"location_subtype":"","month":"2026-01"},{"category":"violent-crime","location_type":"Force","location":{"latitude":"51.861392","street":{"id":2153191,"name":"On or near James Gore Drive"},"longitude":"0.901723"},"context":"","outcome_status":{"category":"Unable to prosecute suspect","date":"2026-01"},"persistent_id":"ed18556976c0dbb552119bc6d0f5fb31c66a3439aa10711ad8980289a0a4a603","id":133156650,"location_subtype":"","month":"2026-01"},{"category":"violent-crime","location_type":"Force","location":{"latitude":"51.869161","street":{"id":2153291,"name":"On or near Windsor Close"},"longitude":"0.906539"},"context":"","outcome_status":{"category":"Action to be taken by another organisation","date":"2026-01"},"persistent_id":"ddf5d2c33c55f375084d365b279ac5df9b670a97e8ab8d46a7b433b8ee88dd77","id":133156652,"location_subtype":"","month":"2026-01"},{"category":"violent-crime","location_type":"Force","location":{"latitude":"51.869161","street":{"id":2153291,"name":"On or near Windsor Close"},"longitude":"0.906539"},"context":"","outcome_status":{"category":"Action to be taken by another organisation","date":"2026-01"},"persistent_id":"f76fc829c395d30e2b173184de3bccbd29cd05609f0d6c4b74be05d0cd0f6f95","id":133156654,"location_subtype":"","month":"2026-01"},{"category":"violent-crime","location_type":"Force","location":{"latitude":"51.882581","street":{"id":2152853,"name":"On or near Errington Road"},"longitude":"0.888571"},"context":"","outcome_status":{"category":"Unable to prosecute suspect","date":"2026-01"},"persistent_id":"d95dc8727a2c72f8d8de21471938e64053dcedf0e69df59fbf16fe1afd74a9e4","id":133165699,"location_subtype":"","month":"2026-01"},{"category":"violent-crime","location_type":"Force","location":{"latitude":"51.860895","street":{"id":2153184,"name":"On or near Agnes Silverside Close"},"longitude":"0.901808"},"context":"","outcome_status":{"category":"Under investigation","date":"2026-01"},"persistent_id":"6e9c0481c1403e6fd36066830aa0ddfb4f2000c3b98c8b0a71933808c97bd063","id":133165310,"location_subtype":"","month":"2026-01"},{"category":"violent-crime","location_type":"Force","location":{"latitude":"51.877062","street":{"id":2153045,"name":"On or near Colet Crescent"},"longitude":"0.897240"},"context":"","outcome_status":{"category":"Action to be taken by another organisation","date":"2026-01"},"persistent_id":"77c75aeffc68803bbbb727b8a0e00cc72707bf662be03fdafa2ae7e1cd2ce25b","id":133154167,"location_subtype":"","month":"2026-01"},{"category":"violent-crime","location_type":"Force","location":{"latitude":"51.879483","street":{"id":2152851,"name":"On or near Goojerat Road"},"longitude":"0.889113"},"context":"","outcome_status":{"category":"Formal action is not in the public interest","date":"2026-01"},"persistent_id":"4db0e5340c79fb51fd6d356fa58b3019735ff8754ca82df597673096d0083dc3","id":133166100,"location_subtype":"","month":"2026-01"},{"category":"violent-crime","location_type":"Force","location":{"latitude":"51.875129","street":{"id":2153396,"name":"On or near Stalin Road"},"longitude":"0.910309"},"context":"","outcome_status":{"category":"Under investigation","date":"2026-01"},"persistent_id":"6586053ac3e8c0ab233e590688a055cad742a6ea2dc0ed2f1bd298a27a4ad731","id":133165705,"location_subtype":"","month":"2026-01"},{"category":"violent-crime","location_type":"Force","location":{"latitude":"51.860731","street":{"id":2153048,"name":"On or near Travers Road"},"longitude":"0.897149"},"context":"","outcome_status":{"category":"Unable to prosecute suspect","date":"2026-01"},"persistent_id":"ce411a778575dca6e6dcc1c437759dba5f38e85d0c8a21e84bb76bb445e1e08d","id":133165703,"location_subtype":"","month":"2026-01"},{"category":"violent-crime","location_type":"Force","location":{"latitude":"51.862945","street":{"id":2152624,"name":"On or near Catkin Mews"},"longitude":"0.875139"},"context":"","outcome_status":{"category":"Investigation complete; no suspect identified","date":"2026-01"},"persistent_id":"af3785a8a301b86395f0818b84b0853d0a9a1f0ebe78ddc665d83d6e445d17d3","id":133159006,"location_subtype":"","month":"2026-01"},{"category":"violent-crime","location_type":"Force","location":{"latitude":"51.875550","street":{"id":2153452,"name":"On or near Montgomery Close"},"longitude":"0.911455"},"context":"","outcome_status":{"category":"Awaiting court outcome","date":"2026-01"},"persistent_id":"f740aa75d51c672479b7c60e6bac7b4ef6b39887580444374dcbaf080adff58f","id":133166530,"location_subtype":"","month":"2026-01"},{"category":"violent-crime","location_type":"Force","location":{"latitude":"51.875550","street":{"id":2153452,"name":"On or near Montgomery Close"},"longitude":"0.911455"},"context":"","outcome_status":{"category":"Awaiting court outcome","date":"2026-01"},"persistent_id":"e56413f6fa103814ced5da2388e091e05bb054a96aeb4c2e31043ce2371ac957","id":133166531,"location_subtype":"","month":"2026-01"},{"category":"violent-crime","location_type":"Force","location":{"latitude":"51.861916","street":{"id":2153188,"name":"On or near Richard Day Walk"},"longitude":"0.902004"},"context":"","outcome_status":{"category":"Under investigation","date":"2026-01"},"persistent_id":"a5fe3450433a94e090251bd5edcf525e915a749445858154ed3fd9e0cf3e17de","id":133166900,"location_subtype":"","month":"2026-01"},{"category":"violent-crime","location_type":"Force","location":{"latitude":"51.859964","street":{"id":2153284,"name":"On or near Wethersfield Road"},"longitude":"0.905641"},"context":"","outcome_status":{"category":"Under investigation","date":"2026-01"},"persistent_id":"71c74a2ef6d26bc564e1ce10686c28ba3345d3a2dc142d6f18fd1e620a81d091","id":133166901,"location_subtype":"","month":"2026-01"},{"category":"violent-crime","location_type":"Force","location":{"latitude":"51.858678","street":{"id":2153182,"name":"On or near Lethe Grove"},"longitude":"0.902377"},"context":"","outcome_status":{"category":"Under investigation","date":"2026-01"},"persistent_id":"f2f7c3eedba5f3c5da51a44a85c09b1fa6dd8838d4e3c1278233bf2e7cad1054","id":133167272,"location_subtype":"","month":"2026-01"},{"category":"violent-crime","location_type":"Force","location":{"latitude":"51.875550","street":{"id":2153452,"name":"On or near Montgomery Close"},"longitude":"0.911455"},"context":"","outcome_status":{"category":"Under investigation","date":"2026-01"},"persistent_id":"598363e704bee268247f03bb677e6821e3daa0afbaa0502c1672c0d540b7335a","id":133167273,"location_subtype":"","month":"2026-01"},{"category":"violent-crime","location_type":"Force","location":{"latitude":"51.877574","street":{"id":2152880,"name":"On or near Richmond Road"},"longitude":"0.890313"},"context":"","outcome_status":{"category":"Investigation complete; no suspect identified","date":"2026-01"},"persistent_id":"2e2b071d0ac383ded86bf9136d5d411ed5d688151036be9fbd58d55e5ac36580","id":133167269,"location_subtype":"","month":"2026-01"},{"category":"violent-crime","location_type":"Force","location":{"latitude":"51.863462","street":{"id":2153208,"name":"On or near Monkwick Avenue"},"longitude":"0.903121"},"context":"","outcome_status":{"category":"Under investigation","date":"2026-01"},"persistent_id":"519a64b7947bbec88cac9455d09e6c9d46c43a8d6e55f1dc335044ba65accbfe","id":133155476,"location_subtype":"","month":"2026-01"},{"category":"violent-crime","location_type":"Force","location":{"latitude":"51.878902","street":{"id":2152834,"name":"On or near Messines Road"},"longitude":"0.886402"},"context":"","outcome_status":{"category":"Under investigation","date":"2026-01"},"persistent_id":"ba26eb9eb519c6432db303ba5fe1ebf4de22e6771eb5a75d3c373a628d6c40a6","id":133157277,"location_subtype":"","month":"2026-01"},{"category":"violent-crime","location_type":"Force","location":{"latitude":"51.860536","street":{"id":2153331,"name":"On or near West Donyland Court"},"longitude":"0.907609"},"context":"","outcome_status":{"category":"Unable to prosecute suspect","date":"2026-01"},"persistent_id":"7791634326ceeb8344855530c50b5b46343479337dad975081978b8c01b5d727","id":133157305,"location_subtype":"","month":"2026-01"},{"category":"violent-crime","location_type":"Force","location":{"latitude":"51.866794","street":{"id":2153292,"name":"On or near Sage Road"},"longitude":"0.905485"},"context":"","outcome_status":{"category":"Under investigation","date":"2026-01"},"persistent_id":"ee16fd923423f606269b6001c7e385f32d715566234cd94a5113ce2795304745","id":133159025,"location_subtype":"","month":"2026-01"},{"category":"violent-crime","location_type":"Force","location":{"latitude":"51.865182","street":{"id":2153267,"name":"On or near Coronation Avenue"},"longitude":"0.904844"},"context":"","outcome_status":{"category":"Under investigation","date":"2026-01"},"persistent_id":"28bbdcaeefcabab02ba77dae62f45faafcda1b401e2b5d5e3df8a2496786b247","id":133159027,"location_subtype":"","month":"2026-01"},{"category":"violent-crime","location_type":"Force","location":{"latitude":"51.864052","street":{"id":2153322,"name":"On or near Stansted Road"},"longitude":"0.907633"},"context":"","outcome_status":{"category":"Investigation complete; no suspect identified","date":"2026-01"},"persistent_id":"7b19302b7b514db38540808f1589b4bbce654d3ed83628d07518b696ba0a938c","id":133164941,"location_subtype":"","month":"2026-01"},{"category":"violent-crime","location_type":"Force","location":{"latitude":"51.861710","street":{"id":2153171,"name":"On or near John Mace Road"},"longitude":"0.901250"},"context":"","outcome_status":{"category":"Under investigation","date":"2026-01"},"persistent_id":"3327ee26f9cd3e4d0769154a26e1a19c1ab9a3eb655b78cdc165b36884868f6b","id":133167628,"location_subtype":"","month":"2026-01"},{"category":"violent-crime","location_type":"Force","location":{"latitude":"51.882944","street":{"id":2152937,"name":"On or near Stable Road"},"longitude":"0.894668"},"context":"","outcome_status":{"category":"Under investigation","date":"2026-01"},"persistent_id":"65282e37d479d61540247146080cd802bea42e28a1ec5c75a29fab3fc59ec2e5","id":133160430,"location_subtype":"","month":"2026-01"},{"category":"violent-crime","location_type":"Force","location":{"latitude":"51.878848","street":{"id":2153411,"name":"On or near Knights Field"},"longitude":"0.910128"},"context":"","outcome_status":{"category":"Unable to prosecute suspect","date":"2026-01"},"persistent_id":"0c6307115c0c1edb88ff6b5e0e44307b7f5205f1fccef072ef91e0ba8af0a02c","id":133154170,"location_subtype":"","month":"2026-01"},{"category":"violent-crime","location_type":"Force","location":{"latitude":"51.867253","street":{"id":2152838,"name":"On or near Ilex Close"},"longitude":"0.887210"},"context":"","outcome_status":{"category":"Action to be taken by another organisation","date":"2026-01"},"persistent_id":"45b2934bfea7c1e1edd786a15dbc9ed398315edc6b0507c8f2ad462619cb05c5","id":133161195,"location_subtype":"","month":"2026-01"},{"category":"violent-crime","location_type":"Force","location":{"latitude":"51.861662","street":{"id":2153194,"name":"On or near Inworth Walk"},"longitude":"0.904268"},"context":"","outcome_status":{"category":"Under investigation","date":"2026-01"},"persistent_id":"b273c13dbb35b458057262c9403086310b8a1cbc635d829177260f4a1eda8d4c","id":133162039,"location_subtype":"","month":"2026-01"},{"category":"violent-crime","location_type":"Force","location":{"latitude":"51.873321","street":{"id":2153499,"name":"On or near Viceroy Close"},"longitude":"0.915031"},"context":"","outcome_status":{"category":"Unable to prosecute suspect","date":"2026-01"},"persistent_id":"2866b51c5991e514e76868c1fda75386df4fe9fae37da94da412ce216cd8f720","id":133162050,"location_subtype":"","month":"2026-01"},{"category":"violent-crime","location_type":"Force","location":{"latitude":"51.875129","street":{"id":2153396,"name":"On or near Stalin Road"},"longitude":"0.910309"},"context":"","outcome_status":{"category":"Unable to prosecute suspect","date":"2026-01"},"persistent_id":"b1129a577fcfaa49b7e7a393b779975bdcd79f1492e123b9fb57de8ddb153769","id":133163526,"location_subtype":"","month":"2026-01"},{"category":"violent-crime","location_type":"Force","location":{"latitude":"51.860536","street":{"id":2153331,"name":"On or near West Donyland Court"},"longitude":"0.907609"},"context":"","outcome_status":{"category":"Under investigation","date":"2026-01"},"persistent_id":"fc2718c4b41191618321003c4a259a738362e73b548942fd17240fa698021114","id":133166902,"location_subtype":"","month":"2026-01"},{"category":"violent-crime","location_type":"Force","location":{"latitude":"51.864052","street":{"id":2153322,"name":"On or near Stansted Road"},"longitude":"0.907633"},"context":"","outcome_status":{"category":"Under investigation","date":"2026-01"},"persistent_id":"6b343eb8e4d85b7b5f8172e578d73510ea5d0e5b9a0593ce8188ffbeb500fbc9","id":133164325,"location_subtype":"","month":"2026-01"},{"category":"violent-crime","location_type":"Force","location":{"latitude":"51.878848","street":{"id":2153411,"name":"On or near Knights Field"},"longitude":"0.910128"},"context":"","outcome_status":{"category":"Unable to prosecute suspect","date":"2026-01"},"persistent_id":"6d067f12bafab158a9446aa74675e44e4971290d9527a6827436b18a2e715fd9","id":133164327,"location_subtype":"","month":"2026-01"},{"category":"violent-crime","location_type":"Force","location":{"latitude":"51.865791","street":{"id":2153129,"name":"On or near Sheering Walk"},"longitude":"0.902050"},"context":"","outcome_status":{"category":"Unable to prosecute suspect","date":"2026-01"},"persistent_id":"f3d8a48e6e932522db5a87a8ba4bbc3de1a43cafa0c749349dc1ec594dcc2e0a","id":133164939,"location_subtype":"","month":"2026-01"},{"category":"violent-crime","location_type":"Force","location":{"latitude":"51.865791","street":{"id":2153129,"name":"On or near Sheering Walk"},"longitude":"0.902050"},"context":"","outcome_status":{"category":"Unable to prosecute suspect","date":"2026-01"},"persistent_id":"a0bb453ec2206c2dccab3d52c52002768d8b5695f83f353c2f8c8255e76f790d","id":133164938,"location_subtype":"","month":"2026-01"},{"category":"violent-crime","location_type":"Force","location":{"latitude":"51.878368","street":{"id":2152856,"name":"On or near Kensington Road"},"longitude":"0.888373"},"context":"","outcome_status":{"category":"Under investigation","date":"2026-01"},"persistent_id":"a59f7bfce44f58ae8d809f91c02d0c0db212a02c4f7228a9a886e0137ce2bbe7","id":133165700,"location_subtype":"","month":"2026-01"},{"category":"violent-crime","location_type":"Force","location":{"latitude":"51.878663","street":{"id":2152734,"name":"On or near Wavell Avenue"},"longitude":"0.881112"},"context":"","outcome_status":{"category":"Under investigation","date":"2026-01"},"persistent_id":"270d4f066501217f5269d2ecd47025c9e3fccc6e5405e5e446ad53fd411c8266","id":133168667,"location_subtype":"","month":"2026-01"},{"category":"violent-crime","location_type":"Force","location":{"latitude":"51.868193","street":{"id":2152772,"name":"On or near Ebony Close"},"longitude":"0.883014"},"context":"","outcome_status":{"category":"Under investigation","date":"2026-01"},"persistent_id":"dce16ef9acfb260c8f322539493d0cf3e25a514e67feb462797e90ab6421a9f1","id":133168668,"location_subtype":"","month":"2026-01"},{"category":"violent-crime","location_type":"Force","location":{"latitude":"51.868193","street":{"id":2152772,"name":"On or near Ebony Close"},"longitude":"0.883014"},"context":"","outcome_status":{"category":"Under investigation","date":"2026-01"},"persistent_id":"dfee08cdaacf9624781c21e8069c7e2ed584c88b5fa942eabe48fd7eb8664d30","id":133168669,"location_subtype":"","month":"2026-01"},{"category":"violent-crime","location_type":"Force","location":{"latitude":"51.868193","street":{"id":2152772,"name":"On or near Ebony Close"},"longitude":"0.883014"},"context":"","outcome_status":{"category":"Under investigation","date":"2026-01"},"persistent_id":"fbe801d81971ad691f293035a8629eb049a2c0d8e6d969741b68d1c930a7586c","id":133168670,"location_subtype":"","month":"2026-01"},{"category":"violent-crime","location_type":"Force","location":{"latitude":"51.864052","street":{"id":2153322,"name":"On or near Stansted Road"},"longitude":"0.907633"},"context":"","outcome_status":{"category":"Unable to prosecute suspect","date":"2026-01"},"persistent_id":"935eee121417b051970a5d73eb3d298f2c6b9ee3c0014cf3c047231421d4d5f0","id":133155182,"location_subtype":"","month":"2026-01"},{"category":"violent-crime","location_type":"Force","location":{"latitude":"51.869161","street":{"id":2153291,"name":"On or near Windsor Close"},"longitude":"0.906539"},"context":"","outcome_status":{"category":"Under investigation","date":"2026-01"},"persistent_id":"67dae49fa79af2b00431ac1482b911f5dd55613ecaeb1d517909d030e3014dea","id":133153802,"location_subtype":"","month":"2026-01"},{"category":"violent-crime","location_type":"Force","location":{"latitude":"51.871964","street":{"id":2153368,"name":"On or near Petrol Station"},"longitude":"0.908841"},"context":"","outcome_status":{"category":"Investigation complete; no suspect identified","date":"2026-01"},"persistent_id":"8ddf82d64fc2388dcbcdaa6bcfcadc39eb8d7b60e7bbe88f93611c37b84dbd8d","id":133166109,"location_subtype":"","month":"2026-01"},{"category":"violent-crime","location_type":"Force","location":{"latitude":"51.860442","street":{"id":2153189,"name":"On or near Rose Allen Avenue"},"longitude":"0.901575"},"context":"","outcome_status":{"category":"Unable to prosecute suspect","date":"2026-01"},"persistent_id":"c9394d8010b44102add7861fcab518c45db215fbfc8d95f0c4b97dc841935a0f","id":133154829,"location_subtype":"","month":"2026-01"},{"category":"violent-crime","location_type":"Force","location":{"latitude":"51.861901","street":{"id":2153146,"name":"On or near James Parnell Drive"},"longitude":"0.900420"},"context":"","outcome_status":{"category":"Under investigation","date":"2026-01"},"persistent_id":"fbc5ff37b87596c4b8a296dcc99a3e17b94abf80a49d733f20e0bf69bd2c6171","id":133155179,"location_subtype":"","month":"2026-01"},{"category":"violent-crime","location_type":"Force","location":{"latitude":"51.871493","street":{"id":2152582,"name":"On or near Supermarket"},"longitude":"0.871994"},"context":"","outcome_status":{"category":"Under investigation","date":"2026-01"},"persistent_id":"6a7540bd148375fb8e1f9e04427a9103ce225c4737941bb6d6f114949cc83181","id":133157273,"location_subtype":"","month":"2026-01"},{"category":"violent-crime","location_type":"Force","location":{"latitude":"51.861710","street":{"id":2153171,"name":"On or near John Mace Road"},"longitude":"0.901250"},"context":"","outcome_status":{"category":"Under investigation","date":"2026-01"},"persistent_id":"b838225b3114717b2f3b724d0598bf0e7982e626abab88d73a418a6cff7e101c","id":133167629,"location_subtype":"","month":"2026-01"},{"category":"violent-crime","location_type":"Force","location":{"latitude":"51.861392","street":{"id":2153191,"name":"On or near James Gore Drive"},"longitude":"0.901723"},"context":"","outcome_status":{"category":"Under investigation","date":"2026-01"},"persistent_id":"c9c5d4511a2986b0de85571053ca07525fbd2a4d93b749460b8b23b0e1b34022","id":133160437,"location_subtype":"","month":"2026-01"},{"category":"violent-crime","location_type":"Force","location":{"latitude":"51.865791","street":{"id":2153129,"name":"On or near Sheering Walk"},"longitude":"0.902050"},"context":"","outcome_status":{"category":"Under investigation","date":"2026-01"},"persistent_id":"a96e88921eb27bb640bede3980ed245f35c767e38118c3cf5ca4b902076a3c6f","id":133167964,"location_subtype":"","month":"2026-01"},{"category":"violent-crime","location_type":"Force","location":{"latitude":"51.861432","street":{"id":2153228,"name":"On or near Bardfield Road"},"longitude":"0.904457"},"context":"","outcome_status":{"category":"Unable to prosecute suspect","date":"2026-01"},"persistent_id":"4004abb547be9628f90b7299a2ec6385ade049cc0eba414d618ea171f81f67bb","id":133167967,"location_subtype":"","month":"2026-01"},{"category":"violent-crime","location_type":"Force","location":{"latitude":"51.875330","street":{"id":2152615,"name":"On or near Glisson Square"},"longitude":"0.873968"},"context":"","outcome_status":{"category":"Under investigation","date":"2026-01"},"persistent_id":"b9294ced7651730610fa4c390cb595b6fa39009362c62a8559a512d972388bb4","id":133168305,"location_subtype":"","month":"2026-01"},{"category":"violent-crime","location_type":"Force","location":{"latitude":"51.865734","street":{"id":2152829,"name":"On or near Silver Birch Close"},"longitude":"0.885370"},"context":"","outcome_status":{"category":"Under investigation","date":"2026-01"},"persistent_id":"2c98f0ee2eb33b6c67376494da59594df38393e7d5071659625361902f1c5c25","id":133168306,"location_subtype":"","month":"2026-01"},{"category":"violent-crime","location_type":"Force","location":{"latitude":"51.860442","street":{"id":2153189,"name":"On or near Rose Allen Avenue"},"longitude":"0.901575"},"context":"","outcome_status":{"category":"Under investigation","date":"2026-01"},"persistent_id":"17c7674f889f188bc92ee581b83be95531347fc926e5d9431a6f0682d259ec8a","id":133168310,"location_subtype":"","month":"2026-01"},{"category":"violent-crime","location_type":"Force","location":{"latitude":"51.860442","street":{"id":2153189,"name":"On or near Rose Allen Avenue"},"longitude":"0.901575"},"context":"","outcome_status":{"category":"Under investigation","date":"2026-01"},"persistent_id":"db98f0ed00a1a7b9cb3fae24cb593e5e9ad1cb9bb1a122aa2a05beecd17ca270","id":133168311,"location_subtype":"","month":"2026-01"},{"category":"violent-crime","location_type":"Force","location":{"latitude":"51.862945","street":{"id":2152624,"name":"On or near Catkin Mews"},"longitude":"0.875139"},"context":"","outcome_status":{"category":"Unable to prosecute suspect","date":"2026-01"},"persistent_id":"3188337f81e357f626f1382eadf47be4e3ea17016372cd40d2e76e080c6685c6","id":133159008,"location_subtype":"","month":"2026-01"},{"category":"violent-crime","location_type":"Force","location":{"latitude":"51.864520","street":{"id":2152794,"name":"On or near Bay Tree Close"},"longitude":"0.885001"},"context":"","outcome_status":{"category":"Unable to prosecute suspect","date":"2026-01"},"persistent_id":"efec1a943d540d30e57171c71dcdc873e16d545b16150f7eeb219bdc6fdd56be","id":133155468,"location_subtype":"","month":"2026-01"},{"category":"violent-crime","location_type":"Force","location":{"latitude":"51.870650","street":{"id":2153100,"name":"On or near Circus Square"},"longitude":"0.898644"},"context":"","outcome_status":{"category":"Action to be taken by another organisation","date":"2026-01"},"persistent_id":"a60524aee16e5c9a6e4c76658bda70f43d3b4c853055f3912fc6eeebf22e1ddc","id":133155472,"location_subtype":"","month":"2026-01"},{"category":"violent-crime","location_type":"Force","location":{"latitude":"51.870236","street":{"id":2153181,"name":"On or near Wych Elm"},"longitude":"0.904138"},"context":"","outcome_status":{"category":"Formal action is not in the public interest","date":"2026-01"},"persistent_id":"4e2d0e29519dd4569b88eab1be0916c3c6f420146100c5ac81256d91f34de816","id":133155475,"location_subtype":"","month":"2026-01"},{"category":"violent-crime","location_type":"Force","location":{"latitude":"51.862239","street":{"id":2152637,"name":"On or near Berechurch Hall Road"},"longitude":"0.877505"},"context":"","outcome_status":{"category":"Investigation complete; no suspect identified","date":"2026-01"},"persistent_id":"e3c811717b098801b824e2be4c949e8174230c2b8ffb5227606d9720d2758f08","id":133159010,"location_subtype":"","month":"2026-01"},{"category":"violent-crime","location_type":"Force","location":{"latitude":"51.875129","street":{"id":2153396,"name":"On or near Stalin Road"},"longitude":"0.910309"},"context":"","outcome_status":{"category":"Unable to prosecute suspect","date":"2026-01"},"persistent_id":"94ac78bce68e019b65cae6bdbf719b646545244cea9ab607bdb9654a2f8c02ff","id":133163524,"location_subtype":"","month":"2026-01"},{"category":"violent-crime","location_type":"Force","location":{"latitude":"51.861662","street":{"id":2153194,"name":"On or near Inworth Walk"},"longitude":"0.904268"},"context":"","outcome_status":{"category":"Unable to prosecute suspect","date":"2026-01"},"persistent_id":"a3d8b019aa83691b7f0bd03c12e1e0b7d1ac55c8ac50c2c458f4f866275b7f31","id":133167966,"location_subtype":"","month":"2026-01"},{"category":"violent-crime","location_type":"Force","location":{"latitude":"51.875550","street":{"id":2153452,"name":"On or near Montgomery Close"},"longitude":"0.911455"},"context":"","outcome_status":{"category":"Unable to prosecute suspect","date":"2026-01"},"persistent_id":"9048582bd83c6de6737b0a146045f92aa415bbcc0022ba117e122d6a28762087","id":133159029,"location_subtype":"","month":"2026-01"},{"category":"other-crime","location_type":"Force","location":{"latitude":"51.873099","street":{"id":2153440,"name":"On or near Sargeant Close"},"longitude":"0.912023"},"context":"","outcome_status":{"category":"Awaiting court outcome","date":"2026-01"},"persistent_id":"c3121257b30a12112f5e65dff2cefdbb174d847ba2ffb60155e6cf4e124922a6","id":133167384,"location_subtype":"","month":"2026-01"},{"category":"other-crime","location_type":"Force","location":{"latitude":"51.864520","street":{"id":2152794,"name":"On or near Bay Tree Close"},"longitude":"0.885001"},"context":"","outcome_status":{"category":"Investigation complete; no suspect identified","date":"2026-01"},"persistent_id":"51c13ced01fa6942bf255ec298a9b16e9473b60b0f9dc2e90f17cd1989ca34d1","id":133165421,"location_subtype":"","month":"2026-01"},{"category":"other-crime","location_type":"Force","location":{"latitude":"51.882944","street":{"id":2152937,"name":"On or near Stable Road"},"longitude":"0.894668"},"context":"","outcome_status":{"category":"Under investigation","date":"2026-01"},"persistent_id":"64d9af31d1659cc2998ff2813eb2b5c9061d7e1a032c2c069f2216baeb6ca2b3","id":133165794,"location_subtype":"","month":"2026-01"},{"category":"other-crime","location_type":"Force","location":{"latitude":"51.858678","street":{"id":2153182,"name":"On or near Lethe Grove"},"longitude":"0.902377"},"context":"","outcome_status":{"category":"Under investigation","date":"2026-01"},"persistent_id":"eb97002ed6d031c99e0c6106537b96cda37bfbb934fbfaba2534f6515d432639","id":133166632,"location_subtype":"","month":"2026-01"},{"category":"other-crime","location_type":"Force","location":{"latitude":"51.862239","street":{"id":2152637,"name":"On or near Berechurch Hall Road"},"longitude":"0.877505"},"context":"","outcome_status":{"category":"Under investigation","date":"2026-01"},"persistent_id":"cd59bba20364943b2118ca14baba2dfee083fe52b5ee11ce719891ad13fd2d24","id":133168401,"location_subtype":"","month":"2026-01"},{"category":"other-crime","location_type":"Force","location":{"latitude":"51.879155","street":{"id":2152717,"name":"On or near Alport Avenue"},"longitude":"0.879370"},"context":"","outcome_status":{"category":"Under investigation","date":"2026-01"},"persistent_id":"4965d6f36da7929be128b03b37abbe0c1c7f9abc1253f21b93d6f749fd06d381","id":133160634,"location_subtype":"","month":"2026-01"}]