[{"category":"anti-social-behaviour","location_type":"Force","location":{"latitude":"51.134315","street":{"id":2065549,"name":"On or near Supermarket"},"longitude":"1.301507"},"context":"","outcome_status":null,"persistent_id":"","id":132764783,"location_subtype":"","month":"2025-12"},{"category":"anti-social-behaviour","location_type":"Force","location":{"latitude":"51.142064","street":{"id":2065259,"name":"On or near Shipmans Way"},"longitude":"1.289904"},"context":"","outcome_status":null,"persistent_id":"","id":132764439,"location_subtype":"","month":"2025-12"},{"category":"anti-social-behaviour","location_type":"Force","location":{"latitude":"51.129865","street":{"id":2065705,"name":"On or near Parking Area"},"longitude":"1.307478"},"context":"","outcome_status":null,"persistent_id":"","id":132764413,"location_subtype":"","month":"2025-12"},{"category":"anti-social-behaviour","location_type":"Force","location":{"latitude":"51.138464","street":{"id":2065199,"name":"On or near Crabble Avenue"},"longitude":"1.288991"},"context":"","outcome_status":null,"persistent_id":"","id":132764287,"location_subtype":"","month":"2025-12"},{"category":"anti-social-behaviour","location_type":"Force","location":{"latitude":"51.129487","street":{"id":2065222,"name":"On or near Anselm Road"},"longitude":"1.291869"},"context":"","outcome_status":null,"persistent_id":"","id":132764194,"location_subtype":"","month":"2025-12"},{"category":"anti-social-behaviour","location_type":"Force","location":{"latitude":"51.131959","street":{"id":2065253,"name":"On or near Lambton Road"},"longitude":"1.289357"},"context":"","outcome_status":null,"persistent_id":"","id":132764160,"location_subtype":"","month":"2025-12"},{"category":"anti-social-behaviour","location_type":"Force","location":{"latitude":"51.137281","street":{"id":2065752,"name":"On or near Roman Road"},"longitude":"1.310182"},"context":"","outcome_status":null,"persistent_id":"","id":132764155,"location_subtype":"","month":"2025-12"},{"category":"anti-social-behaviour","location_type":"Force","location":{"latitude":"51.144014","street":{"id":2065424,"name":"On or near Sheridan Road"},"longitude":"1.297951"},"context":"","outcome_status":null,"persistent_id":"","id":132766334,"location_subtype":"","month":"2025-12"},{"category":"anti-social-behaviour","location_type":"Force","location":{"latitude":"51.130157","street":{"id":2065742,"name":"On or near Hewitt Road"},"longitude":"1.308900"},"context":"","outcome_status":null,"persistent_id":"","id":132766248,"location_subtype":"","month":"2025-12"},{"category":"anti-social-behaviour","location_type":"Force","location":{"latitude":"51.130738","street":{"id":2065376,"name":"On or near Harbour View Road"},"longitude":"1.295346"},"context":"","outcome_status":null,"persistent_id":"","id":132766245,"location_subtype":"","month":"2025-12"},{"category":"anti-social-behaviour","location_type":"Force","location":{"latitude":"51.130157","street":{"id":2065742,"name":"On or near Hewitt Road"},"longitude":"1.308900"},"context":"","outcome_status":null,"persistent_id":"","id":132764905,"location_subtype":"","month":"2025-12"},{"category":"anti-social-behaviour","location_type":"Force","location":{"latitude":"51.138464","street":{"id":2065199,"name":"On or near Crabble Avenue"},"longitude":"1.288991"},"context":"","outcome_status":null,"persistent_id":"","id":132764862,"location_subtype":"","month":"2025-12"},{"category":"anti-social-behaviour","location_type":"Force","location":{"latitude":"51.149322","street":{"id":2065440,"name":"On or near Rokesley Road"},"longitude":"1.297586"},"context":"","outcome_status":null,"persistent_id":"","id":132764838,"location_subtype":"","month":"2025-12"},{"category":"anti-social-behaviour","location_type":"Force","location":{"latitude":"51.130580","street":{"id":2065594,"name":"On or near De Burgh Hill"},"longitude":"1.303498"},"context":"","outcome_status":null,"persistent_id":"","id":132764815,"location_subtype":"","month":"2025-12"},{"category":"anti-social-behaviour","location_type":"Force","location":{"latitude":"51.144014","street":{"id":2065424,"name":"On or near Sheridan Road"},"longitude":"1.297951"},"context":"","outcome_status":null,"persistent_id":"","id":132764779,"location_subtype":"","month":"2025-12"},{"category":"anti-social-behaviour","location_type":"Force","location":{"latitude":"51.142360","street":{"id":2065455,"name":"On or near Cleveland Close"},"longitude":"1.298520"},"context":"","outcome_status":null,"persistent_id":"","id":132766360,"location_subtype":"","month":"2025-12"},{"category":"anti-social-behaviour","location_type":"Force","location":{"latitude":"51.129088","street":{"id":2065551,"name":"On or near West Street"},"longitude":"1.302491"},"context":"","outcome_status":null,"persistent_id":"","id":132765698,"location_subtype":"","month":"2025-12"},{"category":"anti-social-behaviour","location_type":"Force","location":{"latitude":"51.131448","street":{"id":2065654,"name":"On or near Bridge Street"},"longitude":"1.305576"},"context":"","outcome_status":null,"persistent_id":"","id":132765515,"location_subtype":"","month":"2025-12"},{"category":"anti-social-behaviour","location_type":"Force","location":{"latitude":"51.132722","street":{"id":2065364,"name":"On or near Rosewood Heights"},"longitude":"1.295816"},"context":"","outcome_status":null,"persistent_id":"","id":132766055,"location_subtype":"","month":"2025-12"},{"category":"anti-social-behaviour","location_type":"Force","location":{"latitude":"51.133968","street":{"id":2065469,"name":"On or near Parking Area"},"longitude":"1.298207"},"context":"","outcome_status":null,"persistent_id":"","id":132766053,"location_subtype":"","month":"2025-12"},{"category":"anti-social-behaviour","location_type":"Force","location":{"latitude":"51.129923","street":{"id":2065604,"name":"On or near De Burgh Street"},"longitude":"1.304137"},"context":"","outcome_status":null,"persistent_id":"","id":132766004,"location_subtype":"","month":"2025-12"},{"category":"anti-social-behaviour","location_type":"Force","location":{"latitude":"51.143816","street":{"id":2065635,"name":"On or near Kimberley Close"},"longitude":"1.304930"},"context":"","outcome_status":null,"persistent_id":"","id":132765450,"location_subtype":"","month":"2025-12"},{"category":"anti-social-behaviour","location_type":"Force","location":{"latitude":"51.147216","street":{"id":2065495,"name":"On or near Wycherley Crescent"},"longitude":"1.299867"},"context":"","outcome_status":null,"persistent_id":"","id":132765673,"location_subtype":"","month":"2025-12"},{"category":"anti-social-behaviour","location_type":"Force","location":{"latitude":"51.140028","street":{"id":2065546,"name":"On or near Hobart Crescent"},"longitude":"1.301470"},"context":"","outcome_status":null,"persistent_id":"","id":132765604,"location_subtype":"","month":"2025-12"},{"category":"anti-social-behaviour","location_type":"Force","location":{"latitude":"51.129865","street":{"id":2065705,"name":"On or near Parking Area"},"longitude":"1.307478"},"context":"","outcome_status":null,"persistent_id":"","id":132765264,"location_subtype":"","month":"2025-12"},{"category":"anti-social-behaviour","location_type":"Force","location":{"latitude":"51.137358","street":{"id":2065375,"name":"On or near Parking Area"},"longitude":"1.295704"},"context":"","outcome_status":null,"persistent_id":"","id":132764619,"location_subtype":"","month":"2025-12"},{"category":"anti-social-behaviour","location_type":"Force","location":{"latitude":"51.130157","street":{"id":2065742,"name":"On or near Hewitt Road"},"longitude":"1.308900"},"context":"","outcome_status":null,"persistent_id":"","id":132764724,"location_subtype":"","month":"2025-12"},{"category":"anti-social-behaviour","location_type":"Force","location":{"latitude":"51.149322","street":{"id":2065440,"name":"On or near Rokesley Road"},"longitude":"1.297586"},"context":"","outcome_status":null,"persistent_id":"","id":132765702,"location_subtype":"","month":"2025-12"},{"category":"anti-social-behaviour","location_type":"Force","location":{"latitude":"51.139712","street":{"id":2065328,"name":"On or near Mangers Lane"},"longitude":"1.293555"},"context":"","outcome_status":null,"persistent_id":"","id":132766402,"location_subtype":"","month":"2025-12"},{"category":"anti-social-behaviour","location_type":"Force","location":{"latitude":"51.128866","street":{"id":2065498,"name":"On or near South Road"},"longitude":"1.299859"},"context":"","outcome_status":null,"persistent_id":"","id":132765042,"location_subtype":"","month":"2025-12"},{"category":"anti-social-behaviour","location_type":"Force","location":{"latitude":"51.143816","street":{"id":2065635,"name":"On or near Kimberley Close"},"longitude":"1.304930"},"context":"","outcome_status":null,"persistent_id":"","id":132766443,"location_subtype":"","month":"2025-12"},{"category":"anti-social-behaviour","location_type":"Force","location":{"latitude":"51.134315","street":{"id":2065549,"name":"On or near Supermarket"},"longitude":"1.301507"},"context":"","outcome_status":null,"persistent_id":"","id":132764688,"location_subtype":"","month":"2025-12"},{"category":"anti-social-behaviour","location_type":"Force","location":{"latitude":"51.133569","street":{"id":2065457,"name":"On or near Victoria Street"},"longitude":"1.298951"},"context":"","outcome_status":null,"persistent_id":"","id":132765169,"location_subtype":"","month":"2025-12"},{"category":"anti-social-behaviour","location_type":"Force","location":{"latitude":"51.142360","street":{"id":2065455,"name":"On or near Cleveland Close"},"longitude":"1.298520"},"context":"","outcome_status":null,"persistent_id":"","id":132765132,"location_subtype":"","month":"2025-12"},{"category":"anti-social-behaviour","location_type":"Force","location":{"latitude":"51.130356","street":{"id":2065677,"name":"On or near Supermarket"},"longitude":"1.306721"},"context":"","outcome_status":null,"persistent_id":"","id":132765128,"location_subtype":"","month":"2025-12"},{"category":"anti-social-behaviour","location_type":"Force","location":{"latitude":"51.130283","street":{"id":2065596,"name":"On or near Templar Street"},"longitude":"1.303806"},"context":"","outcome_status":null,"persistent_id":"","id":132765078,"location_subtype":"","month":"2025-12"},{"category":"anti-social-behaviour","location_type":"Force","location":{"latitude":"51.130376","street":{"id":2065217,"name":"On or near Whinless Road"},"longitude":"1.288087"},"context":"","outcome_status":null,"persistent_id":"","id":132764628,"location_subtype":"","month":"2025-12"},{"category":"bicycle-theft","location_type":"Force","location":{"latitude":"51.130356","street":{"id":2065677,"name":"On or near Supermarket"},"longitude":"1.306721"},"context":"","outcome_status":{"category":"Investigation complete; no suspect identified","date":"2025-12"},"persistent_id":"09ae11f62870dc002b440a5d2608e4c54bf1a5e40482eb7c21acfa58aa8fa4ce","id":132767698,"location_subtype":"","month":"2025-12"},{"category":"burglary","location_type":"Force","location":{"latitude":"51.139461","street":{"id":2065523,"name":"On or near Napier Road"},"longitude":"1.300844"},"context":"","outcome_status":{"category":"Investigation complete; no suspect identified","date":"2025-12"},"persistent_id":"0aacea480ee638c0eb2bd4a804658d4d56b691a1b96f4dc1b26b9eaebfe97f05","id":132766476,"location_subtype":"","month":"2025-12"},{"category":"burglary","location_type":"Force","location":{"latitude":"51.129487","street":{"id":2065222,"name":"On or near Anselm Road"},"longitude":"1.291869"},"context":"","outcome_status":{"category":"Investigation complete; no suspect identified","date":"2026-01"},"persistent_id":"3c0cc2f5c797a79a9387c0ca00d24f7017154ce21b93e2f90fa1510d146587e3","id":132774695,"location_subtype":"","month":"2025-12"},{"category":"burglary","location_type":"Force","location":{"latitude":"51.154974","street":{"id":2065223,"name":"On or near Petrol Station"},"longitude":"1.288549"},"context":"","outcome_status":{"category":"Investigation complete; no suspect identified","date":"2026-01"},"persistent_id":"8744da312adbb311280e0ee10e4db4e9763f8ad3d75421f7bfa857112ac4f092","id":132773473,"location_subtype":"","month":"2025-12"},{"category":"burglary","location_type":"Force","location":{"latitude":"51.134637","street":{"id":2065628,"name":"On or near Charlton Avenue"},"longitude":"1.305075"},"context":"","outcome_status":{"category":"Investigation complete; no suspect identified","date":"2025-12"},"persistent_id":"473ee73579b8ef73105b3d0d1b9d9910bae67149b2200eaf2e3f250d27ef6185","id":132769360,"location_subtype":"","month":"2025-12"},{"category":"criminal-damage-arson","location_type":"Force","location":{"latitude":"51.137358","street":{"id":2065375,"name":"On or near Parking Area"},"longitude":"1.295704"},"context":"","outcome_status":{"category":"Investigation complete; no suspect identified","date":"2025-12"},"persistent_id":"b0d7bcc78ca19618ae4f4974e2b62bf7a4336dccb213645d9daed67d97c06047","id":132769775,"location_subtype":"","month":"2025-12"},{"category":"criminal-damage-arson","location_type":"Force","location":{"latitude":"51.137335","street":{"id":2065565,"name":"On or near Mayfield Avenue"},"longitude":"1.302250"},"context":"","outcome_status":{"category":"Unable to prosecute suspect","date":"2025-12"},"persistent_id":"a9cf00c7adff988970d781d43325e712396547cb3ee3bcc5c0be479b250c78b9","id":132767747,"location_subtype":"","month":"2025-12"},{"category":"criminal-damage-arson","location_type":"Force","location":{"latitude":"51.145036","street":{"id":2065431,"name":"On or near The Linces"},"longitude":"1.297109"},"context":"","outcome_status":{"category":"Investigation complete; no suspect identified","date":"2025-12"},"persistent_id":"193c3bf055aa429de53eaadd7c1444fb59770bff345b2e41f5aadeba60716b39","id":132766510,"location_subtype":"","month":"2025-12"},{"category":"criminal-damage-arson","location_type":"Force","location":{"latitude":"51.136681","street":{"id":2065545,"name":"On or near Minerva Avenue"},"longitude":"1.301832"},"context":"","outcome_status":{"category":"Investigation complete; no suspect identified","date":"2025-12"},"persistent_id":"855cbafecd597029a0a4fe52dc5501ad33f3b960f8729b1697365a0cacfd3af7","id":132773053,"location_subtype":"","month":"2025-12"},{"category":"criminal-damage-arson","location_type":"Force","location":{"latitude":"51.132015","street":{"id":2065581,"name":"On or near Anstee Road"},"longitude":"1.302385"},"context":"","outcome_status":{"category":"Investigation complete; no suspect identified","date":"2025-12"},"persistent_id":"3084efa2a8e4b6dbde197bbb2bf18c85e5c3e163f0a71be9559e25a8c3ee6414","id":132770635,"location_subtype":"","month":"2025-12"},{"category":"criminal-damage-arson","location_type":"Force","location":{"latitude":"51.131416","street":{"id":2065712,"name":"On or near Albert Road"},"longitude":"1.308619"},"context":"","outcome_status":{"category":"Investigation complete; no suspect identified","date":"2025-12"},"persistent_id":"a46890de11f1265df280c2400d91aacf28f4d69ba961fc3cdb1eae0ad675f611","id":132772674,"location_subtype":"","month":"2025-12"},{"category":"criminal-damage-arson","location_type":"Force","location":{"latitude":"51.137358","street":{"id":2065375,"name":"On or near Parking Area"},"longitude":"1.295704"},"context":"","outcome_status":{"category":"Investigation complete; no suspect identified","date":"2025-12"},"persistent_id":"f1ec5460345003521cee2e1fe8275efe10cfe7f147bd746e899d855bf9044c51","id":132768167,"location_subtype":"","month":"2025-12"},{"category":"criminal-damage-arson","location_type":"Force","location":{"latitude":"51.128849","street":{"id":2065426,"name":"On or near Lowther Road"},"longitude":"1.296956"},"context":"","outcome_status":{"category":"Unable to prosecute suspect","date":"2025-12"},"persistent_id":"77aa1a41421ff335afb5ca5a517a50bc8445d84abd40ba1a26f22cb4bbdfec0d","id":132769030,"location_subtype":"","month":"2025-12"},{"category":"criminal-damage-arson","location_type":"Force","location":{"latitude":"51.128849","street":{"id":2065426,"name":"On or near Lowther Road"},"longitude":"1.296956"},"context":"","outcome_status":{"category":"Investigation complete; no suspect identified","date":"2025-12"},"persistent_id":"1c126f9aadf4a4226cdbc830159a6c0acf4c4bc8a692d8c3d1e45988542fa94b","id":132776360,"location_subtype":"","month":"2025-12"},{"category":"criminal-damage-arson","location_type":"Force","location":{"latitude":"51.138464","street":{"id":2065199,"name":"On or near Crabble Avenue"},"longitude":"1.288991"},"context":"","outcome_status":{"category":"Investigation complete; no suspect identified","date":"2025-12"},"persistent_id":"1e54a6bffde1cfd3f5980cc384fad5e892df58df2dbe3187d86a8a880ddc2d6f","id":132769774,"location_subtype":"","month":"2025-12"},{"category":"criminal-damage-arson","location_type":"Force","location":{"latitude":"51.130240","street":{"id":2065647,"name":"On or near Peter Street"},"longitude":"1.305675"},"context":"","outcome_status":{"category":"Under investigation","date":"2025-12"},"persistent_id":"0a3370beff70aea944a8871c1dd91c0b5fc0ee69e165a6603c6cc2cd8664cc35","id":132768602,"location_subtype":"","month":"2025-12"},{"category":"criminal-damage-arson","location_type":"Force","location":{"latitude":"51.129487","street":{"id":2065222,"name":"On or near Anselm Road"},"longitude":"1.291869"},"context":"","outcome_status":{"category":"Investigation complete; no suspect identified","date":"2025-12"},"persistent_id":"f91243dc75dac1b56bbbd87c5349bce7ad57efc84c8caf94ec1a680e9287c471","id":132771487,"location_subtype":"","month":"2025-12"},{"category":"criminal-damage-arson","location_type":"Force","location":{"latitude":"51.144014","street":{"id":2065424,"name":"On or near Sheridan Road"},"longitude":"1.297951"},"context":"","outcome_status":{"category":"Investigation complete; no suspect identified","date":"2025-12"},"persistent_id":"066d2535187ee44959d052ed546fd8cff5ac39c95006d6f293695792cfa898d5","id":132767746,"location_subtype":"","month":"2025-12"},{"category":"criminal-damage-arson","location_type":"Force","location":{"latitude":"51.135137","street":{"id":2065535,"name":"On or near Cherry Tree Avenue"},"longitude":"1.301093"},"context":"","outcome_status":{"category":"Investigation complete; no suspect identified","date":"2025-12"},"persistent_id":"1e004bc175434d614e7cfa15d0bf1313aaefe840d7b0149beac37298e7de9ddc","id":132771892,"location_subtype":"","month":"2025-12"},{"category":"criminal-damage-arson","location_type":"Force","location":{"latitude":"51.130240","street":{"id":2065647,"name":"On or near Peter Street"},"longitude":"1.305675"},"context":"","outcome_status":{"category":"Unable to prosecute suspect","date":"2025-12"},"persistent_id":"6c88ce52e6e57a31f155c03c422662315bd77d6feccc0aed0746fdb454cb3e47","id":132772672,"location_subtype":"","month":"2025-12"},{"category":"criminal-damage-arson","location_type":"Force","location":{"latitude":"51.145036","street":{"id":2065431,"name":"On or near The Linces"},"longitude":"1.297109"},"context":"","outcome_status":{"category":"Investigation complete; no suspect identified","date":"2025-12"},"persistent_id":"d6d210b850be97157b47eccc5c68bc6f79cc076fdf03f58c0ac40ea334311550","id":132766951,"location_subtype":"","month":"2025-12"},{"category":"criminal-damage-arson","location_type":"Force","location":{"latitude":"51.135437","street":{"id":2065681,"name":"On or near Old Charlton Road"},"longitude":"1.307963"},"context":"","outcome_status":{"category":"Investigation complete; no suspect identified","date":"2025-12"},"persistent_id":"0f29993f36380343e54149c730b687c1bc71821b99b1e3e85bfa163bf2e1e18c","id":132766952,"location_subtype":"","month":"2025-12"},{"category":"criminal-damage-arson","location_type":"Force","location":{"latitude":"51.149322","street":{"id":2065440,"name":"On or near Rokesley Road"},"longitude":"1.297586"},"context":"","outcome_status":{"category":"Investigation complete; no suspect identified","date":"2025-12"},"persistent_id":"acbb94982d8f785432d5c08f2ac574e797fc918001c2a90114977fd3bca64a41","id":132771073,"location_subtype":"","month":"2025-12"},{"category":"criminal-damage-arson","location_type":"Force","location":{"latitude":"51.144014","street":{"id":2065424,"name":"On or near Sheridan Road"},"longitude":"1.297951"},"context":"","outcome_status":{"category":"Investigation complete; no suspect identified","date":"2025-12"},"persistent_id":"4cf766a59a48452b4c8abd228d77069e72444ce150cc9057d1ef66d616d79eb0","id":132776359,"location_subtype":"","month":"2025-12"},{"category":"criminal-damage-arson","location_type":"Force","location":{"latitude":"51.132670","street":{"id":2065776,"name":"On or near Connaught Road"},"longitude":"1.312583"},"context":"","outcome_status":{"category":"Investigation complete; no suspect identified","date":"2025-12"},"persistent_id":"084ecb13289fd291b71efd84dd2cdf34a534d641b8393c4a85551032c9d2011f","id":132776362,"location_subtype":"","month":"2025-12"},{"category":"criminal-damage-arson","location_type":"Force","location":{"latitude":"51.144014","street":{"id":2065424,"name":"On or near Sheridan Road"},"longitude":"1.297951"},"context":"","outcome_status":{"category":"Investigation complete; no suspect identified","date":"2025-12"},"persistent_id":"021437182a9a30ba1db3f3d65050ff4c00321a43b1b8cb594155f18441574957","id":132777527,"location_subtype":"","month":"2025-12"},{"category":"criminal-damage-arson","location_type":"Force","location":{"latitude":"51.144014","street":{"id":2065424,"name":"On or near Sheridan Road"},"longitude":"1.297951"},"context":"","outcome_status":{"category":"Investigation complete; no suspect identified","date":"2025-12"},"persistent_id":"84d7fd8c1ede06c58a4068ce71bc0359cb7e07b6e5e8be29f46ccc0fee6f98cf","id":132772291,"location_subtype":"","month":"2025-12"},{"category":"criminal-damage-arson","location_type":"Force","location":{"latitude":"51.132722","street":{"id":2065364,"name":"On or near Rosewood Heights"},"longitude":"1.295816"},"context":"","outcome_status":{"category":"Under investigation","date":"2025-12"},"persistent_id":"be710a2ade0619d22b33423704f690e72778fe10d01f3fff16fc7120e5ee19ee","id":132773052,"location_subtype":"","month":"2025-12"},{"category":"criminal-damage-arson","location_type":"Force","location":{"latitude":"51.144014","street":{"id":2065424,"name":"On or near Sheridan Road"},"longitude":"1.297951"},"context":"","outcome_status":{"category":"Investigation complete; no suspect identified","date":"2025-12"},"persistent_id":"b485e86d9fd16096fe51c4e5ade2624e80d3dda23af3664cdae6e4d50f073580","id":132774319,"location_subtype":"","month":"2025-12"},{"category":"criminal-damage-arson","location_type":"Force","location":{"latitude":"51.132676","street":{"id":2065337,"name":"On or near Coombe Valley Road"},"longitude":"1.293311"},"context":"","outcome_status":{"category":"Investigation complete; no suspect identified","date":"2025-12"},"persistent_id":"e7e1b0dbc68cd1d410885d51fff67ec4ee48d4cfaae10bb3369d792a58df3685","id":132768601,"location_subtype":"","month":"2025-12"},{"category":"criminal-damage-arson","location_type":"Force","location":{"latitude":"51.130738","street":{"id":2065376,"name":"On or near Harbour View Road"},"longitude":"1.295346"},"context":"","outcome_status":{"category":"Investigation complete; no suspect identified","date":"2025-12"},"persistent_id":"c5e7a66599509a9d7ce924482df06218bc1f6186bc909a240034b70152ec0ecd","id":132767318,"location_subtype":"","month":"2025-12"},{"category":"criminal-damage-arson","location_type":"Force","location":{"latitude":"51.146004","street":{"id":2065645,"name":"On or near Natal Road"},"longitude":"1.305172"},"context":"","outcome_status":{"category":"Unable to prosecute suspect","date":"2025-12"},"persistent_id":"f4660d00b5ca582d47560320a159bd2588c9de8fc085033e0a585bc7e0afeb8c","id":132774320,"location_subtype":"","month":"2025-12"},{"category":"criminal-damage-arson","location_type":"Force","location":{"latitude":"51.137442","street":{"id":2065369,"name":"On or near Crabble Meadows"},"longitude":"1.294294"},"context":"","outcome_status":{"category":"Investigation complete; no suspect identified","date":"2026-01"},"persistent_id":"f2d3853a7cfa510dfd7ce4670c3353c194e827f3a1217ec189e857924bcd6e70","id":132773513,"location_subtype":"","month":"2025-12"},{"category":"criminal-damage-arson","location_type":"Force","location":{"latitude":"51.148018","street":{"id":2065119,"name":"On or near Whitfield Hill"},"longitude":"1.279674"},"context":"","outcome_status":{"category":"Investigation complete; no suspect identified","date":"2025-12"},"persistent_id":"254a6d1fe52ab8861bc85008f123cfa98d55c041e19d298a78b45799338fc211","id":132773511,"location_subtype":"","month":"2025-12"},{"category":"drugs","location_type":"Force","location":{"latitude":"51.137335","street":{"id":2065565,"name":"On or near Mayfield Avenue"},"longitude":"1.302250"},"context":"","outcome_status":{"category":"Under investigation","date":"2025-12"},"persistent_id":"5f96bf8d6eacae81ea924a5df8ac81421ce574428f5cff477b4531dee0e5b568","id":132769417,"location_subtype":"","month":"2025-12"},{"category":"drugs","location_type":"Force","location":{"latitude":"51.137127","street":{"id":2065526,"name":"On or near Heathfield Avenue"},"longitude":"1.300677"},"context":"","outcome_status":{"category":"Investigation complete; no suspect identified","date":"2026-01"},"persistent_id":"2a232718a9169bc119565e192fad2eb24466a1b653dbaafc3dfeef74fd81689a","id":132778343,"location_subtype":"","month":"2025-12"},{"category":"drugs","location_type":"Force","location":{"latitude":"51.128866","street":{"id":2065498,"name":"On or near South Road"},"longitude":"1.299859"},"context":"","outcome_status":{"category":"Investigation complete; no suspect identified","date":"2025-12"},"persistent_id":"30c40cf75a7d133d2948857e65a2d2bf825a3a51d266ecfe25e2f80a39844a71","id":132776652,"location_subtype":"","month":"2025-12"},{"category":"drugs","location_type":"Force","location":{"latitude":"51.133569","street":{"id":2065457,"name":"On or near Victoria Street"},"longitude":"1.298951"},"context":"","outcome_status":{"category":"Under investigation","date":"2025-12"},"persistent_id":"bc68b55f189be7d00caef07c28af5b0692bc6cb441172da78cf343243db63aea","id":132773527,"location_subtype":"","month":"2025-12"},{"category":"drugs","location_type":"Force","location":{"latitude":"51.128866","street":{"id":2065498,"name":"On or near South Road"},"longitude":"1.299859"},"context":"","outcome_status":{"category":"Awaiting court outcome","date":"2025-12"},"persistent_id":"e53a2d3344520012ee937aea15cc2713f23c35f8f6467e0e8ed9fca0b06d74e2","id":132772693,"location_subtype":"","month":"2025-12"},{"category":"drugs","location_type":"Force","location":{"latitude":"51.132997","street":{"id":2065586,"name":"On or near Leighton Road"},"longitude":"1.303270"},"context":"","outcome_status":{"category":"Awaiting court outcome","date":"2025-12"},"persistent_id":"2e5220d23005343b3f402fc02898ed75c8473ff4610bb30851ea3b4b7a650cdc","id":132770656,"location_subtype":"","month":"2025-12"},{"category":"drugs","location_type":"Force","location":{"latitude":"51.137358","street":{"id":2065375,"name":"On or near Parking Area"},"longitude":"1.295704"},"context":"","outcome_status":{"category":"Under investigation","date":"2025-12"},"persistent_id":"18e790fd59913d62bfd07538793d0451f406faed2a3a4579dbc8976a83a5106d","id":132767332,"location_subtype":"","month":"2025-12"},{"category":"drugs","location_type":"Force","location":{"latitude":"51.133007","street":{"id":2065192,"name":"On or near Marjan Close"},"longitude":"1.287602"},"context":"","outcome_status":{"category":"Local resolution","date":"2026-01"},"persistent_id":"0a5bf1e86dd22c0426e46598828edeb22b565f4ca6122e53fd0a83d63a7bc97e","id":132774345,"location_subtype":"","month":"2025-12"},{"category":"drugs","location_type":"Force","location":{"latitude":"51.135910","street":{"id":2065408,"name":"On or near Oswald Road"},"longitude":"1.296001"},"context":"","outcome_status":{"category":"Investigation complete; no suspect identified","date":"2025-12"},"persistent_id":"fc39f29c97ca32cc8375d8a56dba44546964db711ca222b93401a0bf48d181ce","id":132767780,"location_subtype":"","month":"2025-12"},{"category":"other-theft","location_type":"Force","location":{"latitude":"51.141953","street":{"id":2065415,"name":"On or near Maine Close"},"longitude":"1.296689"},"context":"","outcome_status":{"category":"Investigation complete; no suspect identified","date":"2025-12"},"persistent_id":"d2bf1144c4b7046dd77221e03989f6a88ab3114b1a3df2594c6cf59d90caac03","id":132776047,"location_subtype":"","month":"2025-12"},{"category":"other-theft","location_type":"Force","location":{"latitude":"51.131864","street":{"id":2065736,"name":"On or near Salisbury Road"},"longitude":"1.309294"},"context":"","outcome_status":{"category":"Investigation complete; no suspect identified","date":"2025-12"},"persistent_id":"e6f0e135b95c0ee17fcd4f37f876bf0c6dae994177ce412aac43af13701a2d09","id":132769078,"location_subtype":"","month":"2025-12"},{"category":"other-theft","location_type":"Force","location":{"latitude":"51.141201","street":{"id":2065249,"name":"On or near Carlsden Close"},"longitude":"1.289886"},"context":"","outcome_status":{"category":"Investigation complete; no suspect identified","date":"2025-12"},"persistent_id":"c8cc446754e492c8d10dd1a4c18c12e4ac9eaf2ae350aa27a88383de8ea6a6fd","id":132773591,"location_subtype":"","month":"2025-12"},{"category":"other-theft","location_type":"Force","location":{"latitude":"51.135013","street":{"id":2065655,"name":"On or near Stanhope Road"},"longitude":"1.305473"},"context":"","outcome_status":{"category":"Investigation complete; no suspect identified","date":"2025-12"},"persistent_id":"a37ff7345d29f28bc8430cde4bcb6e1556b95d5e0bd3da6b229a43d255fd98e9","id":132768239,"location_subtype":"","month":"2025-12"},{"category":"other-theft","location_type":"Force","location":{"latitude":"51.139611","street":{"id":2065932,"name":"On or near Corunna Place"},"longitude":"1.320644"},"context":"","outcome_status":{"category":"Investigation complete; no suspect identified","date":"2025-12"},"persistent_id":"932c0a144280aca67efc26ae42c57fda938bb1694c5b6b72c7632181f5a876f8","id":132768668,"location_subtype":"","month":"2025-12"},{"category":"other-theft","location_type":"Force","location":{"latitude":"51.132579","street":{"id":2065605,"name":"On or near Bartholomew Street"},"longitude":"1.303755"},"context":"","outcome_status":{"category":"Investigation complete; no suspect identified","date":"2025-12"},"persistent_id":"d2ef0560e772c66365656ae621f469490d25230ebab107bd7551b7c2e4aeed1a","id":132774383,"location_subtype":"","month":"2025-12"},{"category":"other-theft","location_type":"Force","location":{"latitude":"51.150878","street":{"id":2065631,"name":"On or near Fitness Fields"},"longitude":"1.305249"},"context":"","outcome_status":{"category":"Investigation complete; no suspect identified","date":"2025-12"},"persistent_id":"a34900a4704614236c8604e222d04976bfddd53b3abb399dc71f9e9861aa382a","id":132767390,"location_subtype":"","month":"2025-12"},{"category":"other-theft","location_type":"Force","location":{"latitude":"51.131416","street":{"id":2065712,"name":"On or near Albert Road"},"longitude":"1.308619"},"context":"","outcome_status":{"category":"Unable to prosecute suspect","date":"2025-12"},"persistent_id":"4a57a38cf19cc949b6b634434fe925e1016007769ffe23a2adcb41f82a9a0110","id":132770288,"location_subtype":"","month":"2025-12"},{"category":"other-theft","location_type":"Force","location":{"latitude":"51.129804","street":{"id":2065512,"name":"On or near Odo Road"},"longitude":"1.301041"},"context":"","outcome_status":{"category":"Under investigation","date":"2025-12"},"persistent_id":"19175fb04dbef54e1512d139835c117f7fd38992edd601de12f47e06d3e14d61","id":132775616,"location_subtype":"","month":"2025-12"},{"category":"other-theft","location_type":"Force","location":{"latitude":"51.135910","street":{"id":2065408,"name":"On or near Oswald Road"},"longitude":"1.296001"},"context":"","outcome_status":{"category":"Investigation complete; no suspect identified","date":"2025-12"},"persistent_id":"395243555221bf6343022ed480b54931e44f7020bb2470db9e4a4bc41e6b9a7f","id":132772361,"location_subtype":"","month":"2025-12"},{"category":"other-theft","location_type":"Force","location":{"latitude":"51.132579","street":{"id":2065605,"name":"On or near Bartholomew Street"},"longitude":"1.303755"},"context":"","outcome_status":{"category":"Under investigation","date":"2025-12"},"persistent_id":"93a0bd315dc85b4d1a15c0566d6ea0373a42368c8e484a424a0c03a329438b2b","id":132775243,"location_subtype":"","month":"2025-12"},{"category":"other-theft","location_type":"Force","location":{"latitude":"51.130997","street":{"id":2065225,"name":"On or near Coombe Close"},"longitude":"1.288388"},"context":"","outcome_status":{"category":"Under investigation","date":"2025-12"},"persistent_id":"264bff877b38c400aadc821c583500dd673a16a53bd301eb1199049d6d862722","id":132778389,"location_subtype":"","month":"2025-12"},{"category":"possession-of-weapons","location_type":"Force","location":{"latitude":"51.140273","street":{"id":2065313,"name":"On or near Dodd's Lane"},"longitude":"1.292465"},"context":"","outcome_status":{"category":"Under investigation","date":"2025-12"},"persistent_id":"d3e8bde7b79c30064d3cc8a6ecdcdddbf5dd7ea97d713835c29f2892cbbc8020","id":132775629,"location_subtype":"","month":"2025-12"},{"category":"possession-of-weapons","location_type":"Force","location":{"latitude":"51.144211","street":{"id":2065122,"name":"On or near Lower Road"},"longitude":"1.279447"},"context":"","outcome_status":{"category":"Local resolution","date":"2025-12"},"persistent_id":"443b95de6d2a028cef972c666baf09d309122e769b36a3b239646dcdc4c599ee","id":132766594,"location_subtype":"","month":"2025-12"},{"category":"public-order","location_type":"Force","location":{"latitude":"51.147216","street":{"id":2065495,"name":"On or near Wycherley Crescent"},"longitude":"1.299867"},"context":"","outcome_status":{"category":"Investigation complete; no suspect identified","date":"2025-12"},"persistent_id":"3fa300d7dbb557d890ffa06df92aa7ecf7d1e059dc19ba4fed035d43d447ca92","id":132773626,"location_subtype":"","month":"2025-12"},{"category":"public-order","location_type":"Force","location":{"latitude":"51.130157","street":{"id":2065742,"name":"On or near Hewitt Road"},"longitude":"1.308900"},"context":"","outcome_status":{"category":"Unable to prosecute suspect","date":"2025-12"},"persistent_id":"e103db45f89eb1e79095c385f7cefe99b6e74d7b8c03efeaff5ad79c258fb8c6","id":132767035,"location_subtype":"","month":"2025-12"},{"category":"public-order","location_type":"Force","location":{"latitude":"51.134315","street":{"id":2065549,"name":"On or near Supermarket"},"longitude":"1.301507"},"context":"","outcome_status":{"category":"Unable to prosecute suspect","date":"2025-12"},"persistent_id":"9a546c9e17a04773d6b8ffbf04d054b47064a730f17874b02f7ff624b936436a","id":132773628,"location_subtype":"","month":"2025-12"},{"category":"public-order","location_type":"Force","location":{"latitude":"51.144211","street":{"id":2065122,"name":"On or near Lower Road"},"longitude":"1.279447"},"context":"","outcome_status":{"category":"Under investigation","date":"2025-12"},"persistent_id":"1d2cc382cf26806b048d3afda1f6f53b65f44719d909d0aa4c2d5039fc92941d","id":132769487,"location_subtype":"","month":"2025-12"},{"category":"robbery","location_type":"Force","location":{"latitude":"51.130356","street":{"id":2065677,"name":"On or near Supermarket"},"longitude":"1.306721"},"context":"","outcome_status":{"category":"Under investigation","date":"2025-12"},"persistent_id":"c6573c9e92b36ad91259ebfce5ec86b6e260891b99c23a642843f977bf22b338","id":132767874,"location_subtype":"","month":"2025-12"},{"category":"shoplifting","location_type":"Force","location":{"latitude":"51.137442","street":{"id":2065369,"name":"On or near Crabble Meadows"},"longitude":"1.294294"},"context":"","outcome_status":{"category":"Investigation complete; no suspect identified","date":"2025-12"},"persistent_id":"7ad31c3d26d605300bbebd9780af76e12176bd5c1beb785ff071f9f71155beb6","id":132770812,"location_subtype":"","month":"2025-12"},{"category":"shoplifting","location_type":"Force","location":{"latitude":"51.130356","street":{"id":2065677,"name":"On or near Supermarket"},"longitude":"1.306721"},"context":"","outcome_status":{"category":"Investigation complete; no suspect identified","date":"2025-12"},"persistent_id":"8ca68aa3892116b4e0648edf74a782a43286f4e2cf01f8c1526620dfff5b693b","id":132769528,"location_subtype":"","month":"2025-12"},{"category":"shoplifting","location_type":"Force","location":{"latitude":"51.144992","street":{"id":2065080,"name":"On or near Supermarket"},"longitude":"1.277257"},"context":"","outcome_status":{"category":"Investigation complete; no suspect identified","date":"2025-12"},"persistent_id":"c0e80dfd8c00f87fbf238896ba6eab8431a81338a495cdc884bf834227090dc7","id":132774441,"location_subtype":"","month":"2025-12"},{"category":"shoplifting","location_type":"Force","location":{"latitude":"51.137442","street":{"id":2065369,"name":"On or near Crabble Meadows"},"longitude":"1.294294"},"context":"","outcome_status":{"category":"Investigation complete; no suspect identified","date":"2025-12"},"persistent_id":"21da33682ddde5d547c2a8b957f2358844800d13b07b44a03945d509ccdb07f3","id":132768737,"location_subtype":"","month":"2025-12"},{"category":"shoplifting","location_type":"Force","location":{"latitude":"51.135137","street":{"id":2065535,"name":"On or near Cherry Tree Avenue"},"longitude":"1.301093"},"context":"","outcome_status":{"category":"Investigation complete; no suspect identified","date":"2025-12"},"persistent_id":"6de1ae1f12f04e2cf50b906e45b1c41e5be737b0dcec60412e1a23c9c87045ad","id":132768738,"location_subtype":"","month":"2025-12"},{"category":"shoplifting","location_type":"Force","location":{"latitude":"51.137442","street":{"id":2065369,"name":"On or near Crabble Meadows"},"longitude":"1.294294"},"context":"","outcome_status":{"category":"Investigation complete; no suspect identified","date":"2025-12"},"persistent_id":"c921ffab33e5829c02bf9886fdc24cf834dee4e4475a8293b36cba2d484d90f0","id":132776119,"location_subtype":"","month":"2025-12"},{"category":"shoplifting","location_type":"Force","location":{"latitude":"51.137442","street":{"id":2065369,"name":"On or near Crabble Meadows"},"longitude":"1.294294"},"context":"","outcome_status":{"category":"Investigation complete; no suspect identified","date":"2026-01"},"persistent_id":"916942302dd422ce483422994b8e1e45bfa38cb06ea60351cde067b5d699e5bb","id":132777296,"location_subtype":"","month":"2025-12"},{"category":"shoplifting","location_type":"Force","location":{"latitude":"51.130356","street":{"id":2065677,"name":"On or near Supermarket"},"longitude":"1.306721"},"context":"","outcome_status":{"category":"Awaiting court outcome","date":"2025-12"},"persistent_id":"e634714ffcb3e99f39216587d09ed9fd5e0e21ab1483b83cfdd04da8d37a58c0","id":132775306,"location_subtype":"","month":"2025-12"},{"category":"shoplifting","location_type":"Force","location":{"latitude":"51.153865","street":{"id":2065460,"name":"On or near Petrol Station"},"longitude":"1.298540"},"context":"","outcome_status":{"category":"Investigation complete; no suspect identified","date":"2025-12"},"persistent_id":"0a7a75b6059e2bbe795084190ce0d222abb8efd6f5632d5b1330a29226ec3930","id":132776703,"location_subtype":"","month":"2025-12"},{"category":"shoplifting","location_type":"Force","location":{"latitude":"51.152628","street":{"id":2065497,"name":"On or near Shopping Area"},"longitude":"1.299968"},"context":"","outcome_status":{"category":"Investigation complete; no suspect identified","date":"2025-12"},"persistent_id":"bed355bea69d8eec89cf81369fd7fb0033944669c6bb0d39902763009fca9303","id":132772041,"location_subtype":"","month":"2025-12"},{"category":"shoplifting","location_type":"Force","location":{"latitude":"51.153948","street":{"id":2065392,"name":"On or near Petrol Station"},"longitude":"1.297187"},"context":"","outcome_status":{"category":"Investigation complete; no suspect identified","date":"2025-12"},"persistent_id":"a1e265a8d95eb55d5aedeaa8518b463b3c47d2d40fc887d90c0449c0dfee8ee9","id":132776702,"location_subtype":"","month":"2025-12"},{"category":"shoplifting","location_type":"Force","location":{"latitude":"51.153865","street":{"id":2065460,"name":"On or near Petrol Station"},"longitude":"1.298540"},"context":"","outcome_status":{"category":"Unable to prosecute suspect","date":"2025-12"},"persistent_id":"d17f7fea421c1e9e0a399c29dc814a64c436543dd571fedc383ace0c19bbfea9","id":132773677,"location_subtype":"","month":"2025-12"},{"category":"shoplifting","location_type":"Force","location":{"latitude":"51.128805","street":{"id":2065419,"name":"On or near Goschen Road"},"longitude":"1.296581"},"context":"","outcome_status":{"category":"Awaiting court outcome","date":"2026-01"},"persistent_id":"475781296f54cebbb4d29b0ab15c6da204a1659e3fa6abfd315db6ef8df45324","id":132778028,"location_subtype":"","month":"2025-12"},{"category":"shoplifting","location_type":"Force","location":{"latitude":"51.153775","street":{"id":2065507,"name":"On or near Shopping Area"},"longitude":"1.303177"},"context":"","outcome_status":{"category":"Investigation complete; no suspect identified","date":"2026-01"},"persistent_id":"8cede66c9487cf74aa0f73b8b7a953ca9a01683b7430a82c766e3981a4fe2493","id":132778029,"location_subtype":"","month":"2025-12"},{"category":"shoplifting","location_type":"Force","location":{"latitude":"51.137442","street":{"id":2065369,"name":"On or near Crabble Meadows"},"longitude":"1.294294"},"context":"","outcome_status":{"category":"Investigation complete; no suspect identified","date":"2025-12"},"persistent_id":"00eece8f5b8fb67fdc04dfd2dae88a8afacf831770307b2469f3bcec2450481f","id":132770382,"location_subtype":"","month":"2025-12"},{"category":"shoplifting","location_type":"Force","location":{"latitude":"51.135137","street":{"id":2065535,"name":"On or near Cherry Tree Avenue"},"longitude":"1.301093"},"context":"","outcome_status":{"category":"Investigation complete; no suspect identified","date":"2025-12"},"persistent_id":"5de0de8e08c57c81c1e876d91afc354a35b5a88e079e1a1492035fe6d0207874","id":132770813,"location_subtype":"","month":"2025-12"},{"category":"shoplifting","location_type":"Force","location":{"latitude":"51.128805","street":{"id":2065419,"name":"On or near Goschen Road"},"longitude":"1.296581"},"context":"","outcome_status":{"category":"Under investigation","date":"2025-12"},"persistent_id":"fccf0a71b7cb72c287f2698cd7fec221cd4c4ed81ae8fabb12a0fd5bb45839c8","id":132778458,"location_subtype":"","month":"2025-12"},{"category":"shoplifting","location_type":"Force","location":{"latitude":"51.153043","street":{"id":2065478,"name":"On or near Honeywood Parkway"},"longitude":"1.300870"},"context":"","outcome_status":{"category":"Investigation complete; no suspect identified","date":"2026-01"},"persistent_id":"fdd1858ae05f1d13bd789238fa7bbba1ccbe4aea7d0fc15e1443a680c10b3f67","id":132776120,"location_subtype":"","month":"2025-12"},{"category":"theft-from-the-person","location_type":"Force","location":{"latitude":"51.130356","street":{"id":2065677,"name":"On or near Supermarket"},"longitude":"1.306721"},"context":"","outcome_status":{"category":"Investigation complete; no suspect identified","date":"2025-12"},"persistent_id":"24d22e77d21b9eb57ff7016e3216ffa8cbb864532d86f5f0123837d03a8c86d8","id":132774448,"location_subtype":"","month":"2025-12"},{"category":"vehicle-crime","location_type":"Force","location":{"latitude":"51.130580","street":{"id":2065594,"name":"On or near De Burgh Hill"},"longitude":"1.303498"},"context":"","outcome_status":{"category":"Investigation complete; no suspect identified","date":"2025-12"},"persistent_id":"68d4798a164df489166bb606e36efcf76d222faae6329bfde9fbc8a8548f21c5","id":132776724,"location_subtype":"","month":"2025-12"},{"category":"vehicle-crime","location_type":"Force","location":{"latitude":"51.152928","street":{"id":2065564,"name":"On or near Kedleston Road"},"longitude":"1.302706"},"context":"","outcome_status":{"category":"Investigation complete; no suspect identified","date":"2025-12"},"persistent_id":"841a1554d20ef87419a04e4f057cdf4463c931c182a403217ad8242d76155064","id":132776155,"location_subtype":"","month":"2025-12"},{"category":"vehicle-crime","location_type":"Force","location":{"latitude":"51.130376","street":{"id":2065217,"name":"On or near Whinless Road"},"longitude":"1.288087"},"context":"","outcome_status":{"category":"Unable to prosecute suspect","date":"2025-12"},"persistent_id":"98d8a319bfd3532588eb8d13959d9074f977c7956f0d36e56303e2a8c9f97014","id":132769950,"location_subtype":"","month":"2025-12"},{"category":"vehicle-crime","location_type":"Force","location":{"latitude":"51.133194","street":{"id":2065326,"name":"On or near Primrose Road"},"longitude":"1.292805"},"context":"","outcome_status":{"category":"Awaiting court outcome","date":"2025-12"},"persistent_id":"4b3ad0e5f6deead92eea5a19d4d8b487226976a1525798befca03a476588c7ea","id":132769951,"location_subtype":"","month":"2025-12"},{"category":"violent-crime","location_type":"Force","location":{"latitude":"51.140028","street":{"id":2065546,"name":"On or near Hobart Crescent"},"longitude":"1.301470"},"context":"","outcome_status":{"category":"Investigation complete; no suspect identified","date":"2026-01"},"persistent_id":"85dd35dc2b2f9dd26488117feaac824a8f54986912c4a376c445516f4a405209","id":132775871,"location_subtype":"","month":"2025-12"},{"category":"violent-crime","location_type":"Force","location":{"latitude":"51.132676","street":{"id":2065337,"name":"On or near Coombe Valley Road"},"longitude":"1.293311"},"context":"","outcome_status":{"category":"Unable to prosecute suspect","date":"2026-01"},"persistent_id":"08e8c4011a74cb8c81189b117d0e3ea7a5589e30c632740b8270c79259e7330b","id":132778222,"location_subtype":"","month":"2025-12"},{"category":"violent-crime","location_type":"Force","location":{"latitude":"51.132676","street":{"id":2065337,"name":"On or near Coombe Valley Road"},"longitude":"1.293311"},"context":"","outcome_status":{"category":"Unable to prosecute suspect","date":"2026-01"},"persistent_id":"a00d0c63e2a7817907982aa9f17b2da5d0b6df480147cbda5b3bc2305e3b609d","id":132778223,"location_subtype":"","month":"2025-12"},{"category":"violent-crime","location_type":"Force","location":{"latitude":"51.132676","street":{"id":2065337,"name":"On or near Coombe Valley Road"},"longitude":"1.293311"},"context":"","outcome_status":{"category":"Unable to prosecute suspect","date":"2026-01"},"persistent_id":"4e68788b13ec4aae6e79ab325d10d93a110bebd514c9721b9c6915caa581c8c5","id":132778224,"location_subtype":"","month":"2025-12"},{"category":"violent-crime","location_type":"Force","location":{"latitude":"51.132676","street":{"id":2065337,"name":"On or near Coombe Valley Road"},"longitude":"1.293311"},"context":"","outcome_status":{"category":"Unable to prosecute suspect","date":"2026-01"},"persistent_id":"3bf39c09a0fe1111f32ad07400ed9c08b1e592e291f32241750c81a83eabea4b","id":132778225,"location_subtype":"","month":"2025-12"},{"category":"violent-crime","location_type":"Force","location":{"latitude":"51.132676","street":{"id":2065337,"name":"On or near Coombe Valley Road"},"longitude":"1.293311"},"context":"","outcome_status":{"category":"Unable to prosecute suspect","date":"2026-01"},"persistent_id":"90951d7f58618429fe4922030351136a010ac8244aba2c7437da1a701f7c4d48","id":132778226,"location_subtype":"","month":"2025-12"},{"category":"violent-crime","location_type":"Force","location":{"latitude":"51.136365","street":{"id":2065374,"name":"On or near Wood's Place"},"longitude":"1.294546"},"context":"","outcome_status":{"category":"Unable to prosecute suspect","date":"2026-01"},"persistent_id":"51a0be8bfc04c0892be4a8a453ec4b38cd82ee03fcc623cd5fcb036ac2815d6b","id":132778227,"location_subtype":"","month":"2025-12"},{"category":"violent-crime","location_type":"Force","location":{"latitude":"51.132676","street":{"id":2065337,"name":"On or near Coombe Valley Road"},"longitude":"1.293311"},"context":"","outcome_status":{"category":"Unable to prosecute suspect","date":"2026-01"},"persistent_id":"2074938e1c883d0bff028c5e1d41d88f41aa95f99fd9fcc0e33d392d4d0896d1","id":132778617,"location_subtype":"","month":"2025-12"},{"category":"violent-crime","location_type":"Force","location":{"latitude":"51.153948","street":{"id":2065392,"name":"On or near Petrol Station"},"longitude":"1.297187"},"context":"","outcome_status":{"category":"Investigation complete; no suspect identified","date":"2026-01"},"persistent_id":"96314d2c38ddc839585fd544c7564c25f5bef8ea5ae38c0cb2355dfbb3839fdb","id":132778618,"location_subtype":"","month":"2025-12"},{"category":"violent-crime","location_type":"Force","location":{"latitude":"51.135437","street":{"id":2065681,"name":"On or near Old Charlton Road"},"longitude":"1.307963"},"context":"","outcome_status":{"category":"Further action is not in the public interest","date":"2026-01"},"persistent_id":"1460bd37d7929ee83625dedf987056a5e84e5848e88a91d85668601854f5aed4","id":132772958,"location_subtype":"","month":"2025-12"},{"category":"violent-crime","location_type":"Force","location":{"latitude":"51.140028","street":{"id":2065546,"name":"On or near Hobart Crescent"},"longitude":"1.301470"},"context":"","outcome_status":{"category":"Under investigation","date":"2025-12"},"persistent_id":"24fefb57120e21a6bf9ee80355538574947817e9ba326e26c31d3f55ecd5b2de","id":132776580,"location_subtype":"","month":"2025-12"},{"category":"violent-crime","location_type":"Force","location":{"latitude":"51.130376","street":{"id":2065217,"name":"On or near Whinless Road"},"longitude":"1.288087"},"context":"","outcome_status":{"category":"Investigation complete; no suspect identified","date":"2025-12"},"persistent_id":"510fd1290e6ef23492850412381f7867cb582d8f8c335776f37a2f8960888375","id":132773429,"location_subtype":"","month":"2025-12"},{"category":"violent-crime","location_type":"Force","location":{"latitude":"51.140273","street":{"id":2065313,"name":"On or near Dodd's Lane"},"longitude":"1.292465"},"context":"","outcome_status":{"category":"Unable to prosecute suspect","date":"2025-12"},"persistent_id":"0c0448e3e18c16b0231bb4a52b2b087af718d6ca144a5ea25f8f38b4d9b1a888","id":132773430,"location_subtype":"","month":"2025-12"},{"category":"violent-crime","location_type":"Force","location":{"latitude":"51.150076","street":{"id":2065418,"name":"On or near Fulbert Road"},"longitude":"1.297311"},"context":"","outcome_status":{"category":"Action to be taken by another organisation","date":"2025-12"},"persistent_id":"10482dbbb7ac5b902ffcd29f6a5fe7e617f8413d0fb48efd2b7cde3b2710f9ce","id":132768503,"location_subtype":"","month":"2025-12"},{"category":"violent-crime","location_type":"Force","location":{"latitude":"51.141391","street":{"id":2065414,"name":"On or near Colorado Close"},"longitude":"1.297492"},"context":"","outcome_status":{"category":"Unable to prosecute suspect","date":"2025-12"},"persistent_id":"25f471f3ebca7467dec1d9671749a638ca415f2c9dd23256e7a9b4a1ee9bb8f8","id":132772203,"location_subtype":"","month":"2025-12"},{"category":"violent-crime","location_type":"Force","location":{"latitude":"51.141821","street":{"id":2065207,"name":"On or near Old Park Avenue"},"longitude":"1.288286"},"context":"","outcome_status":{"category":"Unable to prosecute suspect","date":"2025-12"},"persistent_id":"316b60b6d3a809ebbb12b563fba61d868d9b654fd93fca1d1757a351803e22c6","id":132768500,"location_subtype":"","month":"2025-12"},{"category":"violent-crime","location_type":"Force","location":{"latitude":"51.142832","street":{"id":2065520,"name":"On or near Vancouver Road"},"longitude":"1.301571"},"context":"","outcome_status":{"category":"Unable to prosecute suspect","date":"2025-12"},"persistent_id":"78f2c5295adc04bd9ce7f3442d5d02b8e306fd077abfb6deb9f29d2c2f7dd59f","id":132768504,"location_subtype":"","month":"2025-12"},{"category":"violent-crime","location_type":"Force","location":{"latitude":"51.136967","street":{"id":2065290,"name":"On or near Hillside Road"},"longitude":"1.291701"},"context":"","outcome_status":{"category":"Unable to prosecute suspect","date":"2025-12"},"persistent_id":"8616594331f421f5e891c80f3efcfb91019aa497d226d9dc87ef294ba336e075","id":132769687,"location_subtype":"","month":"2025-12"},{"category":"violent-crime","location_type":"Force","location":{"latitude":"51.151345","street":{"id":2065335,"name":"On or near Antelope Close"},"longitude":"1.293468"},"context":"","outcome_status":{"category":"Investigation complete; no suspect identified","date":"2025-12"},"persistent_id":"76f725efab2bcc971f07a6e07aabbf30e2fb2400f537aa61ae80308bf2d5e13e","id":132770119,"location_subtype":"","month":"2025-12"},{"category":"violent-crime","location_type":"Force","location":{"latitude":"51.138998","street":{"id":2065475,"name":"On or near Evison Close"},"longitude":"1.299095"},"context":"","outcome_status":{"category":"Investigation complete; no suspect identified","date":"2025-12"},"persistent_id":"e1251b6a5493a37bbef72d4a3aef375f5c32f1ed1594b2447c0cc40f157e64d0","id":132770561,"location_subtype":"","month":"2025-12"},{"category":"violent-crime","location_type":"Force","location":{"latitude":"51.150878","street":{"id":2065631,"name":"On or near Fitness Fields"},"longitude":"1.305249"},"context":"","outcome_status":{"category":"Under investigation","date":"2025-12"},"persistent_id":"125db73837a2bcfd2a1fb756f2b3903f294e4b66c7e41b86d68bbd6c3f31a56c","id":132770998,"location_subtype":"","month":"2025-12"},{"category":"violent-crime","location_type":"Force","location":{"latitude":"51.132353","street":{"id":2065349,"name":"On or near Masons Road"},"longitude":"1.293603"},"context":"","outcome_status":{"category":"Awaiting court outcome","date":"2025-12"},"persistent_id":"d06816ce48df71d292e1cf2799cfcb7faf0472269f8e8d5603b4b8fdde3df6b4","id":132771419,"location_subtype":"","month":"2025-12"},{"category":"violent-crime","location_type":"Force","location":{"latitude":"51.133940","street":{"id":2065515,"name":"On or near London Road"},"longitude":"1.300450"},"context":"","outcome_status":{"category":"Investigation complete; no suspect identified","date":"2025-12"},"persistent_id":"913878ae4a5a03f114c44dd1e8a6376fd401b2e3d4aee12d68a72c6d87fe29d6","id":132773867,"location_subtype":"","month":"2025-12"},{"category":"violent-crime","location_type":"Force","location":{"latitude":"51.130356","street":{"id":2065677,"name":"On or near Supermarket"},"longitude":"1.306721"},"context":"","outcome_status":{"category":"Investigation complete; no suspect identified","date":"2025-12"},"persistent_id":"82ca134f07919b60f62f0f99322e337c17739a63a1383fcb5eedf68d609cfea0","id":132774244,"location_subtype":"","month":"2025-12"},{"category":"violent-crime","location_type":"Force","location":{"latitude":"51.134797","street":{"id":2065332,"name":"On or near Lukes Close"},"longitude":"1.293362"},"context":"","outcome_status":{"category":"Under investigation","date":"2025-12"},"persistent_id":"b81e5c14abd39e82a38c5ef80365858989a15066ab169eb1bf5f4190d2c7b50b","id":132774647,"location_subtype":"","month":"2025-12"},{"category":"violent-crime","location_type":"Force","location":{"latitude":"51.130376","street":{"id":2065217,"name":"On or near Whinless Road"},"longitude":"1.288087"},"context":"","outcome_status":{"category":"Investigation complete; no suspect identified","date":"2026-01"},"persistent_id":"43873dd42b7402a578a8f816a1a714de01145a68d74ddea8df94c1ea05ad515e","id":132774646,"location_subtype":"","month":"2025-12"},{"category":"violent-crime","location_type":"Force","location":{"latitude":"51.151486","street":{"id":2065387,"name":"On or near Melbourne Avenue"},"longitude":"1.296124"},"context":"","outcome_status":{"category":"Under investigation","date":"2025-12"},"persistent_id":"8e10c9b7ef93b8e517314b242187344eaf6bbbced1b3ec5634d3fc731e5d5354","id":132775094,"location_subtype":"","month":"2025-12"},{"category":"violent-crime","location_type":"Force","location":{"latitude":"51.140183","street":{"id":2065340,"name":"On or near Brookfield Road"},"longitude":"1.293746"},"context":"","outcome_status":{"category":"Unable to prosecute suspect","date":"2025-12"},"persistent_id":"fc68cfd8fac92737e16132465744ef6d6048875aed3f35aae22de1a0cfbdd642","id":132775870,"location_subtype":"","month":"2025-12"},{"category":"violent-crime","location_type":"Force","location":{"latitude":"51.137335","street":{"id":2065565,"name":"On or near Mayfield Avenue"},"longitude":"1.302250"},"context":"","outcome_status":{"category":"Unable to prosecute suspect","date":"2025-12"},"persistent_id":"56bd2231642569a12e124c725371474e8f842de016430479dc94416b70864727","id":132775872,"location_subtype":"","month":"2025-12"},{"category":"violent-crime","location_type":"Force","location":{"latitude":"51.130283","street":{"id":2065596,"name":"On or near Templar Street"},"longitude":"1.303806"},"context":"","outcome_status":{"category":"Unable to prosecute suspect","date":"2025-12"},"persistent_id":"e24bb65bfc04ef8d6b825dabce294dd177f7f2b28d8eb8cc895da26bb6773f81","id":132775873,"location_subtype":"","month":"2025-12"},{"category":"violent-crime","location_type":"Force","location":{"latitude":"51.140022","street":{"id":2065371,"name":"On or near Rutland Road"},"longitude":"1.294993"},"context":"","outcome_status":{"category":"Unable to prosecute suspect","date":"2025-12"},"persistent_id":"8d4dd78a29d61eb94db6309625f84606cd1420a025099b64cae3c129237d466c","id":132776291,"location_subtype":"","month":"2025-12"},{"category":"violent-crime","location_type":"Force","location":{"latitude":"51.130997","street":{"id":2065225,"name":"On or near Coombe Close"},"longitude":"1.288388"},"context":"","outcome_status":{"category":"Under investigation","date":"2025-12"},"persistent_id":"63a094f7141d5f5284bd1204fdfd6f90ccb3ff176a4cd9cd0986ed4da93f8018","id":132778616,"location_subtype":"","month":"2025-12"},{"category":"violent-crime","location_type":"Force","location":{"latitude":"51.132737","street":{"id":2065516,"name":"On or near George Street"},"longitude":"1.300707"},"context":"","outcome_status":{"category":"Investigation complete; no suspect identified","date":"2025-12"},"persistent_id":"f3167e45f951fd2d07207905b96d552ee0ddbd7453b59d0df483d4443e5b53cd","id":132775098,"location_subtype":"","month":"2025-12"},{"category":"violent-crime","location_type":"Force","location":{"latitude":"51.129088","street":{"id":2065551,"name":"On or near West Street"},"longitude":"1.302491"},"context":"","outcome_status":{"category":"Unable to prosecute suspect","date":"2025-12"},"persistent_id":"298c566a8a2456427c64627a196fbd8a84aa3dfee5f667d4f15eaa75d7660fb9","id":132769690,"location_subtype":"","month":"2025-12"},{"category":"violent-crime","location_type":"Force","location":{"latitude":"51.152857","street":{"id":2065260,"name":"On or near Keyes Close"},"longitude":"1.290902"},"context":"","outcome_status":{"category":"Unable to prosecute suspect","date":"2025-12"},"persistent_id":"f97c3199dc88025dd0f9df1ba8fd4ae95cc0fdddf545b1130ff2047ab498b477","id":132771418,"location_subtype":"","month":"2025-12"},{"category":"violent-crime","location_type":"Force","location":{"latitude":"51.130283","street":{"id":2065596,"name":"On or near Templar Street"},"longitude":"1.303806"},"context":"","outcome_status":{"category":"Awaiting court outcome","date":"2025-12"},"persistent_id":"7fee8938ec45cf6753e9f20d4fead1949916c34b73f2ddfb4b91fff696266374","id":132771420,"location_subtype":"","month":"2025-12"},{"category":"violent-crime","location_type":"Force","location":{"latitude":"51.132579","street":{"id":2065605,"name":"On or near Bartholomew Street"},"longitude":"1.303755"},"context":"","outcome_status":{"category":"Investigation complete; no suspect identified","date":"2026-01"},"persistent_id":"60fcb668bac110ba00ec186ad2729e8530b22ef5332e3f2e16813e2a8b00c25c","id":132770999,"location_subtype":"","month":"2025-12"},{"category":"violent-crime","location_type":"Force","location":{"latitude":"51.142832","street":{"id":2065520,"name":"On or near Vancouver Road"},"longitude":"1.301571"},"context":"","outcome_status":{"category":"Under investigation","date":"2025-12"},"persistent_id":"87def707d0a6dff82c5b2e9963116ed599f8d22c74141f0486b90b1356a568d7","id":132770995,"location_subtype":"","month":"2025-12"},{"category":"violent-crime","location_type":"Force","location":{"latitude":"51.141391","street":{"id":2065414,"name":"On or near Colorado Close"},"longitude":"1.297492"},"context":"","outcome_status":{"category":"Unable to prosecute suspect","date":"2025-12"},"persistent_id":"f4d534a638645019fc1b85ffff51262966f5ebfc0230713334c2f8439a9c0d1b","id":132770994,"location_subtype":"","month":"2025-12"},{"category":"violent-crime","location_type":"Force","location":{"latitude":"51.142368","street":{"id":2065485,"name":"On or near Hudson Close"},"longitude":"1.299535"},"context":"","outcome_status":{"category":"Unable to prosecute suspect","date":"2025-12"},"persistent_id":"219752a90a694ddd600c32d5b643abf52e1c52ab48feb4c3706b3aef63cf879b","id":132770121,"location_subtype":"","month":"2025-12"},{"category":"violent-crime","location_type":"Force","location":{"latitude":"51.137335","street":{"id":2065565,"name":"On or near Mayfield Avenue"},"longitude":"1.302250"},"context":"","outcome_status":{"category":"Unable to prosecute suspect","date":"2025-12"},"persistent_id":"224fda18279fcde8268ba561d43af907da063f6c564d4b5199006fef5e9aea9f","id":132770122,"location_subtype":"","month":"2025-12"},{"category":"violent-crime","location_type":"Force","location":{"latitude":"51.150076","street":{"id":2065418,"name":"On or near Fulbert Road"},"longitude":"1.297311"},"context":"","outcome_status":{"category":"Action to be taken by another organisation","date":"2025-12"},"persistent_id":"bd251ee400d138543fcdaa1f393393cdf2f437c68ca57a5ec53e5d5b9d93dd09","id":132770120,"location_subtype":"","month":"2025-12"},{"category":"violent-crime","location_type":"Force","location":{"latitude":"51.143897","street":{"id":2065211,"name":"On or near Friars Way"},"longitude":"1.288991"},"context":"","outcome_status":{"category":"Unable to prosecute suspect","date":"2025-12"},"persistent_id":"a4d3bd747efa47df19b0c0c93dad5a97d1324ca36dadad16a1d437f101517501","id":132770118,"location_subtype":"","month":"2025-12"},{"category":"violent-crime","location_type":"Force","location":{"latitude":"51.150076","street":{"id":2065418,"name":"On or near Fulbert Road"},"longitude":"1.297311"},"context":"","outcome_status":{"category":"Action to be taken by another organisation","date":"2025-12"},"persistent_id":"be9c38a925757509bdc2cb2d9aa35868577a6aa56370c406a8d602ccb54ad1c2","id":132768502,"location_subtype":"","month":"2025-12"},{"category":"violent-crime","location_type":"Force","location":{"latitude":"51.150076","street":{"id":2065418,"name":"On or near Fulbert Road"},"longitude":"1.297311"},"context":"","outcome_status":{"category":"Action to be taken by another organisation","date":"2025-12"},"persistent_id":"5d1969417dd763af082947a0b19f292284baf176a4cea398c838eda6f24bd952","id":132768089,"location_subtype":"","month":"2025-12"},{"category":"violent-crime","location_type":"Force","location":{"latitude":"51.132676","street":{"id":2065337,"name":"On or near Coombe Valley Road"},"longitude":"1.293311"},"context":"","outcome_status":{"category":"Unable to prosecute suspect","date":"2025-12"},"persistent_id":"2c4da4e607b32e672aa3f05f7dad434b18ae13809e89bfe2f0269aee89ea05b0","id":132774242,"location_subtype":"","month":"2025-12"},{"category":"violent-crime","location_type":"Force","location":{"latitude":"51.142832","street":{"id":2065520,"name":"On or near Vancouver Road"},"longitude":"1.301571"},"context":"","outcome_status":{"category":"Under investigation","date":"2025-12"},"persistent_id":"c8600369b169700040ec1e41b3203f32f052668d74e4fe363622fdff6b936937","id":132778619,"location_subtype":"","month":"2025-12"},{"category":"violent-crime","location_type":"Force","location":{"latitude":"51.133007","street":{"id":2065192,"name":"On or near Marjan Close"},"longitude":"1.287602"},"context":"","outcome_status":{"category":"Under investigation","date":"2025-12"},"persistent_id":"40ea4d50b59fc61b47af72e4e82c9ee9a43bcb61c6eadaf015a0680b932a7c8b","id":132778615,"location_subtype":"","month":"2025-12"},{"category":"violent-crime","location_type":"Force","location":{"latitude":"51.133007","street":{"id":2065192,"name":"On or near Marjan Close"},"longitude":"1.287602"},"context":"","outcome_status":{"category":"Unable to prosecute suspect","date":"2025-12"},"persistent_id":"0a40c80777b69e28f58e17bc8902f9ed9a8e8034168e78124ec9d4deb9987c22","id":132778221,"location_subtype":"","month":"2025-12"},{"category":"violent-crime","location_type":"Force","location":{"latitude":"51.133335","street":{"id":2065456,"name":"On or near Edgar Road"},"longitude":"1.298005"},"context":"","outcome_status":{"category":"Unable to prosecute suspect","date":"2025-12"},"persistent_id":"3a414d0c6614f31eaff49de885e3a79576074cbcfae0701dc2fd0af092d2f2dd","id":132778228,"location_subtype":"","month":"2025-12"},{"category":"violent-crime","location_type":"Force","location":{"latitude":"51.132676","street":{"id":2065337,"name":"On or near Coombe Valley Road"},"longitude":"1.293311"},"context":"","outcome_status":{"category":"Unable to prosecute suspect","date":"2026-01"},"persistent_id":"ad2164ea2f60518358f95389e0ca7f04d6482224bd018e11e8e2ef5763ad32ac","id":132777791,"location_subtype":"","month":"2025-12"},{"category":"violent-crime","location_type":"Force","location":{"latitude":"51.134009","street":{"id":2065585,"name":"On or near Balfour Road"},"longitude":"1.303743"},"context":"","outcome_status":{"category":"Under investigation","date":"2025-12"},"persistent_id":"a22410fc049be7f48b6a8631b6cc58de1894002757bd0cb5db579c8cab5b26ac","id":132776847,"location_subtype":"","month":"2025-12"},{"category":"violent-crime","location_type":"Force","location":{"latitude":"51.134009","street":{"id":2065585,"name":"On or near Balfour Road"},"longitude":"1.303743"},"context":"","outcome_status":{"category":"Under investigation","date":"2025-12"},"persistent_id":"42d714be892eccd919ab0b51cde8fcaba711344cf29b4bdcd1843a976fbe8d7b","id":132776846,"location_subtype":"","month":"2025-12"},{"category":"violent-crime","location_type":"Force","location":{"latitude":"51.140022","street":{"id":2065371,"name":"On or near Rutland Road"},"longitude":"1.294993"},"context":"","outcome_status":{"category":"Action to be taken by another organisation","date":"2026-01"},"persistent_id":"d9e5f614da204b688e4e09d90d04adf66f52ce22e2678d3922ccfe883ab3e61f","id":132776292,"location_subtype":"","month":"2025-12"},{"category":"violent-crime","location_type":"Force","location":{"latitude":"51.132676","street":{"id":2065337,"name":"On or near Coombe Valley Road"},"longitude":"1.293311"},"context":"","outcome_status":{"category":"Unable to prosecute suspect","date":"2025-12"},"persistent_id":"7804e50f8b1e6925534c6e1d6c0dc94e42b1c4000ad273cd7cc246ee3cc27e2e","id":132773431,"location_subtype":"","month":"2025-12"},{"category":"violent-crime","location_type":"Force","location":{"latitude":"51.148569","street":{"id":2065441,"name":"On or near Peverell Road"},"longitude":"1.297819"},"context":"","outcome_status":{"category":"Unable to prosecute suspect","date":"2025-12"},"persistent_id":"77df1a31a1d7df656f975a041504f9a5dc2581563bbaa011346b8347dc6eb9be","id":132773432,"location_subtype":"","month":"2025-12"},{"category":"violent-crime","location_type":"Force","location":{"latitude":"51.147216","street":{"id":2065495,"name":"On or near Wycherley Crescent"},"longitude":"1.299867"},"context":"","outcome_status":{"category":"Investigation complete; no suspect identified","date":"2025-12"},"persistent_id":"d474049d4e055408a5c098b88df5e14dac5fc567a23dd262d901e121b659a00b","id":132773433,"location_subtype":"","month":"2025-12"},{"category":"violent-crime","location_type":"Force","location":{"latitude":"51.134797","street":{"id":2065332,"name":"On or near Lukes Close"},"longitude":"1.293362"},"context":"","outcome_status":{"category":"Under investigation","date":"2025-12"},"persistent_id":"61edf21cb125610dee86ac8bc2e5ce11c49fe1167e711e2c83dc2684228a7037","id":132775478,"location_subtype":"","month":"2025-12"},{"category":"violent-crime","location_type":"Force","location":{"latitude":"51.133827","street":{"id":2065339,"name":"On or near Primrose Place"},"longitude":"1.293293"},"context":"","outcome_status":{"category":"Unable to prosecute suspect","date":"2026-01"},"persistent_id":"2ae1e922dc55aebba12ea11a6f03c71142354ca941befbc3ab54b7cb8b49a1a9","id":132775477,"location_subtype":"","month":"2025-12"},{"category":"violent-crime","location_type":"Force","location":{"latitude":"51.134147","street":{"id":2065666,"name":"On or near Avenue Road"},"longitude":"1.306198"},"context":"","outcome_status":{"category":"Unable to prosecute suspect","date":"2025-12"},"persistent_id":"07061d358e4708e3290473222c7e26750e2ab9f982e51af8d3d2b99301cadd53","id":132774650,"location_subtype":"","month":"2025-12"},{"category":"violent-crime","location_type":"Force","location":{"latitude":"51.134147","street":{"id":2065666,"name":"On or near Avenue Road"},"longitude":"1.306198"},"context":"","outcome_status":{"category":"Unable to prosecute suspect","date":"2025-12"},"persistent_id":"04eb5d63fea52307448a19cdce247e2a6d2259bc93759a8fdd840c306d8079bb","id":132774651,"location_subtype":"","month":"2025-12"},{"category":"violent-crime","location_type":"Force","location":{"latitude":"51.148018","street":{"id":2065119,"name":"On or near Whitfield Hill"},"longitude":"1.279674"},"context":"","outcome_status":{"category":"Unable to prosecute suspect","date":"2025-12"},"persistent_id":"cafe6aed60d7d64f2ad7d86be85ad2f8e20a30e41d5a48e465d29a245abb68ed","id":132774643,"location_subtype":"","month":"2025-12"},{"category":"violent-crime","location_type":"Force","location":{"latitude":"51.133007","street":{"id":2065192,"name":"On or near Marjan Close"},"longitude":"1.287602"},"context":"","outcome_status":{"category":"Unable to prosecute suspect","date":"2025-12"},"persistent_id":"b1cc97a90f881ae92080655ee572ec3a4146ea01ef8922202086a996a301a4dc","id":132774645,"location_subtype":"","month":"2025-12"},{"category":"violent-crime","location_type":"Force","location":{"latitude":"51.132676","street":{"id":2065337,"name":"On or near Coombe Valley Road"},"longitude":"1.293311"},"context":"","outcome_status":{"category":"Unable to prosecute suspect","date":"2025-12"},"persistent_id":"8affdcaaf53c2969b22f5dc57a7736d00fbe24412be90b48163a95220008de0f","id":132775093,"location_subtype":"","month":"2025-12"},{"category":"violent-crime","location_type":"Force","location":{"latitude":"51.142832","street":{"id":2065520,"name":"On or near Vancouver Road"},"longitude":"1.301571"},"context":"","outcome_status":{"category":"Under investigation","date":"2025-12"},"persistent_id":"c3392e75dbd65e0bd957f67dd70c470d9dfd748ed93c6a261dc2eccaee85fb47","id":132775097,"location_subtype":"","month":"2025-12"},{"category":"violent-crime","location_type":"Force","location":{"latitude":"51.135437","street":{"id":2065681,"name":"On or near Old Charlton Road"},"longitude":"1.307963"},"context":"","outcome_status":{"category":"Under investigation","date":"2025-12"},"persistent_id":"623368133ebc3cff1fd4ec52242c01f116bca19af047ffbd748a6ff8e4cd1efe","id":132774245,"location_subtype":"","month":"2025-12"},{"category":"violent-crime","location_type":"Force","location":{"latitude":"51.132676","street":{"id":2065337,"name":"On or near Coombe Valley Road"},"longitude":"1.293311"},"context":"","outcome_status":{"category":"Unable to prosecute suspect","date":"2025-12"},"persistent_id":"efc721d55d08b71f12d54bc34804d8e740ab3b00588c450b943aae5929500455","id":132774241,"location_subtype":"","month":"2025-12"},{"category":"violent-crime","location_type":"Force","location":{"latitude":"51.133402","street":{"id":2065500,"name":"On or near Erith Street"},"longitude":"1.299768"},"context":"","outcome_status":{"category":"Awaiting court outcome","date":"2025-12"},"persistent_id":"e43b324c578f80c806e81a70c1b4a97ce1c4d7bfcaf3e6cdb5865552ff357afc","id":132774243,"location_subtype":"","month":"2025-12"},{"category":"violent-crime","location_type":"Force","location":{"latitude":"51.132676","street":{"id":2065337,"name":"On or near Coombe Valley Road"},"longitude":"1.293311"},"context":"","outcome_status":{"category":"Unable to prosecute suspect","date":"2025-12"},"persistent_id":"99d7f756d727b334b182b7842422d1ae6a1fe913f9cf4d53d863b09080abf697","id":132774240,"location_subtype":"","month":"2025-12"},{"category":"violent-crime","location_type":"Force","location":{"latitude":"51.132676","street":{"id":2065337,"name":"On or near Coombe Valley Road"},"longitude":"1.293311"},"context":"","outcome_status":{"category":"Unable to prosecute suspect","date":"2025-12"},"persistent_id":"565f08d59d2c44772b5658a2cccbdbf3ec84e9a6a700f0c89f7ed4aa67f9998d","id":132773866,"location_subtype":"","month":"2025-12"},{"category":"violent-crime","location_type":"Force","location":{"latitude":"51.130376","street":{"id":2065217,"name":"On or near Whinless Road"},"longitude":"1.288087"},"context":"","outcome_status":{"category":"Unable to prosecute suspect","date":"2025-12"},"persistent_id":"3157ad2c76ccbedaa44e7b291509bbd29e6ab03f3980af7c63185d4bf7f235bb","id":132773428,"location_subtype":"","month":"2025-12"},{"category":"violent-crime","location_type":"Force","location":{"latitude":"51.132674","street":{"id":2065774,"name":"On or near Castle Avenue"},"longitude":"1.310882"},"context":"","outcome_status":{"category":"Unable to prosecute suspect","date":"2026-01"},"persistent_id":"47dfdb2d6bf91cfbb801f4a5a55dcc1868408ce057d0b454d50ad6d13ef7015d","id":132773438,"location_subtype":"","month":"2025-12"},{"category":"violent-crime","location_type":"Force","location":{"latitude":"51.130376","street":{"id":2065217,"name":"On or near Whinless Road"},"longitude":"1.288087"},"context":"","outcome_status":{"category":"Investigation complete; no suspect identified","date":"2025-12"},"persistent_id":"92bfb3c9da1e957cd41a4f2a7945d5520d118ad5f577ebc9f257a97bcd3a1d09","id":132766870,"location_subtype":"","month":"2025-12"},{"category":"violent-crime","location_type":"Force","location":{"latitude":"51.141391","street":{"id":2065414,"name":"On or near Colorado Close"},"longitude":"1.297492"},"context":"","outcome_status":{"category":"Unable to prosecute suspect","date":"2025-12"},"persistent_id":"8ae60e6c50404c347f125c58f177dab496893dd864675e1b89846ab6d06ea10a","id":132766873,"location_subtype":"","month":"2025-12"},{"category":"violent-crime","location_type":"Force","location":{"latitude":"51.153865","street":{"id":2065460,"name":"On or near Petrol Station"},"longitude":"1.298540"},"context":"","outcome_status":{"category":"Under investigation","date":"2025-12"},"persistent_id":"d8bc376b78c6bada245cddf24cfb2475c0071f48a605a4f7c42031e9ecf36116","id":132767238,"location_subtype":"","month":"2025-12"},{"category":"violent-crime","location_type":"Force","location":{"latitude":"51.132862","street":{"id":2065611,"name":"On or near Beaconsfield Road"},"longitude":"1.304219"},"context":"","outcome_status":{"category":"Under investigation","date":"2025-12"},"persistent_id":"a7e046f27d1c75b493ee266ccb3f3d31a6c69f5ca8346f4337edf71b6d97eb72","id":132772954,"location_subtype":"","month":"2025-12"},{"category":"violent-crime","location_type":"Force","location":{"latitude":"51.132056","street":{"id":2065303,"name":"On or near Hospital"},"longitude":"1.292385"},"context":"","outcome_status":{"category":"Under investigation","date":"2025-12"},"persistent_id":"f49ccf2ea8412589c7196f55f765bbaa8495c6a8ca75d57f067f5e9d0082a8c8","id":132772952,"location_subtype":"","month":"2025-12"},{"category":"violent-crime","location_type":"Force","location":{"latitude":"51.130240","street":{"id":2065647,"name":"On or near Peter Street"},"longitude":"1.305675"},"context":"","outcome_status":{"category":"Unable to prosecute suspect","date":"2025-12"},"persistent_id":"cb4927c0510e151723192722b11ef821b65986727bdb5b934e49fba104bf2a6c","id":132772614,"location_subtype":"","month":"2025-12"},{"category":"violent-crime","location_type":"Force","location":{"latitude":"51.129303","street":{"id":2065336,"name":"On or near Hamilton Road"},"longitude":"1.292971"},"context":"","outcome_status":{"category":"Unable to prosecute suspect","date":"2026-01"},"persistent_id":"367b5e0ed2c2c8fa12ee93e5ba747ab77dfd7f857c920b0d4bf7ef874d05fb95","id":132772608,"location_subtype":"","month":"2025-12"},{"category":"violent-crime","location_type":"Force","location":{"latitude":"51.131093","street":{"id":2065622,"name":"On or near Matthew's Place"},"longitude":"1.305093"},"context":"","outcome_status":{"category":"Unable to prosecute suspect","date":"2025-12"},"persistent_id":"34a80477172d3f52b082ef451cde32ae22d4f3e9a00331e2613ebd5b299b4215","id":132769691,"location_subtype":"","month":"2025-12"},{"category":"violent-crime","location_type":"Force","location":{"latitude":"51.149322","street":{"id":2065440,"name":"On or near Rokesley Road"},"longitude":"1.297586"},"context":"","outcome_status":{"category":"Awaiting court outcome","date":"2026-01"},"persistent_id":"58ca5fae634fcf981ca13cb76e940d667c76e85761173cf129238a6cfbb2740c","id":132769311,"location_subtype":"","month":"2025-12"},{"category":"violent-crime","location_type":"Force","location":{"latitude":"51.130356","street":{"id":2065677,"name":"On or near Supermarket"},"longitude":"1.306721"},"context":"","outcome_status":{"category":"Investigation complete; no suspect identified","date":"2025-12"},"persistent_id":"537dd25d6db1b0d9ce6b7d760cfbdf22d6a4866d1dae4e656304150ec8446619","id":132769314,"location_subtype":"","month":"2025-12"},{"category":"violent-crime","location_type":"Force","location":{"latitude":"51.137314","street":{"id":2065411,"name":"On or near Brookfield Place"},"longitude":"1.296601"},"context":"","outcome_status":{"category":"Unable to prosecute suspect","date":"2026-01"},"persistent_id":"e402a71cba5041541da38cc336613cd2251afbb2ecfd8eb50f798720fa774007","id":132769312,"location_subtype":"","month":"2025-12"},{"category":"violent-crime","location_type":"Force","location":{"latitude":"51.137314","street":{"id":2065411,"name":"On or near Brookfield Place"},"longitude":"1.296601"},"context":"","outcome_status":{"category":"Unable to prosecute suspect","date":"2026-01"},"persistent_id":"d615ad2c7ae2498c3a01bb496ed255e0afa01216daa22bdf8bc902b0743b59a9","id":132769313,"location_subtype":"","month":"2025-12"},{"category":"violent-crime","location_type":"Force","location":{"latitude":"51.148569","street":{"id":2065441,"name":"On or near Peverell Road"},"longitude":"1.297819"},"context":"","outcome_status":{"category":"Unable to prosecute suspect","date":"2025-12"},"persistent_id":"bb5d5c4e6de592b915b8f559525ec0958f14e476a8f7e26aa979b580065ca142","id":132768948,"location_subtype":"","month":"2025-12"},{"category":"violent-crime","location_type":"Force","location":{"latitude":"51.135137","street":{"id":2065535,"name":"On or near Cherry Tree Avenue"},"longitude":"1.301093"},"context":"","outcome_status":{"category":"Investigation complete; no suspect identified","date":"2025-12"},"persistent_id":"574d231bcfee02cc4956085aa215120c775e0b3904fb1353941fbeb83db217b4","id":132768950,"location_subtype":"","month":"2025-12"},{"category":"violent-crime","location_type":"Force","location":{"latitude":"51.132412","street":{"id":2065665,"name":"On or near Charlton Green"},"longitude":"1.306159"},"context":"","outcome_status":{"category":"Awaiting court outcome","date":"2025-12"},"persistent_id":"6206ef6ffc7ab5fc3f1c0e9c1703f4554c672e66ef9772fd4aa4c7d59b76cd62","id":132768954,"location_subtype":"","month":"2025-12"},{"category":"violent-crime","location_type":"Force","location":{"latitude":"51.132412","street":{"id":2065665,"name":"On or near Charlton Green"},"longitude":"1.306159"},"context":"","outcome_status":{"category":"Awaiting court outcome","date":"2025-12"},"persistent_id":"5e0159846f3bac5a8f81c5f5e104ec75dd2de4f41bbb4cfee883dd892bfbf724","id":132768955,"location_subtype":"","month":"2025-12"},{"category":"violent-crime","location_type":"Force","location":{"latitude":"51.136681","street":{"id":2065545,"name":"On or near Minerva Avenue"},"longitude":"1.301832"},"context":"","outcome_status":{"category":"Unable to prosecute suspect","date":"2026-01"},"persistent_id":"52ad0e92b759d6de4dc2ed443ade5ee8b333e94a03cd9ec5613515854629f31d","id":132768951,"location_subtype":"","month":"2025-12"},{"category":"violent-crime","location_type":"Force","location":{"latitude":"51.148462","street":{"id":2065100,"name":"On or near Laburnum Close"},"longitude":"1.278604"},"context":"","outcome_status":{"category":"Unable to prosecute suspect","date":"2026-01"},"persistent_id":"9e2e2468ff7762a055b68ee2448f450bb6027bc38122a6c668cd30c1c19433cf","id":132768498,"location_subtype":"","month":"2025-12"},{"category":"violent-crime","location_type":"Force","location":{"latitude":"51.150076","street":{"id":2065418,"name":"On or near Fulbert Road"},"longitude":"1.297311"},"context":"","outcome_status":{"category":"Action to be taken by another organisation","date":"2025-12"},"persistent_id":"ffffe8cdbe3d73c871830cc33136d1feb921e121ff0ab82e8c81838a26fd54ca","id":132768092,"location_subtype":"","month":"2025-12"},{"category":"violent-crime","location_type":"Force","location":{"latitude":"51.144082","street":{"id":2065281,"name":"On or near Monks Way"},"longitude":"1.292636"},"context":"","outcome_status":{"category":"Under investigation","date":"2025-12"},"persistent_id":"4ec091bfd1733643a92bb0aa18a79df21895ae74b45eeeb9cb8cb3629a2b28b4","id":132768084,"location_subtype":"","month":"2025-12"},{"category":"violent-crime","location_type":"Force","location":{"latitude":"51.140022","street":{"id":2065371,"name":"On or near Rutland Road"},"longitude":"1.294993"},"context":"","outcome_status":{"category":"Unable to prosecute suspect","date":"2025-12"},"persistent_id":"e13c0421f1bcd3a7abb681e3d1fd664a590bf178b757d40433acde51e4704fd9","id":132768086,"location_subtype":"","month":"2025-12"},{"category":"violent-crime","location_type":"Force","location":{"latitude":"51.134515","street":{"id":2065420,"name":"On or near Magdala Road"},"longitude":"1.297603"},"context":"","outcome_status":{"category":"Unable to prosecute suspect","date":"2025-12"},"persistent_id":"fef7b9e820af2e1b718a2b0a527dddb2c3a6131fb93c3c77579b5ae52dc8c29e","id":132767672,"location_subtype":"","month":"2025-12"},{"category":"violent-crime","location_type":"Force","location":{"latitude":"51.140434","street":{"id":2065377,"name":"On or near Glenfield Road"},"longitude":"1.295051"},"context":"","outcome_status":{"category":"Unable to prosecute suspect","date":"2025-12"},"persistent_id":"091ae28ce78db67792cefb1eaf114df80438d43d54857c1bcf4a853d6de9851d","id":132767237,"location_subtype":"","month":"2025-12"},{"category":"violent-crime","location_type":"Force","location":{"latitude":"51.130356","street":{"id":2065677,"name":"On or near Supermarket"},"longitude":"1.306721"},"context":"","outcome_status":{"category":"Investigation complete; no suspect identified","date":"2025-12"},"persistent_id":"a203addacdaa7869bc67df73cf05a787dcbecfe6ff05d6fbabedcb5ad1424362","id":132776296,"location_subtype":"","month":"2025-12"},{"category":"violent-crime","location_type":"Force","location":{"latitude":"51.130157","street":{"id":2065742,"name":"On or near Hewitt Road"},"longitude":"1.308900"},"context":"","outcome_status":{"category":"Unable to prosecute suspect","date":"2025-12"},"persistent_id":"35b76e7940c21be32061cac001e67432fa7aee4490601bff89c3b8d2c23fa913","id":132770564,"location_subtype":"","month":"2025-12"},{"category":"violent-crime","location_type":"Force","location":{"latitude":"51.132676","street":{"id":2065337,"name":"On or near Coombe Valley Road"},"longitude":"1.293311"},"context":"","outcome_status":{"category":"Action to be taken by another organisation","date":"2025-12"},"persistent_id":"23197bd39962f3aab9c847f68f8c26d923eaa7534c2163ad9130cd40e95d3d24","id":132776577,"location_subtype":"","month":"2025-12"},{"category":"violent-crime","location_type":"Force","location":{"latitude":"51.132676","street":{"id":2065337,"name":"On or near Coombe Valley Road"},"longitude":"1.293311"},"context":"","outcome_status":{"category":"Action to be taken by another organisation","date":"2025-12"},"persistent_id":"157692d5fa1cc3d3dd35f9a9b93a0b7d050cdfaaec92f722308a4936f4d0c932","id":132776843,"location_subtype":"","month":"2025-12"},{"category":"violent-crime","location_type":"Force","location":{"latitude":"51.130567","street":{"id":2065707,"name":"On or near Crafford Street"},"longitude":"1.307772"},"context":"","outcome_status":{"category":"Unable to prosecute suspect","date":"2025-12"},"persistent_id":"a823b18b0a1b7815e4d4d6f5c8cd2ea4fb3ec82456700fdc5b208c5c9eb17242","id":132771816,"location_subtype":"","month":"2025-12"},{"category":"violent-crime","location_type":"Force","location":{"latitude":"51.146004","street":{"id":2065645,"name":"On or near Natal Road"},"longitude":"1.305172"},"context":"","outcome_status":{"category":"Awaiting court outcome","date":"2025-12"},"persistent_id":"5b499a799eaf0f91c72da2eb5f81f6b82cdfdfa1790a437cb790a699f19f0408","id":132774649,"location_subtype":"","month":"2025-12"},{"category":"violent-crime","location_type":"Force","location":{"latitude":"51.138087","street":{"id":2065427,"name":"On or near Park Road"},"longitude":"1.297586"},"context":"","outcome_status":{"category":"Unable to prosecute suspect","date":"2025-12"},"persistent_id":"cc57ceb91568a29392baced230730d1e45798bbd291098ea8302322c0ff2f1a9","id":132768088,"location_subtype":"","month":"2025-12"},{"category":"violent-crime","location_type":"Force","location":{"latitude":"51.130283","street":{"id":2065596,"name":"On or near Templar Street"},"longitude":"1.303806"},"context":"","outcome_status":{"category":"Unable to prosecute suspect","date":"2025-12"},"persistent_id":"fb9d14fc149cb1fedcc4702ecd944b8a1317a872f00e200311245ab3a88d10f8","id":132767239,"location_subtype":"","month":"2025-12"},{"category":"violent-crime","location_type":"Force","location":{"latitude":"51.132676","street":{"id":2065337,"name":"On or near Coombe Valley Road"},"longitude":"1.293311"},"context":"","outcome_status":{"category":"Unable to prosecute suspect","date":"2025-12"},"persistent_id":"c2899e1a553c46ac5748613af6803c4f518e5889929d8d045da89c7ebbdc9636","id":132767235,"location_subtype":"","month":"2025-12"},{"category":"violent-crime","location_type":"Force","location":{"latitude":"51.150076","street":{"id":2065418,"name":"On or near Fulbert Road"},"longitude":"1.297311"},"context":"","outcome_status":{"category":"Action to be taken by another organisation","date":"2025-12"},"persistent_id":"2ab5f31a280f1ad93c8e0aa4d345cddc8b63155abafb200192356b255c88375b","id":132767673,"location_subtype":"","month":"2025-12"},{"category":"violent-crime","location_type":"Force","location":{"latitude":"51.135885","street":{"id":2065627,"name":"On or near Astley Avenue"},"longitude":"1.305164"},"context":"","outcome_status":{"category":"Unable to prosecute suspect","date":"2025-12"},"persistent_id":"91881c1e250f5724879201872ed43c3b19a59ff0a15f3ce1774b5a24e465c222","id":132768093,"location_subtype":"","month":"2025-12"},{"category":"violent-crime","location_type":"Force","location":{"latitude":"51.135652","street":{"id":2065452,"name":"On or near A256"},"longitude":"1.297798"},"context":"","outcome_status":{"category":"Unable to prosecute suspect","date":"2026-01"},"persistent_id":"fa201705a3f31ddad681dcf2d0c2c7cf5be7949f472e550ec821ac0c7b9cf4a7","id":132776845,"location_subtype":"","month":"2025-12"},{"category":"violent-crime","location_type":"Force","location":{"latitude":"51.141821","street":{"id":2065207,"name":"On or near Old Park Avenue"},"longitude":"1.288286"},"context":"","outcome_status":{"category":"Unable to prosecute suspect","date":"2025-12"},"persistent_id":"cadf1f388fece109b8038d5df252af96ded7992bf2eb786d07a7d17080328c16","id":132768501,"location_subtype":"","month":"2025-12"},{"category":"violent-crime","location_type":"Force","location":{"latitude":"51.140434","street":{"id":2065377,"name":"On or near Glenfield Road"},"longitude":"1.295051"},"context":"","outcome_status":{"category":"Unable to prosecute suspect","date":"2025-12"},"persistent_id":"8c90f2b0b1d719066c87486647ad6c2e3242529e7213ed97ddd23522f7f6c896","id":132769306,"location_subtype":"","month":"2025-12"},{"category":"violent-crime","location_type":"Force","location":{"latitude":"51.136573","street":{"id":2065348,"name":"On or near Bunker's Hill"},"longitude":"1.294189"},"context":"","outcome_status":{"category":"Action to be taken by another organisation","date":"2025-12"},"persistent_id":"50aedeaf2b1c7fe90e04eed642db378941e086af77751abe5899bc686c086524","id":132769688,"location_subtype":"","month":"2025-12"},{"category":"violent-crime","location_type":"Force","location":{"latitude":"51.130240","street":{"id":2065647,"name":"On or near Peter Street"},"longitude":"1.305675"},"context":"","outcome_status":{"category":"Unable to prosecute suspect","date":"2025-12"},"persistent_id":"ee35e9b3e0ec5a1effeb4d4f589e05c55bf017c0588c475fd0b13348d1d7b88c","id":132772955,"location_subtype":"","month":"2025-12"},{"category":"violent-crime","location_type":"Force","location":{"latitude":"51.145036","street":{"id":2065431,"name":"On or near The Linces"},"longitude":"1.297109"},"context":"","outcome_status":{"category":"Investigation complete; no suspect identified","date":"2026-01"},"persistent_id":"f44967b3ac356c41d9786b8cf3d9e9b7066925d3d6ba55b231d3fbc88b08be70","id":132768087,"location_subtype":"","month":"2025-12"},{"category":"violent-crime","location_type":"Force","location":{"latitude":"51.132674","street":{"id":2065774,"name":"On or near Castle Avenue"},"longitude":"1.310882"},"context":"","outcome_status":{"category":"Unable to prosecute suspect","date":"2026-01"},"persistent_id":"22b160d15a5d8f0eddb6fe050080efa1490b243ac29d44e4bd698c5ae5cacc76","id":132772615,"location_subtype":"","month":"2025-12"},{"category":"violent-crime","location_type":"Force","location":{"latitude":"51.133968","street":{"id":2065469,"name":"On or near Parking Area"},"longitude":"1.298207"},"context":"","outcome_status":{"category":"Investigation complete; no suspect identified","date":"2026-01"},"persistent_id":"eaf79d0c2acbafff3c926d962625fffbf21fac0de224110a27e5acfe233b7464","id":132772953,"location_subtype":"","month":"2025-12"},{"category":"other-crime","location_type":"Force","location":{"latitude":"51.132997","street":{"id":2065586,"name":"On or near Leighton Road"},"longitude":"1.303270"},"context":"","outcome_status":{"category":"Awaiting court outcome","date":"2025-12"},"persistent_id":"6d1cfb8ce7936edb40f4ef0cbf4b08b76143dab958637f25958dc907b5d7e5db","id":132772328,"location_subtype":"","month":"2025-12"}]