[{"category":"anti-social-behaviour","location_type":"Force","location":{"latitude":"52.407451","street":{"id":1648671,"name":"On or near Kilby Mews"},"longitude":"-1.495188"},"context":"","outcome_status":null,"persistent_id":"","id":133057743,"location_subtype":"","month":"2025-12"},{"category":"anti-social-behaviour","location_type":"Force","location":{"latitude":"52.414434","street":{"id":1648799,"name":"On or near Ranby Road"},"longitude":"-1.490462"},"context":"","outcome_status":null,"persistent_id":"","id":133057834,"location_subtype":"","month":"2025-12"},{"category":"anti-social-behaviour","location_type":"Force","location":{"latitude":"52.410124","street":{"id":1648283,"name":"On or near Burges"},"longitude":"-1.510799"},"context":"","outcome_status":null,"persistent_id":"","id":133057854,"location_subtype":"","month":"2025-12"},{"category":"anti-social-behaviour","location_type":"Force","location":{"latitude":"52.409152","street":{"id":1648264,"name":"On or near Cross Cheaping"},"longitude":"-1.510472"},"context":"","outcome_status":null,"persistent_id":"","id":133057928,"location_subtype":"","month":"2025-12"},{"category":"anti-social-behaviour","location_type":"Force","location":{"latitude":"52.408539","street":{"id":1648220,"name":"On or near Shopping Area"},"longitude":"-1.512448"},"context":"","outcome_status":null,"persistent_id":"","id":133057535,"location_subtype":"","month":"2025-12"},{"category":"anti-social-behaviour","location_type":"Force","location":{"latitude":"52.410300","street":{"id":1648133,"name":"On or near Parking Area"},"longitude":"-1.516604"},"context":"","outcome_status":null,"persistent_id":"","id":133057553,"location_subtype":"","month":"2025-12"},{"category":"anti-social-behaviour","location_type":"Force","location":{"latitude":"52.409499","street":{"id":1648340,"name":"On or near Hill Top"},"longitude":"-1.507572"},"context":"","outcome_status":null,"persistent_id":"","id":133058078,"location_subtype":"","month":"2025-12"},{"category":"anti-social-behaviour","location_type":"Force","location":{"latitude":"52.397752","street":{"id":1648103,"name":"On or near Asthill Grove"},"longitude":"-1.514860"},"context":"","outcome_status":null,"persistent_id":"","id":133058064,"location_subtype":"","month":"2025-12"},{"category":"anti-social-behaviour","location_type":"Force","location":{"latitude":"52.405845","street":{"id":1648788,"name":"On or near St Margaret Road"},"longitude":"-1.491811"},"context":"","outcome_status":null,"persistent_id":"","id":133058043,"location_subtype":"","month":"2025-12"},{"category":"anti-social-behaviour","location_type":"Force","location":{"latitude":"52.413463","street":{"id":1648208,"name":"On or near St Columba's Close"},"longitude":"-1.513909"},"context":"","outcome_status":null,"persistent_id":"","id":133057479,"location_subtype":"","month":"2025-12"},{"category":"anti-social-behaviour","location_type":"Force","location":{"latitude":"52.416904","street":{"id":1648789,"name":"On or near Trentham Road"},"longitude":"-1.491889"},"context":"","outcome_status":null,"persistent_id":"","id":133057579,"location_subtype":"","month":"2025-12"},{"category":"anti-social-behaviour","location_type":"Force","location":{"latitude":"52.415766","street":{"id":1648315,"name":"On or near Harnall Lane West"},"longitude":"-1.507782"},"context":"","outcome_status":null,"persistent_id":"","id":133057601,"location_subtype":"","month":"2025-12"},{"category":"anti-social-behaviour","location_type":"Force","location":{"latitude":"52.408458","street":{"id":1647853,"name":"On or near Spon End"},"longitude":"-1.527958"},"context":"","outcome_status":null,"persistent_id":"","id":133057650,"location_subtype":"","month":"2025-12"},{"category":"anti-social-behaviour","location_type":"Force","location":{"latitude":"52.413100","street":{"id":1648753,"name":"On or near Sports/recreation Area"},"longitude":"-1.493250"},"context":"","outcome_status":null,"persistent_id":"","id":133057474,"location_subtype":"","month":"2025-12"},{"category":"anti-social-behaviour","location_type":"Force","location":{"latitude":"52.409664","street":{"id":1648391,"name":"On or near Fairfax Street"},"longitude":"-1.506071"},"context":"","outcome_status":null,"persistent_id":"","id":133057674,"location_subtype":"","month":"2025-12"},{"category":"anti-social-behaviour","location_type":"Force","location":{"latitude":"52.408176","street":{"id":1648969,"name":"On or near Marlborough Road"},"longitude":"-1.484051"},"context":"","outcome_status":null,"persistent_id":"","id":133057872,"location_subtype":"","month":"2025-12"},{"category":"anti-social-behaviour","location_type":"Force","location":{"latitude":"52.409499","street":{"id":1648340,"name":"On or near Hill Top"},"longitude":"-1.507572"},"context":"","outcome_status":null,"persistent_id":"","id":133058052,"location_subtype":"","month":"2025-12"},{"category":"anti-social-behaviour","location_type":"Force","location":{"latitude":"52.410300","street":{"id":1648133,"name":"On or near Parking Area"},"longitude":"-1.516604"},"context":"","outcome_status":null,"persistent_id":"","id":133057648,"location_subtype":"","month":"2025-12"},{"category":"anti-social-behaviour","location_type":"Force","location":{"latitude":"52.416809","street":{"id":1647901,"name":"On or near Thamley Road"},"longitude":"-1.525414"},"context":"","outcome_status":null,"persistent_id":"","id":133057716,"location_subtype":"","month":"2025-12"},{"category":"anti-social-behaviour","location_type":"Force","location":{"latitude":"52.416144","street":{"id":1648863,"name":"On or near Hammond Road"},"longitude":"-1.488678"},"context":"","outcome_status":null,"persistent_id":"","id":133057832,"location_subtype":"","month":"2025-12"},{"category":"anti-social-behaviour","location_type":"Force","location":{"latitude":"52.403902","street":{"id":1648006,"name":"On or near Upper York Street"},"longitude":"-1.521584"},"context":"","outcome_status":null,"persistent_id":"","id":133057745,"location_subtype":"","month":"2025-12"},{"category":"anti-social-behaviour","location_type":"Force","location":{"latitude":"52.413100","street":{"id":1648753,"name":"On or near Sports/recreation Area"},"longitude":"-1.493250"},"context":"","outcome_status":null,"persistent_id":"","id":133057794,"location_subtype":"","month":"2025-12"},{"category":"anti-social-behaviour","location_type":"Force","location":{"latitude":"52.411598","street":{"id":1648278,"name":"On or near Parking Area"},"longitude":"-1.510651"},"context":"","outcome_status":null,"persistent_id":"","id":133057476,"location_subtype":"","month":"2025-12"},{"category":"anti-social-behaviour","location_type":"Force","location":{"latitude":"52.403902","street":{"id":1648006,"name":"On or near Upper York Street"},"longitude":"-1.521584"},"context":"","outcome_status":null,"persistent_id":"","id":133057503,"location_subtype":"","month":"2025-12"},{"category":"anti-social-behaviour","location_type":"Force","location":{"latitude":"52.410300","street":{"id":1648133,"name":"On or near Parking Area"},"longitude":"-1.516604"},"context":"","outcome_status":null,"persistent_id":"","id":133057964,"location_subtype":"","month":"2025-12"},{"category":"anti-social-behaviour","location_type":"Force","location":{"latitude":"52.404866","street":{"id":1648359,"name":"On or near St John's Street"},"longitude":"-1.506889"},"context":"","outcome_status":null,"persistent_id":"","id":133058086,"location_subtype":"","month":"2025-12"},{"category":"anti-social-behaviour","location_type":"Force","location":{"latitude":"52.410677","street":{"id":1648143,"name":"On or near Upper Well Street"},"longitude":"-1.514204"},"context":"","outcome_status":null,"persistent_id":"","id":133057938,"location_subtype":"","month":"2025-12"},{"category":"anti-social-behaviour","location_type":"Force","location":{"latitude":"52.407620","street":{"id":1648076,"name":"On or near Nightclub"},"longitude":"-1.518500"},"context":"","outcome_status":null,"persistent_id":"","id":133058026,"location_subtype":"","month":"2025-12"},{"category":"anti-social-behaviour","location_type":"Force","location":{"latitude":"52.410124","street":{"id":1648283,"name":"On or near Burges"},"longitude":"-1.510799"},"context":"","outcome_status":null,"persistent_id":"","id":133057861,"location_subtype":"","month":"2025-12"},{"category":"anti-social-behaviour","location_type":"Force","location":{"latitude":"52.406651","street":{"id":1648516,"name":"On or near Gosford Street"},"longitude":"-1.501489"},"context":"","outcome_status":null,"persistent_id":"","id":133057988,"location_subtype":"","month":"2025-12"},{"category":"bicycle-theft","location_type":"Force","location":{"latitude":"52.409034","street":{"id":1648312,"name":"On or near Ironmonger Row"},"longitude":"-1.510253"},"context":"","outcome_status":{"category":"Investigation complete; no suspect identified","date":"2026-01"},"persistent_id":"e0e627df4cce31c8944061c1e399dfeb1c9bfe4d275f273ff4aadfa36c78bb91","id":133036656,"location_subtype":"","month":"2025-12"},{"category":"bicycle-theft","location_type":"Force","location":{"latitude":"52.402498","street":{"id":1648173,"name":"On or near Eaton Road"},"longitude":"-1.514573"},"context":"","outcome_status":{"category":"Awaiting court outcome","date":"2026-01"},"persistent_id":"7f752711fb9d37e588c5dd3fae5422f62e824d5fe7282186d5ee50564974acc0","id":133054787,"location_subtype":"","month":"2025-12"},{"category":"bicycle-theft","location_type":"Force","location":{"latitude":"52.413405","street":{"id":1648442,"name":"On or near Swanswell Street"},"longitude":"-1.504221"},"context":"","outcome_status":{"category":"Investigation complete; no suspect identified","date":"2026-01"},"persistent_id":"a624aca76a1d5f2d8832c519dca976324e78d60cda0dbe29ad87a92242ad201f","id":133049193,"location_subtype":"","month":"2025-12"},{"category":"bicycle-theft","location_type":"Force","location":{"latitude":"52.406651","street":{"id":1648574,"name":"On or near Parking Area"},"longitude":"-1.499519"},"context":"","outcome_status":{"category":"Investigation complete; no suspect identified","date":"2025-12"},"persistent_id":"fef7378be5afe1a366459e32156f1e70522692efd5da9a8432877038650d910d","id":133050694,"location_subtype":"","month":"2025-12"},{"category":"bicycle-theft","location_type":"Force","location":{"latitude":"52.409882","street":{"id":1648333,"name":"On or near Supermarket"},"longitude":"-1.508891"},"context":"","outcome_status":{"category":"Unable to prosecute suspect","date":"2026-01"},"persistent_id":"01374e7a5558dbf72d34a2f7b8ddc0cf5b083d2c63e087429a521aa6fdffd6ee","id":133037247,"location_subtype":"","month":"2025-12"},{"category":"bicycle-theft","location_type":"Force","location":{"latitude":"52.410677","street":{"id":1648143,"name":"On or near Upper Well Street"},"longitude":"-1.514204"},"context":"","outcome_status":{"category":"Investigation complete; no suspect identified","date":"2026-01"},"persistent_id":"3f73e6ce63a254e7f9dff140d9e70678334bf694c5d30a851dea9a53a6ac7829","id":133034068,"location_subtype":"","month":"2025-12"},{"category":"bicycle-theft","location_type":"Force","location":{"latitude":"52.412101","street":{"id":1647941,"name":"On or near Hawksworth Drive"},"longitude":"-1.523744"},"context":"","outcome_status":{"category":"Investigation complete; no suspect identified","date":"2026-01"},"persistent_id":"6846826b6b59e8df7fcd33e2600537cf3d3b77bda4ac7cca3b9a1bed3cef2a42","id":133034949,"location_subtype":"","month":"2025-12"},{"category":"bicycle-theft","location_type":"Force","location":{"latitude":"52.407620","street":{"id":1648076,"name":"On or near Nightclub"},"longitude":"-1.518500"},"context":"","outcome_status":{"category":"Investigation complete; no suspect identified","date":"2026-01"},"persistent_id":"751526df478bb16a471ea0ec06301cf8603906bdf5dc21445bffe89b5322308e","id":133038493,"location_subtype":"","month":"2025-12"},{"category":"bicycle-theft","location_type":"Force","location":{"latitude":"52.409664","street":{"id":1648391,"name":"On or near Fairfax Street"},"longitude":"-1.506071"},"context":"","outcome_status":{"category":"Investigation complete; no suspect identified","date":"2026-01"},"persistent_id":"b6d3254300f5adac42e0d6445bdfc8f12df1460537cdce10262f78e5760d152d","id":133038933,"location_subtype":"","month":"2025-12"},{"category":"bicycle-theft","location_type":"Force","location":{"latitude":"52.410677","street":{"id":1648143,"name":"On or near Upper Well Street"},"longitude":"-1.514204"},"context":"","outcome_status":{"category":"Investigation complete; no suspect identified","date":"2026-01"},"persistent_id":"36d94bf7ec85208c1c12363789cb37333df0d6d0020f0194d9e521b3a3952084","id":133056498,"location_subtype":"","month":"2025-12"},{"category":"bicycle-theft","location_type":"Force","location":{"latitude":"52.409882","street":{"id":1648333,"name":"On or near Supermarket"},"longitude":"-1.508891"},"context":"","outcome_status":{"category":"Unable to prosecute suspect","date":"2026-01"},"persistent_id":"adbc218a9aec7fcb5d9a6e7c39f1361811b360b8c592cc0f515cc554700372e4","id":133044238,"location_subtype":"","month":"2025-12"},{"category":"bicycle-theft","location_type":"Force","location":{"latitude":"52.408060","street":{"id":1648306,"name":"On or near Shopping Area"},"longitude":"-1.509631"},"context":"","outcome_status":{"category":"Under investigation","date":"2025-12"},"persistent_id":"286d72067ac0ca668706274cd6af54ca4a70b94f3fa2a071772c0531b9986af3","id":133034363,"location_subtype":"","month":"2025-12"},{"category":"bicycle-theft","location_type":"Force","location":{"latitude":"52.402369","street":{"id":1648834,"name":"On or near Parking Area"},"longitude":"-1.488352"},"context":"","outcome_status":{"category":"Investigation complete; no suspect identified","date":"2026-01"},"persistent_id":"cfbae668c0f51f0d2d7a75cc57b56e6e1deaa9e31b4e59bc593b56438379616f","id":133038772,"location_subtype":"","month":"2025-12"},{"category":"bicycle-theft","location_type":"Force","location":{"latitude":"52.402860","street":{"id":1648065,"name":"On or near Westminster Road"},"longitude":"-1.517435"},"context":"","outcome_status":{"category":"Investigation complete; no suspect identified","date":"2026-01"},"persistent_id":"b6f49facf8959ecb48ccde0e220fd3b1b8b77bb19516d3583194c752e8e07f8c","id":133046783,"location_subtype":"","month":"2025-12"},{"category":"bicycle-theft","location_type":"Force","location":{"latitude":"52.405957","street":{"id":1648193,"name":"On or near Nightclub"},"longitude":"-1.514020"},"context":"","outcome_status":{"category":"Investigation complete; no suspect identified","date":"2025-12"},"persistent_id":"b3011a3d2b4dab65f07edd42531982d62c713d1b9f736266ca062ac6e85c115b","id":133055508,"location_subtype":"","month":"2025-12"},{"category":"bicycle-theft","location_type":"Force","location":{"latitude":"52.409791","street":{"id":1648450,"name":"On or near Parking Area"},"longitude":"-1.504232"},"context":"","outcome_status":{"category":"Investigation complete; no suspect identified","date":"2026-01"},"persistent_id":"2b31a76648ea95487e2d7e5cad383e18d5e0861d5bf391bc97e78258576c765c","id":133040234,"location_subtype":"","month":"2025-12"},{"category":"bicycle-theft","location_type":"Force","location":{"latitude":"52.408581","street":{"id":1648320,"name":"On or near Trinity Lane"},"longitude":"-1.509464"},"context":"","outcome_status":{"category":"Awaiting court outcome","date":"2025-12"},"persistent_id":"4695b658846d09aea238ae7d88d155fe04145c79cc889646ae1bbfa9cb73d1f1","id":133056343,"location_subtype":"","month":"2025-12"},{"category":"bicycle-theft","location_type":"Force","location":{"latitude":"52.408539","street":{"id":1648220,"name":"On or near Shopping Area"},"longitude":"-1.512448"},"context":"","outcome_status":{"category":"Investigation complete; no suspect identified","date":"2025-12"},"persistent_id":"8d52a7c5b29636b1f4f410eb477b606c6ab3ffe698f5ba6b4ff90dca852a1356","id":133038741,"location_subtype":"","month":"2025-12"},{"category":"bicycle-theft","location_type":"Force","location":{"latitude":"52.408060","street":{"id":1648306,"name":"On or near Shopping Area"},"longitude":"-1.509631"},"context":"","outcome_status":{"category":"Investigation complete; no suspect identified","date":"2025-12"},"persistent_id":"6aaa0fb6c02dfed022626d8b4006626ddb20d8588f08ade7ffc91383ae5aee8f","id":133046242,"location_subtype":"","month":"2025-12"},{"category":"bicycle-theft","location_type":"Force","location":{"latitude":"52.407813","street":{"id":1648036,"name":"On or near Ringway Rudge"},"longitude":"-1.519557"},"context":"","outcome_status":{"category":"Investigation complete; no suspect identified","date":"2026-01"},"persistent_id":"5b600cdf97e9c27c11a124772094e75b8383f968c714ac31fe4fa06183114663","id":133040818,"location_subtype":"","month":"2025-12"},{"category":"bicycle-theft","location_type":"Force","location":{"latitude":"52.403707","street":{"id":1648272,"name":"On or near Friars' Road"},"longitude":"-1.511341"},"context":"","outcome_status":{"category":"Investigation complete; no suspect identified","date":"2025-12"},"persistent_id":"e243ec2a4adab4e52654e27f67aad862da03b8ee10a03a97e69f927195ed8510","id":133051179,"location_subtype":"","month":"2025-12"},{"category":"burglary","location_type":"Force","location":{"latitude":"52.395517","street":{"id":1648499,"name":"On or near Purefoy Road"},"longitude":"-1.502672"},"context":"","outcome_status":{"category":"Investigation complete; no suspect identified","date":"2026-01"},"persistent_id":"f68139f6fe7a793466dd8530c951d2cd77ee439caead6730f1663925d7279b5b","id":133043992,"location_subtype":"","month":"2025-12"},{"category":"burglary","location_type":"Force","location":{"latitude":"52.414571","street":{"id":1648386,"name":"On or near Byron Street"},"longitude":"-1.505795"},"context":"","outcome_status":{"category":"Unable to prosecute suspect","date":"2025-12"},"persistent_id":"a30c671ccef456cb96caf5bc027ed03da80db75f98377fdbfe13d9646c1b800a","id":133050883,"location_subtype":"","month":"2025-12"},{"category":"burglary","location_type":"Force","location":{"latitude":"52.405123","street":{"id":1648015,"name":"On or near Parking Area"},"longitude":"-1.521247"},"context":"","outcome_status":{"category":"Investigation complete; no suspect identified","date":"2025-12"},"persistent_id":"6fd91900c36e663d44df41672b074f4a3b65dbdab303ef6aa76a5efb254c7977","id":133051553,"location_subtype":"","month":"2025-12"},{"category":"burglary","location_type":"Force","location":{"latitude":"52.401857","street":{"id":1648256,"name":"On or near Manor Road"},"longitude":"-1.511684"},"context":"","outcome_status":{"category":"Under investigation","date":"2025-12"},"persistent_id":"e7bdbf56240181a52573f2b86e56abfd3dbe5dc5ed38dc89674d38f2d5651196","id":133037859,"location_subtype":"","month":"2025-12"},{"category":"burglary","location_type":"Force","location":{"latitude":"52.411598","street":{"id":1648278,"name":"On or near Parking Area"},"longitude":"-1.510651"},"context":"","outcome_status":{"category":"Investigation complete; no suspect identified","date":"2026-01"},"persistent_id":"5fde86309a63cdd6806c54fdc55b6d9a7db454d5abf3473fc2590e3558ce7a17","id":133034596,"location_subtype":"","month":"2025-12"},{"category":"burglary","location_type":"Force","location":{"latitude":"52.404061","street":{"id":1648808,"name":"On or near St George's Road"},"longitude":"-1.490729"},"context":"","outcome_status":{"category":"Investigation complete; no suspect identified","date":"2025-12"},"persistent_id":"eaa472c35e0aa5ef4bd5d6ea68f03b3b6cb8821bb72dc732479b1847cc9d8107","id":133045178,"location_subtype":"","month":"2025-12"},{"category":"burglary","location_type":"Force","location":{"latitude":"52.415766","street":{"id":1648315,"name":"On or near Harnall Lane West"},"longitude":"-1.507782"},"context":"","outcome_status":{"category":"Under investigation","date":"2025-12"},"persistent_id":"0b8dfdd7c6a5d173e6a86f9a9fa029559d4fc0ae09e5bd8ff6188e9f71de9b64","id":133039401,"location_subtype":"","month":"2025-12"},{"category":"burglary","location_type":"Force","location":{"latitude":"52.416809","street":{"id":1647901,"name":"On or near Thamley Road"},"longitude":"-1.525414"},"context":"","outcome_status":{"category":"Under investigation","date":"2025-12"},"persistent_id":"7c2a29cf91e5f0f921196e99d16d564403025019a49d4b262c428479a963a475","id":133034618,"location_subtype":"","month":"2025-12"},{"category":"burglary","location_type":"Force","location":{"latitude":"52.405845","street":{"id":1648788,"name":"On or near St Margaret Road"},"longitude":"-1.491811"},"context":"","outcome_status":{"category":"Investigation complete; no suspect identified","date":"2026-01"},"persistent_id":"4b00b5579a27f274bccb3532d4c716f52c31b8a78f0c8a7048d8ce04af94b1b0","id":133036903,"location_subtype":"","month":"2025-12"},{"category":"burglary","location_type":"Force","location":{"latitude":"52.406935","street":{"id":1648721,"name":"On or near Grafton Street"},"longitude":"-1.494282"},"context":"","outcome_status":{"category":"Investigation complete; no suspect identified","date":"2026-01"},"persistent_id":"6f73cf1ec01eeed66409d9bb40d09fda0cd8c390160a101e0b709820e1a39b0c","id":133054048,"location_subtype":"","month":"2025-12"},{"category":"burglary","location_type":"Force","location":{"latitude":"52.397459","street":{"id":1648198,"name":"On or near Orchard Crescent"},"longitude":"-1.513658"},"context":"","outcome_status":{"category":"Investigation complete; no suspect identified","date":"2026-01"},"persistent_id":"80f5b37e6a36ca2663e04ca5e5d72afe18b8190de4e90c36ca5eb8e1c7d47d9e","id":133050509,"location_subtype":"","month":"2025-12"},{"category":"burglary","location_type":"Force","location":{"latitude":"52.397459","street":{"id":1648198,"name":"On or near Orchard Crescent"},"longitude":"-1.513658"},"context":"","outcome_status":{"category":"Investigation complete; no suspect identified","date":"2025-12"},"persistent_id":"16ff491988b35744907f27b1afd88923542d1044fa1c80d6c5bb0650dacded48","id":133043488,"location_subtype":"","month":"2025-12"},{"category":"burglary","location_type":"Force","location":{"latitude":"52.409490","street":{"id":1648615,"name":"On or near Alma Street"},"longitude":"-1.499031"},"context":"","outcome_status":{"category":"Unable to prosecute suspect","date":"2025-12"},"persistent_id":"a6e220484dc425507b5778db3460b57cc78156390db53eeb1f4a0c0534370302","id":133050591,"location_subtype":"","month":"2025-12"},{"category":"burglary","location_type":"Force","location":{"latitude":"52.416938","street":{"id":1648594,"name":"On or near Redcar Road"},"longitude":"-1.499932"},"context":"","outcome_status":{"category":"Under investigation","date":"2025-12"},"persistent_id":"7ee239d83a02f72213b4eb8f0bd5eef168ad0dde2e4e6cd5bb8a190e27867fa1","id":133035859,"location_subtype":"","month":"2025-12"},{"category":"burglary","location_type":"Force","location":{"latitude":"52.403707","street":{"id":1648272,"name":"On or near Friars' Road"},"longitude":"-1.511341"},"context":"","outcome_status":{"category":"Local resolution","date":"2026-01"},"persistent_id":"889d8996c9753e5edef3819189118effa629f4e57da99169b144bfd5031f6802","id":133034837,"location_subtype":"","month":"2025-12"},{"category":"burglary","location_type":"Force","location":{"latitude":"52.410677","street":{"id":1648143,"name":"On or near Upper Well Street"},"longitude":"-1.514204"},"context":"","outcome_status":{"category":"Investigation complete; no suspect identified","date":"2026-01"},"persistent_id":"fc18ac0840b4aba277488a35d797c297d526c402a3c3267a7192433ad31962fb","id":133048135,"location_subtype":"","month":"2025-12"},{"category":"burglary","location_type":"Force","location":{"latitude":"52.403320","street":{"id":1648484,"name":"On or near Paradise Street"},"longitude":"-1.502482"},"context":"","outcome_status":{"category":"Investigation complete; no suspect identified","date":"2025-12"},"persistent_id":"81347bf5eced3bab8b43059ab1ef08a872bc70af899d522126709b8f5ee5a5a0","id":133041474,"location_subtype":"","month":"2025-12"},{"category":"burglary","location_type":"Force","location":{"latitude":"52.403467","street":{"id":1648398,"name":"On or near Parkside"},"longitude":"-1.505449"},"context":"","outcome_status":{"category":"Under investigation","date":"2025-12"},"persistent_id":"0b98ae6ec25f0a561d711c8072b9319ad4058493e16172e6f07a8d6ad75aac87","id":133045073,"location_subtype":"","month":"2025-12"},{"category":"burglary","location_type":"Force","location":{"latitude":"52.416926","street":{"id":1648645,"name":"On or near Wright Street"},"longitude":"-1.497109"},"context":"","outcome_status":{"category":"Investigation complete; no suspect identified","date":"2025-12"},"persistent_id":"2007e293fb42f7b453f14834d3b40a98170667da236cf4e9bf56188ec8a1083d","id":133045221,"location_subtype":"","month":"2025-12"},{"category":"burglary","location_type":"Force","location":{"latitude":"52.407311","street":{"id":1648317,"name":"On or near High Street"},"longitude":"-1.508978"},"context":"","outcome_status":{"category":"Under investigation","date":"2025-12"},"persistent_id":"1f66b9242153759ed651debc8fd771e3b19614225e05eb6f2e1f011776ae93de","id":133042002,"location_subtype":"","month":"2025-12"},{"category":"burglary","location_type":"Force","location":{"latitude":"52.416809","street":{"id":1647901,"name":"On or near Thamley Road"},"longitude":"-1.525414"},"context":"","outcome_status":{"category":"Unable to prosecute suspect","date":"2026-01"},"persistent_id":"f823c33a0479ce95af04e427621a3445a61363fe9fb3241518026323ab52ebe4","id":133043325,"location_subtype":"","month":"2025-12"},{"category":"burglary","location_type":"Force","location":{"latitude":"52.400503","street":{"id":1647947,"name":"On or near Spencer Avenue"},"longitude":"-1.523751"},"context":"","outcome_status":{"category":"Investigation complete; no suspect identified","date":"2025-12"},"persistent_id":"c9f5a9e77decfecd82e7f3a626decf65d720df74d705b0bf577d5011e31c425b","id":133045637,"location_subtype":"","month":"2025-12"},{"category":"burglary","location_type":"Force","location":{"latitude":"52.409791","street":{"id":1648450,"name":"On or near Parking Area"},"longitude":"-1.504232"},"context":"","outcome_status":{"category":"Awaiting court outcome","date":"2026-01"},"persistent_id":"49706b6c462ccf24d46739f8a0a7ea30053fb15a72c47bb3012b66c8e4335ef1","id":133044517,"location_subtype":"","month":"2025-12"},{"category":"burglary","location_type":"Force","location":{"latitude":"52.422767","street":{"id":1648366,"name":"On or near Matlock Road"},"longitude":"-1.505057"},"context":"","outcome_status":{"category":"Unable to prosecute suspect","date":"2025-12"},"persistent_id":"6d14074e70733687a61eef24d4278a564bce7deb04b965b4ae8e6bb423619c43","id":133042720,"location_subtype":"","month":"2025-12"},{"category":"burglary","location_type":"Force","location":{"latitude":"52.408539","street":{"id":1648220,"name":"On or near Shopping Area"},"longitude":"-1.512448"},"context":"","outcome_status":{"category":"Investigation complete; no suspect identified","date":"2026-01"},"persistent_id":"ecc981e5943755eb69fc7af81c21b28c0dbb2f785b616cd09dde33b2e55d89a3","id":133046484,"location_subtype":"","month":"2025-12"},{"category":"burglary","location_type":"Force","location":{"latitude":"52.409220","street":{"id":1648925,"name":"On or near Hamilton Road"},"longitude":"-1.486230"},"context":"","outcome_status":{"category":"Investigation complete; no suspect identified","date":"2026-01"},"persistent_id":"4b1ef98b1eaa975baa8deb672bb7b19e05db4e9b66c05f4b4b188176dd887042","id":133046560,"location_subtype":"","month":"2025-12"},{"category":"burglary","location_type":"Force","location":{"latitude":"52.410797","street":{"id":1648214,"name":"On or near Chapel Street"},"longitude":"-1.512615"},"context":"","outcome_status":{"category":"Unable to prosecute suspect","date":"2026-01"},"persistent_id":"41992204a4c9de45efdf7a06b0ad887422abc722e09bc58dc929811a604cea0e","id":133057182,"location_subtype":"","month":"2025-12"},{"category":"burglary","location_type":"Force","location":{"latitude":"52.410976","street":{"id":1648962,"name":"On or near Villiers Street"},"longitude":"-1.484872"},"context":"","outcome_status":{"category":"Investigation complete; no suspect identified","date":"2025-12"},"persistent_id":"f83297eeeab88cb72e8c2e7200c8ba190574611b3c95c66f51e546fd5e6ad233","id":133057065,"location_subtype":"","month":"2025-12"},{"category":"burglary","location_type":"Force","location":{"latitude":"52.422767","street":{"id":1648366,"name":"On or near Matlock Road"},"longitude":"-1.505057"},"context":"","outcome_status":{"category":"Investigation complete; no suspect identified","date":"2025-12"},"persistent_id":"f9f7fd651fcd2b54d9a8596d8eddc21789b88ce2e490133d286c2f9bc095a906","id":133040129,"location_subtype":"","month":"2025-12"},{"category":"burglary","location_type":"Force","location":{"latitude":"52.413405","street":{"id":1648442,"name":"On or near Swanswell Street"},"longitude":"-1.504221"},"context":"","outcome_status":{"category":"Investigation complete; no suspect identified","date":"2025-12"},"persistent_id":"471ee0e2e52d90960e497550570882d82e0f125f1c0defcd314e6ef9bf4aa859","id":133046802,"location_subtype":"","month":"2025-12"},{"category":"criminal-damage-arson","location_type":"Force","location":{"latitude":"52.406249","street":{"id":1647994,"name":"On or near Vincent Street"},"longitude":"-1.521867"},"context":"","outcome_status":{"category":"Investigation complete; no suspect identified","date":"2025-12"},"persistent_id":"416c5792c576c566830392cc039daef079199c973ffd6040f2ce31aac8026ba2","id":133035507,"location_subtype":"","month":"2025-12"},{"category":"criminal-damage-arson","location_type":"Force","location":{"latitude":"52.413345","street":{"id":1648245,"name":"On or near Park/open Space"},"longitude":"-1.511558"},"context":"","outcome_status":{"category":"Unable to prosecute suspect","date":"2026-01"},"persistent_id":"1e2590efde64ebb65370f6c16e33733b1601310c0f03033b063fcfe6a92f13c8","id":133037575,"location_subtype":"","month":"2025-12"},{"category":"criminal-damage-arson","location_type":"Force","location":{"latitude":"52.407006","street":{"id":1648931,"name":"On or near Clara Street"},"longitude":"-1.485682"},"context":"","outcome_status":{"category":"Investigation complete; no suspect identified","date":"2025-12"},"persistent_id":"e644fdad0ce20307e1afe82bf1998de647817ac6c208305deb5191372bb646a1","id":133056918,"location_subtype":"","month":"2025-12"},{"category":"criminal-damage-arson","location_type":"Force","location":{"latitude":"52.406089","street":{"id":1647926,"name":"On or near Parking Area"},"longitude":"-1.524573"},"context":"","outcome_status":{"category":"Investigation complete; no suspect identified","date":"2026-01"},"persistent_id":"e6970043e6ee653f50b4bf92db17df6793f5d3dbd8095595c9e8a56dac735865","id":133035590,"location_subtype":"","month":"2025-12"},{"category":"criminal-damage-arson","location_type":"Force","location":{"latitude":"52.412414","street":{"id":1647982,"name":"On or near Coundon Road"},"longitude":"-1.521227"},"context":"","outcome_status":{"category":"Awaiting court outcome","date":"2026-01"},"persistent_id":"bdb839b6dda43b32160ee71aac34a2c05eae5407131dd4d816194e7924fe0234","id":133035114,"location_subtype":"","month":"2025-12"},{"category":"criminal-damage-arson","location_type":"Force","location":{"latitude":"52.409446","street":{"id":1648232,"name":"On or near Shopping Area"},"longitude":"-1.512144"},"context":"","outcome_status":{"category":"Unable to prosecute suspect","date":"2026-01"},"persistent_id":"3f5cc736b0ac222acf36e355c1ca6e5fb9fda71b0c6e531d21b60b26ba895b4a","id":133036384,"location_subtype":"","month":"2025-12"},{"category":"criminal-damage-arson","location_type":"Force","location":{"latitude":"52.409446","street":{"id":1648232,"name":"On or near Shopping Area"},"longitude":"-1.512144"},"context":"","outcome_status":{"category":"Investigation complete; no suspect identified","date":"2025-12"},"persistent_id":"adea55069052f487178a7636c45ccbab277c6b6202d42227495f55b277cb532f","id":133055233,"location_subtype":"","month":"2025-12"},{"category":"criminal-damage-arson","location_type":"Force","location":{"latitude":"52.410424","street":{"id":1648319,"name":"On or near Hales Street"},"longitude":"-1.509385"},"context":"","outcome_status":{"category":"Unable to prosecute suspect","date":"2026-01"},"persistent_id":"6c71838c5a6c041b8803b28c069e149260ab66b1d4f7575130e8d599a0a0fe6c","id":133037905,"location_subtype":"","month":"2025-12"},{"category":"criminal-damage-arson","location_type":"Force","location":{"latitude":"52.409882","street":{"id":1648333,"name":"On or near Supermarket"},"longitude":"-1.508891"},"context":"","outcome_status":{"category":"Local resolution","date":"2025-12"},"persistent_id":"15e456e2bf8dfd957a9c340e87ed16a0d3f4b2e6bdb0a684f82a1a975426cbdf","id":133051839,"location_subtype":"","month":"2025-12"},{"category":"criminal-damage-arson","location_type":"Force","location":{"latitude":"52.409798","street":{"id":1648991,"name":"On or near St Michael's Road"},"longitude":"-1.482930"},"context":"","outcome_status":{"category":"Investigation complete; no suspect identified","date":"2026-01"},"persistent_id":"4219e64bf7c8dee6d1499438931b02474a60e8b845b656d250b84d29674933b3","id":133036537,"location_subtype":"","month":"2025-12"},{"category":"criminal-damage-arson","location_type":"Force","location":{"latitude":"52.413345","street":{"id":1648245,"name":"On or near Park/open Space"},"longitude":"-1.511558"},"context":"","outcome_status":{"category":"Unable to prosecute suspect","date":"2026-01"},"persistent_id":"ad59156fbd0ba8041bbefffebcb9c4d381c6784f41597612f6b89e86746386f1","id":133036706,"location_subtype":"","month":"2025-12"},{"category":"criminal-damage-arson","location_type":"Force","location":{"latitude":"52.403697","street":{"id":1648049,"name":"On or near Regent Street"},"longitude":"-1.519895"},"context":"","outcome_status":{"category":"Investigation complete; no suspect identified","date":"2025-12"},"persistent_id":"efd4e81830c7b548bedc8f5bffc6b47ad82de81b0f7f0c07929e72233e2495e8","id":133047959,"location_subtype":"","month":"2025-12"},{"category":"criminal-damage-arson","location_type":"Force","location":{"latitude":"52.410677","street":{"id":1648143,"name":"On or near Upper Well Street"},"longitude":"-1.514204"},"context":"","outcome_status":{"category":"Investigation complete; no suspect identified","date":"2025-12"},"persistent_id":"035bd2564c22d24a2119a623e7f8a1a6cfefa6c21d1dff46bca189abf32e8d28","id":133057028,"location_subtype":"","month":"2025-12"},{"category":"criminal-damage-arson","location_type":"Force","location":{"latitude":"52.422767","street":{"id":1648366,"name":"On or near Matlock Road"},"longitude":"-1.505057"},"context":"","outcome_status":{"category":"Under investigation","date":"2025-12"},"persistent_id":"0995598486b85476a872fd69ce948fe14679125e4579ba3509579417eb090743","id":133043787,"location_subtype":"","month":"2025-12"},{"category":"criminal-damage-arson","location_type":"Force","location":{"latitude":"52.403566","street":{"id":1648916,"name":"On or near Supermarket"},"longitude":"-1.486589"},"context":"","outcome_status":{"category":"Investigation complete; no suspect identified","date":"2025-12"},"persistent_id":"bcaa579140b6463058447d8cdaaf2de4edb287654a7a841b9f4fa7024a89b671","id":133055389,"location_subtype":"","month":"2025-12"},{"category":"criminal-damage-arson","location_type":"Force","location":{"latitude":"52.409105","street":{"id":1647906,"name":"On or near Doe Bank Lane"},"longitude":"-1.525467"},"context":"","outcome_status":{"category":"Unable to prosecute suspect","date":"2025-12"},"persistent_id":"3cccf72a73be2c3f8001b8747da0ea20b6db2903e3f25fe6d3f527d24446ef70","id":133048814,"location_subtype":"","month":"2025-12"},{"category":"criminal-damage-arson","location_type":"Force","location":{"latitude":"52.416809","street":{"id":1647901,"name":"On or near Thamley Road"},"longitude":"-1.525414"},"context":"","outcome_status":{"category":"Investigation complete; no suspect identified","date":"2026-01"},"persistent_id":"f745379add42c628c824e6735a84fc3ae60b548f6cc8dc42840cf4f3ee91160c","id":133042760,"location_subtype":"","month":"2025-12"},{"category":"criminal-damage-arson","location_type":"Force","location":{"latitude":"52.420596","street":{"id":1648276,"name":"On or near Newfield Road"},"longitude":"-1.510419"},"context":"","outcome_status":{"category":"Unable to prosecute suspect","date":"2025-12"},"persistent_id":"89a81678669bbb0d7b3a487e82c4c702d3563dc403b5fb62ac804f5ece1e36d4","id":133056708,"location_subtype":"","month":"2025-12"},{"category":"criminal-damage-arson","location_type":"Force","location":{"latitude":"52.406473","street":{"id":1648271,"name":"On or near Greyfriars Lane"},"longitude":"-1.510531"},"context":"","outcome_status":{"category":"Investigation complete; no suspect identified","date":"2025-12"},"persistent_id":"871f2ba77bff11a925f5c7a99480e2245835a5caa984ec8b9f35c4e7a3ac743b","id":133048413,"location_subtype":"","month":"2025-12"},{"category":"criminal-damage-arson","location_type":"Force","location":{"latitude":"52.406473","street":{"id":1648271,"name":"On or near Greyfriars Lane"},"longitude":"-1.510531"},"context":"","outcome_status":{"category":"Investigation complete; no suspect identified","date":"2025-12"},"persistent_id":"191bd02892a65f04b43fdb3b144315ea33c74ad433f6f397fbf8d53d298b1cb4","id":133055472,"location_subtype":"","month":"2025-12"},{"category":"criminal-damage-arson","location_type":"Force","location":{"latitude":"52.407568","street":{"id":1648944,"name":"On or near Gresham Street"},"longitude":"-1.484676"},"context":"","outcome_status":{"category":"Under investigation","date":"2025-12"},"persistent_id":"5ed1d1f2e83888f76bbc7ed0f71a81dda457d1b34b6df2911bc13a2b78f4bd1c","id":133052311,"location_subtype":"","month":"2025-12"},{"category":"criminal-damage-arson","location_type":"Force","location":{"latitude":"52.405845","street":{"id":1648788,"name":"On or near St Margaret Road"},"longitude":"-1.491811"},"context":"","outcome_status":{"category":"Unable to prosecute suspect","date":"2025-12"},"persistent_id":"8d9adbc828f46c9fdd610e19a221e3bb8157f7854c95653bd334d7687f6999cf","id":133043729,"location_subtype":"","month":"2025-12"},{"category":"criminal-damage-arson","location_type":"Force","location":{"latitude":"52.409882","street":{"id":1648333,"name":"On or near Supermarket"},"longitude":"-1.508891"},"context":"","outcome_status":{"category":"Awaiting court outcome","date":"2025-12"},"persistent_id":"9045f30dd0f445386b8c46860f64abc3b1430e5036712546f65f78a8ccff24b4","id":133057295,"location_subtype":"","month":"2025-12"},{"category":"criminal-damage-arson","location_type":"Force","location":{"latitude":"52.407006","street":{"id":1648931,"name":"On or near Clara Street"},"longitude":"-1.485682"},"context":"","outcome_status":{"category":"Investigation complete; no suspect identified","date":"2025-12"},"persistent_id":"5259d9c4518995c7dddc7e86a89226fb608f63724a70aef7a2ab1ddf0d3ea951","id":133056959,"location_subtype":"","month":"2025-12"},{"category":"criminal-damage-arson","location_type":"Force","location":{"latitude":"52.412063","street":{"id":1648629,"name":"On or near Virginia Road"},"longitude":"-1.497370"},"context":"","outcome_status":{"category":"Unable to prosecute suspect","date":"2025-12"},"persistent_id":"b1d76ab8de8a90b861b14aa76a47b9cff0d1d1249bcd217a3ccae5e53bf959ee","id":133042587,"location_subtype":"","month":"2025-12"},{"category":"criminal-damage-arson","location_type":"Force","location":{"latitude":"52.405123","street":{"id":1648015,"name":"On or near Parking Area"},"longitude":"-1.521247"},"context":"","outcome_status":{"category":"Unable to prosecute suspect","date":"2025-12"},"persistent_id":"2bd6c8168c33838540636e110aaca6c7a46c4e80d59b32103bba65a7fbfc7537","id":133055825,"location_subtype":"","month":"2025-12"},{"category":"criminal-damage-arson","location_type":"Force","location":{"latitude":"52.401852","street":{"id":1648735,"name":"On or near Orwell Road"},"longitude":"-1.493503"},"context":"","outcome_status":{"category":"Investigation complete; no suspect identified","date":"2026-01"},"persistent_id":"72a9896e1b89e34590111cc88141e4a29a1ad54b1efcb280cf1bb20e5a4820cb","id":133047096,"location_subtype":"","month":"2025-12"},{"category":"criminal-damage-arson","location_type":"Force","location":{"latitude":"52.409497","street":{"id":1648769,"name":"On or near Lansdowne Street"},"longitude":"-1.492122"},"context":"","outcome_status":{"category":"Unable to prosecute suspect","date":"2025-12"},"persistent_id":"1e4a372ebcf072b19a53ed6c38bd29c52d362eaa38959a1d04954d47c7ec9024","id":133053927,"location_subtype":"","month":"2025-12"},{"category":"criminal-damage-arson","location_type":"Force","location":{"latitude":"52.407620","street":{"id":1648076,"name":"On or near Nightclub"},"longitude":"-1.518500"},"context":"","outcome_status":{"category":"Investigation complete; no suspect identified","date":"2026-01"},"persistent_id":"8984774ba6a6e9bcb8c94b5950226d2b5cde0b83b013388c54046b2e458c405e","id":133040051,"location_subtype":"","month":"2025-12"},{"category":"criminal-damage-arson","location_type":"Force","location":{"latitude":"52.410124","street":{"id":1648283,"name":"On or near Burges"},"longitude":"-1.510799"},"context":"","outcome_status":{"category":"Under investigation","date":"2025-12"},"persistent_id":"4d635c828d82c121667ebc994bdd4ed9fb7b7502d1333bd0e58902eaf1d61f14","id":133037474,"location_subtype":"","month":"2025-12"},{"category":"criminal-damage-arson","location_type":"Force","location":{"latitude":"52.414310","street":{"id":1648961,"name":"On or near Goring Road"},"longitude":"-1.484597"},"context":"","outcome_status":{"category":"Investigation complete; no suspect identified","date":"2026-01"},"persistent_id":"121841f0dc362c6a32d96e7c80a128cee7683811189570e67871d4b554be928c","id":133046426,"location_subtype":"","month":"2025-12"},{"category":"criminal-damage-arson","location_type":"Force","location":{"latitude":"52.409722","street":{"id":1648326,"name":"On or near Trinity Street"},"longitude":"-1.509363"},"context":"","outcome_status":{"category":"Investigation complete; no suspect identified","date":"2025-12"},"persistent_id":"579492dd5e8b58b71308fb753fcd3ef7d35f7a319e6931ae154b44c86a6ba746","id":133048972,"location_subtype":"","month":"2025-12"},{"category":"criminal-damage-arson","location_type":"Force","location":{"latitude":"52.403566","street":{"id":1648916,"name":"On or near Supermarket"},"longitude":"-1.486589"},"context":"","outcome_status":{"category":"Unable to prosecute suspect","date":"2026-01"},"persistent_id":"c5cfc7b1cea918756118a48b2141d40cd8a8009a77975cdd69b0c47132f183d6","id":133046382,"location_subtype":"","month":"2025-12"},{"category":"criminal-damage-arson","location_type":"Force","location":{"latitude":"52.409446","street":{"id":1648232,"name":"On or near Shopping Area"},"longitude":"-1.512144"},"context":"","outcome_status":{"category":"Unable to prosecute suspect","date":"2026-01"},"persistent_id":"7b754f55ee9203b859b0e84b1a9780b606406c89ca3d58aae06aa7c95e4ac3f4","id":133053484,"location_subtype":"","month":"2025-12"},{"category":"criminal-damage-arson","location_type":"Force","location":{"latitude":"52.423548","street":{"id":1648485,"name":"On or near Childer Close"},"longitude":"-1.502607"},"context":"","outcome_status":{"category":"Investigation complete; no suspect identified","date":"2026-01"},"persistent_id":"31ccc266c809ceab72f43149c99e3ba011d576eecf314519a3f400d1ff0e22ee","id":133057033,"location_subtype":"","month":"2025-12"},{"category":"criminal-damage-arson","location_type":"Force","location":{"latitude":"52.411032","street":{"id":1647997,"name":"On or near Meriden Street"},"longitude":"-1.521845"},"context":"","outcome_status":{"category":"Awaiting court outcome","date":"2025-12"},"persistent_id":"1eba383e5781166bf94176f7f92bf42fb6cc43bb62052cf8df489f81644e7633","id":133046091,"location_subtype":"","month":"2025-12"},{"category":"criminal-damage-arson","location_type":"Force","location":{"latitude":"52.412543","street":{"id":1648624,"name":"On or near Yardley Street"},"longitude":"-1.498217"},"context":"","outcome_status":{"category":"Awaiting court outcome","date":"2025-12"},"persistent_id":"8455bcb9b85c274d39724fd97234b8d2a0b91e311d9ed4f9e58409285cffc4ce","id":133047726,"location_subtype":"","month":"2025-12"},{"category":"criminal-damage-arson","location_type":"Force","location":{"latitude":"52.411032","street":{"id":1647997,"name":"On or near Meriden Street"},"longitude":"-1.521845"},"context":"","outcome_status":{"category":"Awaiting court outcome","date":"2025-12"},"persistent_id":"d89465b385f42c90ea2f47fdc4909e06cfe7e4819cead9ff9e88b4316be7f496","id":133046085,"location_subtype":"","month":"2025-12"},{"category":"criminal-damage-arson","location_type":"Force","location":{"latitude":"52.403902","street":{"id":1648006,"name":"On or near Upper York Street"},"longitude":"-1.521584"},"context":"","outcome_status":{"category":"Investigation complete; no suspect identified","date":"2025-12"},"persistent_id":"d9b84a9724b5f0ff54503dcc5b125e9bd9e3e608fc5a8200e1a31cab231e7baa","id":133044108,"location_subtype":"","month":"2025-12"},{"category":"criminal-damage-arson","location_type":"Force","location":{"latitude":"52.410300","street":{"id":1648133,"name":"On or near Parking Area"},"longitude":"-1.516604"},"context":"","outcome_status":{"category":"Investigation complete; no suspect identified","date":"2025-12"},"persistent_id":"ebc52081e7f1f30658a48a7469c3b7f5873ab2aedfeb95ab59343c9386662d77","id":133042360,"location_subtype":"","month":"2025-12"},{"category":"criminal-damage-arson","location_type":"Force","location":{"latitude":"52.411333","street":{"id":1647979,"name":"On or near Chester Street"},"longitude":"-1.522812"},"context":"","outcome_status":{"category":"Local resolution","date":"2026-01"},"persistent_id":"038331d048c7389feca872f19564ea1aa58e04da5ba3d723d1e0b11c0815f7af","id":133038079,"location_subtype":"","month":"2025-12"},{"category":"criminal-damage-arson","location_type":"Force","location":{"latitude":"52.403566","street":{"id":1648916,"name":"On or near Supermarket"},"longitude":"-1.486589"},"context":"","outcome_status":{"category":"Awaiting court outcome","date":"2025-12"},"persistent_id":"09f1e21d4e426acf68048596abcc12f54568d102577d4985b8cd2bd0a30c76df","id":133039477,"location_subtype":"","month":"2025-12"},{"category":"criminal-damage-arson","location_type":"Force","location":{"latitude":"52.411508","street":{"id":1648313,"name":"On or near Chauntry Place"},"longitude":"-1.508535"},"context":"","outcome_status":{"category":"Awaiting court outcome","date":"2025-12"},"persistent_id":"894f79bcc99f0e8bd717a59a6ca5b397f1b1ef073a62c5cbd46b5a7a43c9b8d8","id":133049043,"location_subtype":"","month":"2025-12"},{"category":"criminal-damage-arson","location_type":"Force","location":{"latitude":"52.406249","street":{"id":1647994,"name":"On or near Vincent Street"},"longitude":"-1.521867"},"context":"","outcome_status":{"category":"Unable to prosecute suspect","date":"2025-12"},"persistent_id":"6f8765f3bd57ed907b4fabf1538990dca7cb1e0a80a6a984cefe55af679084c1","id":133039875,"location_subtype":"","month":"2025-12"},{"category":"criminal-damage-arson","location_type":"Force","location":{"latitude":"52.411032","street":{"id":1647997,"name":"On or near Meriden Street"},"longitude":"-1.521845"},"context":"","outcome_status":{"category":"Awaiting court outcome","date":"2025-12"},"persistent_id":"6d6288941a50b56e7a52c010614412f6efde85a7542d9a0d6fe6efece46d0500","id":133046098,"location_subtype":"","month":"2025-12"},{"category":"criminal-damage-arson","location_type":"Force","location":{"latitude":"52.414702","street":{"id":1648573,"name":"On or near Castle Street"},"longitude":"-1.500648"},"context":"","outcome_status":{"category":"Investigation complete; no suspect identified","date":"2026-01"},"persistent_id":"315e22465af360fb5c5fd48a24e45379702b026bd6f989672384fc3804a9f9ec","id":133043168,"location_subtype":"","month":"2025-12"},{"category":"criminal-damage-arson","location_type":"Force","location":{"latitude":"52.415250","street":{"id":1647928,"name":"On or near Barker's Butts Lane"},"longitude":"-1.524445"},"context":"","outcome_status":{"category":"Unable to prosecute suspect","date":"2026-01"},"persistent_id":"f190775d3cd94e013af774429585d954818d38ca5389ed860518831b46ecfb9b","id":133036513,"location_subtype":"","month":"2025-12"},{"category":"criminal-damage-arson","location_type":"Force","location":{"latitude":"52.404866","street":{"id":1648359,"name":"On or near St John's Street"},"longitude":"-1.506889"},"context":"","outcome_status":{"category":"Unable to prosecute suspect","date":"2025-12"},"persistent_id":"93381b4d084e9e6279d96bedb10e57fd320419a493d8915ad644f383aac5b97a","id":133054395,"location_subtype":"","month":"2025-12"},{"category":"criminal-damage-arson","location_type":"Force","location":{"latitude":"52.406089","street":{"id":1647926,"name":"On or near Parking Area"},"longitude":"-1.524573"},"context":"","outcome_status":{"category":"Under investigation","date":"2025-12"},"persistent_id":"68c462292748967255e00f90f3dcce78d540eeb1a98ac685db7e7ff39ed14691","id":133043102,"location_subtype":"","month":"2025-12"},{"category":"criminal-damage-arson","location_type":"Force","location":{"latitude":"52.410587","street":{"id":1648260,"name":"On or near Well Street"},"longitude":"-1.511867"},"context":"","outcome_status":{"category":"Investigation complete; no suspect identified","date":"2026-01"},"persistent_id":"e9754427882ec62387c0816e857335b8f99cf9e126ef7f00076ea92071566cd6","id":133036424,"location_subtype":"","month":"2025-12"},{"category":"criminal-damage-arson","location_type":"Force","location":{"latitude":"52.414310","street":{"id":1648961,"name":"On or near Goring Road"},"longitude":"-1.484597"},"context":"","outcome_status":{"category":"Investigation complete; no suspect identified","date":"2025-12"},"persistent_id":"86ebc9b8fcdb5a33ac4de746eca739c42fd65962c5659ee5e3e1dc25785d34ef","id":133053519,"location_subtype":"","month":"2025-12"},{"category":"criminal-damage-arson","location_type":"Force","location":{"latitude":"52.401852","street":{"id":1648735,"name":"On or near Orwell Road"},"longitude":"-1.493503"},"context":"","outcome_status":{"category":"Unable to prosecute suspect","date":"2026-01"},"persistent_id":"6f893f6200cb39aa69e534548a495757c0537dd93969bfa49ae78d019a33f6a5","id":133051039,"location_subtype":"","month":"2025-12"},{"category":"drugs","location_type":"Force","location":{"latitude":"52.407006","street":{"id":1648931,"name":"On or near Clara Street"},"longitude":"-1.485682"},"context":"","outcome_status":{"category":"Awaiting court outcome","date":"2025-12"},"persistent_id":"bc22c1abed51d7a30312799e7e84ea4a60158d4dfe979a0497e4b28f81253b53","id":133039295,"location_subtype":"","month":"2025-12"},{"category":"drugs","location_type":"Force","location":{"latitude":"52.409220","street":{"id":1648925,"name":"On or near Hamilton Road"},"longitude":"-1.486230"},"context":"","outcome_status":{"category":"Awaiting court outcome","date":"2025-12"},"persistent_id":"27cd6f103f654cbd5496a136cdfb4edb1c68551c185483f33555e3c9c9a4226a","id":133044637,"location_subtype":"","month":"2025-12"},{"category":"drugs","location_type":"Force","location":{"latitude":"52.406095","street":{"id":1648434,"name":"On or near White Friars Street"},"longitude":"-1.503964"},"context":"","outcome_status":{"category":"Under investigation","date":"2025-12"},"persistent_id":"adb90cb0052d40c7dcf7c1e1cdedc9af574ce0293fbafa97419234d069f816f4","id":133039283,"location_subtype":"","month":"2025-12"},{"category":"drugs","location_type":"Force","location":{"latitude":"52.409123","street":{"id":1648751,"name":"On or near Further/higher Educational Building"},"longitude":"-1.493052"},"context":"","outcome_status":{"category":"Local resolution","date":"2026-01"},"persistent_id":"3dc3e2f1eae0c2f59305f07a75a3deefe11fcf6536464b8c9d71263e33cf21a8","id":133033965,"location_subtype":"","month":"2025-12"},{"category":"drugs","location_type":"Force","location":{"latitude":"52.407863","street":{"id":1648754,"name":"On or near Shopping Area"},"longitude":"-1.493704"},"context":"","outcome_status":{"category":"Local resolution","date":"2025-12"},"persistent_id":"1f8828ff406f1c515f400deba990a133a4a66694ad5256db6e2e70a6972908b8","id":133043676,"location_subtype":"","month":"2025-12"},{"category":"drugs","location_type":"Force","location":{"latitude":"52.406995","street":{"id":1647949,"name":"On or near Parking Area"},"longitude":"-1.523843"},"context":"","outcome_status":{"category":"Local resolution","date":"2025-12"},"persistent_id":"884ef796dfe6c21682a00a9732b948b7e1ce6afbf715100fe0c4d193b3f5f61a","id":133043835,"location_subtype":"","month":"2025-12"},{"category":"drugs","location_type":"Force","location":{"latitude":"52.397752","street":{"id":1648103,"name":"On or near Asthill Grove"},"longitude":"-1.514860"},"context":"","outcome_status":{"category":"Awaiting court outcome","date":"2025-12"},"persistent_id":"57cf29bba651653c1cff8ac0aa66ee06d13c24f6f3475008a75ed67f78a43059","id":133051007,"location_subtype":"","month":"2025-12"},{"category":"drugs","location_type":"Force","location":{"latitude":"52.410124","street":{"id":1648283,"name":"On or near Burges"},"longitude":"-1.510799"},"context":"","outcome_status":{"category":"Local resolution","date":"2025-12"},"persistent_id":"24906832349cd948ba04cfef4a5ace69bb6ea4187fd1414323febf875d993055","id":133047736,"location_subtype":"","month":"2025-12"},{"category":"drugs","location_type":"Force","location":{"latitude":"52.415873","street":{"id":1648667,"name":"On or near Harnall Lane East"},"longitude":"-1.496974"},"context":"","outcome_status":{"category":"Under investigation","date":"2025-12"},"persistent_id":"76b25c689503526a22df236a456fa1235201c64984951a42a960b93b3172372d","id":133041787,"location_subtype":"","month":"2025-12"},{"category":"drugs","location_type":"Force","location":{"latitude":"52.410677","street":{"id":1648143,"name":"On or near Upper Well Street"},"longitude":"-1.514204"},"context":"","outcome_status":{"category":"Unable to prosecute suspect","date":"2026-01"},"persistent_id":"88c3f4726d333d180d7c500bf94e758253c3c5b010788a0d9068bbb08b5b4806","id":133042663,"location_subtype":"","month":"2025-12"},{"category":"drugs","location_type":"Force","location":{"latitude":"52.410797","street":{"id":1648214,"name":"On or near Chapel Street"},"longitude":"-1.512615"},"context":"","outcome_status":{"category":"Under investigation","date":"2025-12"},"persistent_id":"ac19d8243e2f3ce0ebd64430c615839c5c8dc34d2511ea4221b5513f3fc32700","id":133042999,"location_subtype":"","month":"2025-12"},{"category":"drugs","location_type":"Force","location":{"latitude":"52.415239","street":{"id":1648412,"name":"On or near Arthur Street"},"longitude":"-1.504229"},"context":"","outcome_status":{"category":"Local resolution","date":"2026-01"},"persistent_id":"5e77c62076f6684dbb9036993821ccbf3ff4f3c6716ecb1cb216117240dd0938","id":133044088,"location_subtype":"","month":"2025-12"},{"category":"drugs","location_type":"Force","location":{"latitude":"52.417632","street":{"id":1648229,"name":"On or near Electric Wharf"},"longitude":"-1.513289"},"context":"","outcome_status":{"category":"Under investigation","date":"2025-12"},"persistent_id":"c56cc7cc7d11049f18ffa4b4917b1f2b189e74385c145a95401836ac2dc2696d","id":133044601,"location_subtype":"","month":"2025-12"},{"category":"drugs","location_type":"Force","location":{"latitude":"52.409798","street":{"id":1648991,"name":"On or near St Michael's Road"},"longitude":"-1.482930"},"context":"","outcome_status":{"category":"Local resolution","date":"2025-12"},"persistent_id":"80d11c023481295480be31b5742e5cc51e1b92ac343742ab23fff475b231b3c0","id":133051237,"location_subtype":"","month":"2025-12"},{"category":"drugs","location_type":"Force","location":{"latitude":"52.409499","street":{"id":1648340,"name":"On or near Hill Top"},"longitude":"-1.507572"},"context":"","outcome_status":{"category":"Awaiting court outcome","date":"2026-01"},"persistent_id":"9bed416339b9eaf090cf21107dc8f6d8cc42dd97289e3d36dd783a916690e642","id":133054243,"location_subtype":"","month":"2025-12"},{"category":"drugs","location_type":"Force","location":{"latitude":"52.409798","street":{"id":1648991,"name":"On or near St Michael's Road"},"longitude":"-1.482930"},"context":"","outcome_status":{"category":"Local resolution","date":"2025-12"},"persistent_id":"570fbc798270cbfed8d0676fcde2f125937ed66665a3232cf8b73aec36dfe903","id":133052786,"location_subtype":"","month":"2025-12"},{"category":"drugs","location_type":"Force","location":{"latitude":"52.409798","street":{"id":1648991,"name":"On or near St Michael's Road"},"longitude":"-1.482930"},"context":"","outcome_status":{"category":"Unable to prosecute suspect","date":"2025-12"},"persistent_id":"c8d25570cd3f5ddf2e2dc29390fbac3202e8c868a44bafaa84032f6735656b49","id":133052808,"location_subtype":"","month":"2025-12"},{"category":"drugs","location_type":"Force","location":{"latitude":"52.405845","street":{"id":1648788,"name":"On or near St Margaret Road"},"longitude":"-1.491811"},"context":"","outcome_status":{"category":"Awaiting court outcome","date":"2025-12"},"persistent_id":"63809215529be6ff31036f1f2d08b5fd851c6fb0e1dcf7773bf21af7b44d6b41","id":133053114,"location_subtype":"","month":"2025-12"},{"category":"drugs","location_type":"Force","location":{"latitude":"52.406586","street":{"id":1648663,"name":"On or near Vecqueray Street"},"longitude":"-1.496859"},"context":"","outcome_status":{"category":"Unable to prosecute suspect","date":"2026-01"},"persistent_id":"ed20ae05e0152b916e8eb9abdd4dda41825180cbb33cb66f66befcf546f8e0ba","id":133057209,"location_subtype":"","month":"2025-12"},{"category":"drugs","location_type":"Force","location":{"latitude":"52.416999","street":{"id":1648305,"name":"On or near Canal View"},"longitude":"-1.510267"},"context":"","outcome_status":{"category":"Local resolution","date":"2026-01"},"persistent_id":"d68177a93c23160bb6b54b1101b78d3d34a653fdf265aac46aec1439fa79edc3","id":133057257,"location_subtype":"","month":"2025-12"},{"category":"drugs","location_type":"Force","location":{"latitude":"52.420322","street":{"id":1648210,"name":"On or near Caldecote Road"},"longitude":"-1.513833"},"context":"","outcome_status":{"category":"Awaiting court outcome","date":"2025-12"},"persistent_id":"de9e71487e0f8f8bde923d096b30dfe7227cafff88ca939fbb975ee6e325a926","id":133045678,"location_subtype":"","month":"2025-12"},{"category":"drugs","location_type":"Force","location":{"latitude":"52.414724","street":{"id":1648518,"name":"On or near Parking Area"},"longitude":"-1.501530"},"context":"","outcome_status":{"category":"Local resolution","date":"2026-01"},"persistent_id":"da95b548c796a4c80e484dff0e4f0506ce10d5d1bc266a282378c18b7add16a8","id":133034787,"location_subtype":"","month":"2025-12"},{"category":"drugs","location_type":"Force","location":{"latitude":"52.404171","street":{"id":1648617,"name":"On or near Harper Road"},"longitude":"-1.497621"},"context":"","outcome_status":{"category":"Under investigation","date":"2025-12"},"persistent_id":"794a199a20e4deaf1a3bc644ebeaf9e8ab0eced970bab6d3a718fe9ed5dd0220","id":133042476,"location_subtype":"","month":"2025-12"},{"category":"drugs","location_type":"Force","location":{"latitude":"52.407463","street":{"id":1648332,"name":"On or near Hay Lane"},"longitude":"-1.508638"},"context":"","outcome_status":{"category":"Local resolution","date":"2025-12"},"persistent_id":"c6b26c00904eb9910db8004a0a8202a23758a2158dddaebfc8b5df25c12de5e9","id":133052539,"location_subtype":"","month":"2025-12"},{"category":"drugs","location_type":"Force","location":{"latitude":"52.410124","street":{"id":1648283,"name":"On or near Burges"},"longitude":"-1.510799"},"context":"","outcome_status":{"category":"Investigation complete; no suspect identified","date":"2025-12"},"persistent_id":"a35e6362e828863f57926c3004224821036ad1ea3599281e7a9eb9fcd58d9094","id":133041940,"location_subtype":"","month":"2025-12"},{"category":"drugs","location_type":"Force","location":{"latitude":"52.408679","street":{"id":1648934,"name":"On or near Dean Street"},"longitude":"-1.486045"},"context":"","outcome_status":{"category":"Awaiting court outcome","date":"2026-01"},"persistent_id":"3e92e034a2ec9ffaa097e77f438fbe82d39275a988b75847c49045afe063f12d","id":133035511,"location_subtype":"","month":"2025-12"},{"category":"drugs","location_type":"Force","location":{"latitude":"52.414605","street":{"id":1648668,"name":"On or near Pensilva Way"},"longitude":"-1.496841"},"context":"","outcome_status":{"category":"Local resolution","date":"2025-12"},"persistent_id":"492408b388135beece7e54393014fca55fd57fe0a611719a34c4b09f2d275d8b","id":133054271,"location_subtype":"","month":"2025-12"},{"category":"drugs","location_type":"Force","location":{"latitude":"52.410124","street":{"id":1648283,"name":"On or near Burges"},"longitude":"-1.510799"},"context":"","outcome_status":{"category":"Under investigation","date":"2025-12"},"persistent_id":"aec7a3197b7514bc03ea7bb1e50a4ed6f7de1928d71191fd5f66539f073232da","id":133037437,"location_subtype":"","month":"2025-12"},{"category":"drugs","location_type":"Force","location":{"latitude":"52.404268","street":{"id":1648464,"name":"On or near Short Street"},"longitude":"-1.503441"},"context":"","outcome_status":{"category":"Local resolution","date":"2026-01"},"persistent_id":"ae470052ee78b8e2ee3896840337b0102e1136b849dbdf83ade2c7a7f2e900f7","id":133034488,"location_subtype":"","month":"2025-12"},{"category":"drugs","location_type":"Force","location":{"latitude":"52.409123","street":{"id":1648751,"name":"On or near Further/higher Educational Building"},"longitude":"-1.493052"},"context":"","outcome_status":{"category":"Local resolution","date":"2025-12"},"persistent_id":"0740588d9a91cedc2464c0c43dc4c97f45e9be2929d899d427b3119a1518c24d","id":133056112,"location_subtype":"","month":"2025-12"},{"category":"drugs","location_type":"Force","location":{"latitude":"52.409220","street":{"id":1648925,"name":"On or near Hamilton Road"},"longitude":"-1.486230"},"context":"","outcome_status":{"category":"Under investigation","date":"2025-12"},"persistent_id":"2c316b7bc3c563d4caad66d42423e242d27eb62c3e12fcb07c9e71a377288ac9","id":133038212,"location_subtype":"","month":"2025-12"},{"category":"drugs","location_type":"Force","location":{"latitude":"52.413404","street":{"id":1648850,"name":"On or near Cobb Close"},"longitude":"-1.489151"},"context":"","outcome_status":{"category":"Unable to prosecute suspect","date":"2025-12"},"persistent_id":"1f70d9b35f5e39a15bf8ef1903b644e7a59b4e742637418ea55278fb5d4b9555","id":133055097,"location_subtype":"","month":"2025-12"},{"category":"drugs","location_type":"Force","location":{"latitude":"52.406586","street":{"id":1648663,"name":"On or near Vecqueray Street"},"longitude":"-1.496859"},"context":"","outcome_status":{"category":"Local resolution","date":"2025-12"},"persistent_id":"fe78f53eb23d02cce06ff1b12f81cd2c25e112341b2fcda95b766be0577ce2fd","id":133039231,"location_subtype":"","month":"2025-12"},{"category":"drugs","location_type":"Force","location":{"latitude":"52.410124","street":{"id":1648283,"name":"On or near Burges"},"longitude":"-1.510799"},"context":"","outcome_status":{"category":"Local resolution","date":"2025-12"},"persistent_id":"5c392c6605a97bcabd8dd5f521e575f464165fa8aeb2dda01b6833e51097be4f","id":133039388,"location_subtype":"","month":"2025-12"},{"category":"other-theft","location_type":"Force","location":{"latitude":"52.405453","street":{"id":1648480,"name":"On or near White Friars Lane"},"longitude":"-1.503031"},"context":"","outcome_status":{"category":"Unable to prosecute suspect","date":"2025-12"},"persistent_id":"95cb881988317f645949b234e5de34f5c1886ad077c13eb79213eec8c3c7e009","id":133050683,"location_subtype":"","month":"2025-12"},{"category":"other-theft","location_type":"Force","location":{"latitude":"52.403707","street":{"id":1648272,"name":"On or near Friars' Road"},"longitude":"-1.511341"},"context":"","outcome_status":{"category":"Investigation complete; no suspect identified","date":"2025-12"},"persistent_id":"377352d852ee8298bf08fe3588dd29273b3ca535adbf9ae06ab2b7bd1f8c55af","id":133034863,"location_subtype":"","month":"2025-12"},{"category":"other-theft","location_type":"Force","location":{"latitude":"52.418149","street":{"id":1648482,"name":"On or near George Street"},"longitude":"-1.501506"},"context":"","outcome_status":{"category":"Unable to prosecute suspect","date":"2026-01"},"persistent_id":"71337bb62d362c461bb25d1872ef4f10210ab39ec2519fcb9c1edd2887b4d215","id":133034857,"location_subtype":"","month":"2025-12"},{"category":"other-theft","location_type":"Force","location":{"latitude":"52.397752","street":{"id":1648103,"name":"On or near Asthill Grove"},"longitude":"-1.514860"},"context":"","outcome_status":{"category":"Investigation complete; no suspect identified","date":"2025-12"},"persistent_id":"cf1bad85d5822302436aa031292c4a7e41d75037f82f311ae002541da7bbe554","id":133040874,"location_subtype":"","month":"2025-12"},{"category":"other-theft","location_type":"Force","location":{"latitude":"52.417659","street":{"id":1648571,"name":"On or near Cambridge Street"},"longitude":"-1.498189"},"context":"","outcome_status":{"category":"Investigation complete; no suspect identified","date":"2026-01"},"persistent_id":"dc97c5de9f3bd2fdc7218360f0708479b3416a7c374c3685c9cea8c3937a0d4b","id":133034757,"location_subtype":"","month":"2025-12"},{"category":"other-theft","location_type":"Force","location":{"latitude":"52.416532","street":{"id":1648294,"name":"On or near The Moorings"},"longitude":"-1.510464"},"context":"","outcome_status":{"category":"Unable to prosecute suspect","date":"2025-12"},"persistent_id":"5c4bd04d4569f1238b31f19887845ee8ebd45d602392fc6769bdb2f247b77c8b","id":133055382,"location_subtype":"","month":"2025-12"},{"category":"other-theft","location_type":"Force","location":{"latitude":"52.412080","street":{"id":1648602,"name":"On or near Kildale Close"},"longitude":"-1.499252"},"context":"","outcome_status":{"category":"Investigation complete; no suspect identified","date":"2025-12"},"persistent_id":"6b4dfbc9b61a65db96278e41cdf7e189f85490aa781f5d73f824e9b950c730a3","id":133054282,"location_subtype":"","month":"2025-12"},{"category":"other-theft","location_type":"Force","location":{"latitude":"52.410300","street":{"id":1648133,"name":"On or near Parking Area"},"longitude":"-1.516604"},"context":"","outcome_status":{"category":"Investigation complete; no suspect identified","date":"2025-12"},"persistent_id":"bd1dcfaca8520b934b686d9605325cbc986805adfeddbda0b59ee86d9dc1d7fd","id":133048293,"location_subtype":"","month":"2025-12"},{"category":"other-theft","location_type":"Force","location":{"latitude":"52.406095","street":{"id":1648434,"name":"On or near White Friars Street"},"longitude":"-1.503964"},"context":"","outcome_status":{"category":"Investigation complete; no suspect identified","date":"2025-12"},"persistent_id":"89e01ce2885993184fc073188d94b2a29da232a23d8f9ce902d3313e0658137c","id":133050702,"location_subtype":"","month":"2025-12"},{"category":"other-theft","location_type":"Force","location":{"latitude":"52.410677","street":{"id":1648143,"name":"On or near Upper Well Street"},"longitude":"-1.514204"},"context":"","outcome_status":{"category":"Unable to prosecute suspect","date":"2025-12"},"persistent_id":"122530f3e7c1c2beb5155e4ac21eef729966a23d2d41f2c7bdb4ce72111e8e42","id":133054328,"location_subtype":"","month":"2025-12"},{"category":"other-theft","location_type":"Force","location":{"latitude":"52.405067","street":{"id":1648259,"name":"On or near Parking Area"},"longitude":"-1.511913"},"context":"","outcome_status":{"category":"Investigation complete; no suspect identified","date":"2026-01"},"persistent_id":"11fbba7e1ce0a661d5dd119c00078fde7fd6325a1d64a14f2875929a4633617d","id":133034761,"location_subtype":"","month":"2025-12"},{"category":"other-theft","location_type":"Force","location":{"latitude":"52.422316","street":{"id":1648656,"name":"On or near Petrol Station"},"longitude":"-1.496239"},"context":"","outcome_status":{"category":"Investigation complete; no suspect identified","date":"2025-12"},"persistent_id":"c5dd8d904cdafc089c0fb8b5fb19abab91aa10f19c6d683885a428100ca5defe","id":133049755,"location_subtype":"","month":"2025-12"},{"category":"other-theft","location_type":"Force","location":{"latitude":"52.411035","street":{"id":1648665,"name":"On or near Spring Close"},"longitude":"-1.496544"},"context":"","outcome_status":{"category":"Investigation complete; no suspect identified","date":"2026-01"},"persistent_id":"ee8abc8c9ae318e9c6d20b1cbc23b414903267ad9f0f441b841a8bfc887f1438","id":133050711,"location_subtype":"","month":"2025-12"},{"category":"other-theft","location_type":"Force","location":{"latitude":"52.415766","street":{"id":1648315,"name":"On or near Harnall Lane West"},"longitude":"-1.507782"},"context":"","outcome_status":{"category":"Investigation complete; no suspect identified","date":"2025-12"},"persistent_id":"d123198e74891304402f63c44b2a4d9f0efc931d994fa66be547fb9c1d90c2cc","id":133056468,"location_subtype":"","month":"2025-12"},{"category":"other-theft","location_type":"Force","location":{"latitude":"52.404866","street":{"id":1648359,"name":"On or near St John's Street"},"longitude":"-1.506889"},"context":"","outcome_status":{"category":"Investigation complete; no suspect identified","date":"2025-12"},"persistent_id":"d00f343951bbcc8ae429b1c34c28b994858cfdaede93975ab4366f91a030d34c","id":133057025,"location_subtype":"","month":"2025-12"},{"category":"other-theft","location_type":"Force","location":{"latitude":"52.404146","street":{"id":1648684,"name":"On or near Willowbank Mews"},"longitude":"-1.495916"},"context":"","outcome_status":{"category":"Investigation complete; no suspect identified","date":"2026-01"},"persistent_id":"f2053aa27e319bf688f4ad1e5feaa052ebb4c458648d6d24f8f2b01d9205a6f1","id":133052195,"location_subtype":"","month":"2025-12"},{"category":"other-theft","location_type":"Force","location":{"latitude":"52.422316","street":{"id":1648656,"name":"On or near Petrol Station"},"longitude":"-1.496239"},"context":"","outcome_status":{"category":"Investigation complete; no suspect identified","date":"2025-12"},"persistent_id":"6c41306217e020a402e9dcf8ad7d1ef426d597dec3a1f4e9512d9dd3cb41a363","id":133049812,"location_subtype":"","month":"2025-12"},{"category":"other-theft","location_type":"Force","location":{"latitude":"52.409722","street":{"id":1648326,"name":"On or near Trinity Street"},"longitude":"-1.509363"},"context":"","outcome_status":{"category":"Investigation complete; no suspect identified","date":"2026-01"},"persistent_id":"8d70d58575054f90b747337c015d3b668bc2483de14161df0166933c58e0df8f","id":133045785,"location_subtype":"","month":"2025-12"},{"category":"other-theft","location_type":"Force","location":{"latitude":"52.409791","street":{"id":1648450,"name":"On or near Parking Area"},"longitude":"-1.504232"},"context":"","outcome_status":{"category":"Investigation complete; no suspect identified","date":"2025-12"},"persistent_id":"fc753477762ce6a981a960117bb09420861fa260af61edebcf8c5e11312065c6","id":133047309,"location_subtype":"","month":"2025-12"},{"category":"other-theft","location_type":"Force","location":{"latitude":"52.417101","street":{"id":1647938,"name":"On or near Nethermill Road"},"longitude":"-1.524161"},"context":"","outcome_status":{"category":"Under investigation","date":"2025-12"},"persistent_id":"67f6d3a90e7ca33eb6fa44d3db0710b93ea7c91b21794c511c4d8398d3ea6098","id":133056788,"location_subtype":"","month":"2025-12"},{"category":"other-theft","location_type":"Force","location":{"latitude":"52.418932","street":{"id":1648440,"name":"On or near Thornhill Road"},"longitude":"-1.503806"},"context":"","outcome_status":{"category":"Investigation complete; no suspect identified","date":"2025-12"},"persistent_id":"0a550af44c059041bdd3cff2eeb90876c79fae2ad5fc293358b06a11a393cd7e","id":133039210,"location_subtype":"","month":"2025-12"},{"category":"other-theft","location_type":"Force","location":{"latitude":"52.405854","street":{"id":1648752,"name":"On or near Monks Road"},"longitude":"-1.493913"},"context":"","outcome_status":{"category":"Unable to prosecute suspect","date":"2025-12"},"persistent_id":"00e98c11779b0531bb14520f4d86c70119a3ac46b9e040e3ec503383e4f3f0b8","id":133047421,"location_subtype":"","month":"2025-12"},{"category":"other-theft","location_type":"Force","location":{"latitude":"52.407311","street":{"id":1648317,"name":"On or near High Street"},"longitude":"-1.508978"},"context":"","outcome_status":{"category":"Unable to prosecute suspect","date":"2025-12"},"persistent_id":"8b935ab409229ca01591f3e7ac08ef8513e5259361b8951b567f5682d7ec9ad9","id":133052597,"location_subtype":"","month":"2025-12"},{"category":"other-theft","location_type":"Force","location":{"latitude":"52.411333","street":{"id":1647979,"name":"On or near Chester Street"},"longitude":"-1.522812"},"context":"","outcome_status":{"category":"Unable to prosecute suspect","date":"2025-12"},"persistent_id":"18cfa66dc72a1e595ddb8051799e72803e405d7757bd6ae1b2da7993bab443c1","id":133046537,"location_subtype":"","month":"2025-12"},{"category":"other-theft","location_type":"Force","location":{"latitude":"52.413405","street":{"id":1648442,"name":"On or near Swanswell Street"},"longitude":"-1.504221"},"context":"","outcome_status":{"category":"Unable to prosecute suspect","date":"2025-12"},"persistent_id":"0c8e7aa0941cb3c05f1c96c112cd83717d64e283b1eb3f118c7d537b34434afa","id":133046552,"location_subtype":"","month":"2025-12"},{"category":"other-theft","location_type":"Force","location":{"latitude":"52.413575","street":{"id":1648804,"name":"On or near Nicholls Street"},"longitude":"-1.491325"},"context":"","outcome_status":{"category":"Investigation complete; no suspect identified","date":"2025-12"},"persistent_id":"abfb67228a7268e7b67901e2616f210bea279f9bb6267101f30cd052651ae5ab","id":133041426,"location_subtype":"","month":"2025-12"},{"category":"other-theft","location_type":"Force","location":{"latitude":"52.408423","street":{"id":1648171,"name":"On or near Shopping Area"},"longitude":"-1.514831"},"context":"","outcome_status":{"category":"Investigation complete; no suspect identified","date":"2025-12"},"persistent_id":"6b9fc0b09ab5b9826a3586094efb34c1c0f39ea5aedb244bc7a62eb288ddb62e","id":133039949,"location_subtype":"","month":"2025-12"},{"category":"other-theft","location_type":"Force","location":{"latitude":"52.410677","street":{"id":1648143,"name":"On or near Upper Well Street"},"longitude":"-1.514204"},"context":"","outcome_status":{"category":"Investigation complete; no suspect identified","date":"2025-12"},"persistent_id":"9ec5d10c83e57690d90d8a36ae35bc2c30011bfc8e285542e9bcb742f070b6a7","id":133042769,"location_subtype":"","month":"2025-12"},{"category":"other-theft","location_type":"Force","location":{"latitude":"52.422644","street":{"id":1648353,"name":"On or near Spindle Street"},"longitude":"-1.507984"},"context":"","outcome_status":{"category":"Under investigation","date":"2025-12"},"persistent_id":"965bce0e00f2779c25ff357a9f9773e03f13749bb956d2c6fe4b6a811f1d54b6","id":133039205,"location_subtype":"","month":"2025-12"},{"category":"other-theft","location_type":"Force","location":{"latitude":"52.411598","street":{"id":1648278,"name":"On or near Parking Area"},"longitude":"-1.510651"},"context":"","outcome_status":{"category":"Awaiting court outcome","date":"2026-01"},"persistent_id":"12ccd7bff1b6c011848a92f22cfb1f0cf2e1bf0e2f1273c89de618bf0e40c7a4","id":133049795,"location_subtype":"","month":"2025-12"},{"category":"other-theft","location_type":"Force","location":{"latitude":"52.415165","street":{"id":1648696,"name":"On or near Adderley Street"},"longitude":"-1.495188"},"context":"","outcome_status":{"category":"Investigation complete; no suspect identified","date":"2025-12"},"persistent_id":"06c59aee52757e4742464cba5a91546484113bb4215b5ca78f884438fed7ebcf","id":133042826,"location_subtype":"","month":"2025-12"},{"category":"other-theft","location_type":"Force","location":{"latitude":"52.407271","street":{"id":1648658,"name":"On or near Nightclub"},"longitude":"-1.497174"},"context":"","outcome_status":{"category":"Investigation complete; no suspect identified","date":"2025-12"},"persistent_id":"c49533f476ea5fdd68c3ebf2f1441928aed021e12a26d77ae47b1bb19bf74690","id":133039975,"location_subtype":"","month":"2025-12"},{"category":"other-theft","location_type":"Force","location":{"latitude":"52.413362","street":{"id":1648288,"name":"On or near Leicester Row"},"longitude":"-1.511131"},"context":"","outcome_status":{"category":"Investigation complete; no suspect identified","date":"2025-12"},"persistent_id":"79117bd8b320d23d77dd60fa468f5c203711a86b77be6eb4cb04d218f9d7fc4c","id":133042737,"location_subtype":"","month":"2025-12"},{"category":"other-theft","location_type":"Force","location":{"latitude":"52.422316","street":{"id":1648656,"name":"On or near Petrol Station"},"longitude":"-1.496239"},"context":"","outcome_status":{"category":"Investigation complete; no suspect identified","date":"2026-01"},"persistent_id":"f9f28ec49a80f334b0a4cd8f17b53f090f20ce532eacef4d04470b9f838f3594","id":133034434,"location_subtype":"","month":"2025-12"},{"category":"other-theft","location_type":"Force","location":{"latitude":"52.410401","street":{"id":1647950,"name":"On or near Melville Road"},"longitude":"-1.523645"},"context":"","outcome_status":{"category":"Unable to prosecute suspect","date":"2025-12"},"persistent_id":"f231481950550cc5bd37d722802951c217bbe0676ee02b38664ab783f234559d","id":133040157,"location_subtype":"","month":"2025-12"},{"category":"other-theft","location_type":"Force","location":{"latitude":"52.410124","street":{"id":1648283,"name":"On or near Burges"},"longitude":"-1.510799"},"context":"","outcome_status":{"category":"Investigation complete; no suspect identified","date":"2026-01"},"persistent_id":"9a82a90e4ead67bf39fa7269628e1cb67f086d5dd6a570270ddc617a66c511ff","id":133054777,"location_subtype":"","month":"2025-12"},{"category":"other-theft","location_type":"Force","location":{"latitude":"52.409446","street":{"id":1648232,"name":"On or near Shopping Area"},"longitude":"-1.512144"},"context":"","outcome_status":{"category":"Investigation complete; no suspect identified","date":"2025-12"},"persistent_id":"017bd6bb7df58917e62c9e54323730031d1d16e4d9d01cc916775b1fcfa10e20","id":133044418,"location_subtype":"","month":"2025-12"},{"category":"other-theft","location_type":"Force","location":{"latitude":"52.409198","street":{"id":1647990,"name":"On or near Norfolk Street"},"longitude":"-1.521938"},"context":"","outcome_status":{"category":"Under investigation","date":"2025-12"},"persistent_id":"d266d0778882e3929563ebfeafcdf511c6aec7022c22ec14bc701bcf589ba060","id":133041872,"location_subtype":"","month":"2025-12"},{"category":"other-theft","location_type":"Force","location":{"latitude":"52.420418","street":{"id":1648437,"name":"On or near Lewis Road"},"longitude":"-1.504348"},"context":"","outcome_status":{"category":"Unable to prosecute suspect","date":"2026-01"},"persistent_id":"1cfda64931093c2ce2e0b825450391636fd4b63fe22ff93972837ff866b7f149","id":133039604,"location_subtype":"","month":"2025-12"},{"category":"other-theft","location_type":"Force","location":{"latitude":"52.410124","street":{"id":1648283,"name":"On or near Burges"},"longitude":"-1.510799"},"context":"","outcome_status":{"category":"Under investigation","date":"2025-12"},"persistent_id":"d5921ad9c0ec02269f0f08efa0a5a6f9efcf8260e4272ef0a6574e5d8db3a1a3","id":133050488,"location_subtype":"","month":"2025-12"},{"category":"other-theft","location_type":"Force","location":{"latitude":"52.403573","street":{"id":1647987,"name":"On or near Poppleton Close"},"longitude":"-1.522440"},"context":"","outcome_status":{"category":"Investigation complete; no suspect identified","date":"2025-12"},"persistent_id":"fc7c32605b576663b8e9a985951b6d00094deacb562649d1b8e7a33da3e523d0","id":133037094,"location_subtype":"","month":"2025-12"},{"category":"other-theft","location_type":"Force","location":{"latitude":"52.409722","street":{"id":1648326,"name":"On or near Trinity Street"},"longitude":"-1.509363"},"context":"","outcome_status":{"category":"Investigation complete; no suspect identified","date":"2025-12"},"persistent_id":"d2a75e9938dcf76fb63bf81eda3c6102fca117f1eebdf60e2b11622c681b8192","id":133050773,"location_subtype":"","month":"2025-12"},{"category":"other-theft","location_type":"Force","location":{"latitude":"52.403600","street":{"id":1648694,"name":"On or near Irving Road"},"longitude":"-1.494321"},"context":"","outcome_status":{"category":"Investigation complete; no suspect identified","date":"2025-12"},"persistent_id":"bc9552c5d1228b2f10764643021ee457af9f934fa4459e9c40a0a5d34e07a915","id":133049629,"location_subtype":"","month":"2025-12"},{"category":"other-theft","location_type":"Force","location":{"latitude":"52.410677","street":{"id":1648143,"name":"On or near Upper Well Street"},"longitude":"-1.514204"},"context":"","outcome_status":{"category":"Investigation complete; no suspect identified","date":"2026-01"},"persistent_id":"c8582b872558b8024a3143ff1b1ea03cd31655ae1e7a39bdc25ab4878a450211","id":133038629,"location_subtype":"","month":"2025-12"},{"category":"other-theft","location_type":"Force","location":{"latitude":"52.407463","street":{"id":1648332,"name":"On or near Hay Lane"},"longitude":"-1.508638"},"context":"","outcome_status":{"category":"Investigation complete; no suspect identified","date":"2025-12"},"persistent_id":"e58810bf2ee184acc790145946d788d0c15cbd07b603ed255a0a68f672dba526","id":133052934,"location_subtype":"","month":"2025-12"},{"category":"other-theft","location_type":"Force","location":{"latitude":"52.420596","street":{"id":1648276,"name":"On or near Newfield Road"},"longitude":"-1.510419"},"context":"","outcome_status":{"category":"Unable to prosecute suspect","date":"2025-12"},"persistent_id":"afdc981e7d0202bd8fe5cb4c341d64519c534bcd8d5c83575d15328c84457b06","id":133038705,"location_subtype":"","month":"2025-12"},{"category":"other-theft","location_type":"Force","location":{"latitude":"52.409034","street":{"id":1648312,"name":"On or near Ironmonger Row"},"longitude":"-1.510253"},"context":"","outcome_status":{"category":"Investigation complete; no suspect identified","date":"2025-12"},"persistent_id":"0759f82f02b8df2a93a40ef73e6cab565a247bfebbf384dcba250d9ada37794b","id":133053166,"location_subtype":"","month":"2025-12"},{"category":"other-theft","location_type":"Force","location":{"latitude":"52.407843","street":{"id":1648323,"name":"On or near Pepper Lane"},"longitude":"-1.509207"},"context":"","outcome_status":{"category":"Investigation complete; no suspect identified","date":"2025-12"},"persistent_id":"2e28fd99f05e1b04099b2d58bb9b1691c1c6bdf8037415b6f722968c8b17e3ed","id":133049542,"location_subtype":"","month":"2025-12"},{"category":"other-theft","location_type":"Force","location":{"latitude":"52.409525","street":{"id":1648543,"name":"On or near Lower Ford Street"},"longitude":"-1.500824"},"context":"","outcome_status":{"category":"Unable to prosecute suspect","date":"2025-12"},"persistent_id":"c8229b8be4a0f4cf0286fd67012fc96d448694ebade912c99cf7b8855e2f46ec","id":133052270,"location_subtype":"","month":"2025-12"},{"category":"other-theft","location_type":"Force","location":{"latitude":"52.406095","street":{"id":1648434,"name":"On or near White Friars Street"},"longitude":"-1.503964"},"context":"","outcome_status":{"category":"Investigation complete; no suspect identified","date":"2025-12"},"persistent_id":"5325d08ae816aa7e067674fdb0124bc2fd3c6f6308bc0d02ac3b31dd94331f2e","id":133052639,"location_subtype":"","month":"2025-12"},{"category":"other-theft","location_type":"Force","location":{"latitude":"52.408539","street":{"id":1648220,"name":"On or near Shopping Area"},"longitude":"-1.512448"},"context":"","outcome_status":{"category":"Investigation complete; no suspect identified","date":"2025-12"},"persistent_id":"16714527b2290597e5b78e70d6ef5091fb8c2020891b0820faf31966f174fd5e","id":133055231,"location_subtype":"","month":"2025-12"},{"category":"other-theft","location_type":"Force","location":{"latitude":"52.411508","street":{"id":1648313,"name":"On or near Chauntry Place"},"longitude":"-1.508535"},"context":"","outcome_status":{"category":"Investigation complete; no suspect identified","date":"2026-01"},"persistent_id":"23efe4621d98c41c42061dc48d61d23a6f86c53f4f3ade49fe917ed83a8637d9","id":133042606,"location_subtype":"","month":"2025-12"},{"category":"other-theft","location_type":"Force","location":{"latitude":"52.412653","street":{"id":1648099,"name":"On or near Middleborough Road"},"longitude":"-1.518181"},"context":"","outcome_status":{"category":"Investigation complete; no suspect identified","date":"2026-01"},"persistent_id":"932ef08881d0c9a3a334302b134990cbd256e0e76ea1dd9c8f3d62a4c6afd88c","id":133055622,"location_subtype":"","month":"2025-12"},{"category":"other-theft","location_type":"Force","location":{"latitude":"52.410797","street":{"id":1648214,"name":"On or near Chapel Street"},"longitude":"-1.512615"},"context":"","outcome_status":{"category":"Investigation complete; no suspect identified","date":"2026-01"},"persistent_id":"fc72be34b2cc292c24b60493472657334c5789e5bc9032464bef20d4a16dace2","id":133044921,"location_subtype":"","month":"2025-12"},{"category":"other-theft","location_type":"Force","location":{"latitude":"52.404475","street":{"id":1648129,"name":"On or near Ringway Queens"},"longitude":"-1.516638"},"context":"","outcome_status":{"category":"Investigation complete; no suspect identified","date":"2025-12"},"persistent_id":"18f505d935af04dc1feb3066c439070021828ca8a350dfcd7557d5b7e852df75","id":133056540,"location_subtype":"","month":"2025-12"},{"category":"other-theft","location_type":"Force","location":{"latitude":"52.409373","street":{"id":1648212,"name":"On or near Corporation Street"},"longitude":"-1.513983"},"context":"","outcome_status":{"category":"Investigation complete; no suspect identified","date":"2025-12"},"persistent_id":"74e9f0519cbfcf107f9d2ef99a90ae3c6a1358a2c6f0cbc5ed30b55e868a09fd","id":133053950,"location_subtype":"","month":"2025-12"},{"category":"other-theft","location_type":"Force","location":{"latitude":"52.408060","street":{"id":1648306,"name":"On or near Shopping Area"},"longitude":"-1.509631"},"context":"","outcome_status":{"category":"Investigation complete; no suspect identified","date":"2026-01"},"persistent_id":"8a51b879bc51077d0ff59767cf19524393d5b71ab4e39f30c07df3f6f710822e","id":133035405,"location_subtype":"","month":"2025-12"},{"category":"other-theft","location_type":"Force","location":{"latitude":"52.409034","street":{"id":1648312,"name":"On or near Ironmonger Row"},"longitude":"-1.510253"},"context":"","outcome_status":{"category":"Investigation complete; no suspect identified","date":"2026-01"},"persistent_id":"383e9bf1f773b88d9259eda10fe75674e7e382d57792a0feeca01bf1dcb17e08","id":133038941,"location_subtype":"","month":"2025-12"},{"category":"other-theft","location_type":"Force","location":{"latitude":"52.410677","street":{"id":1648143,"name":"On or near Upper Well Street"},"longitude":"-1.514204"},"context":"","outcome_status":{"category":"Investigation complete; no suspect identified","date":"2025-12"},"persistent_id":"ad83180835ed444f8f2c9cc27bb16a91047246ebc053f0ae9de955f47477ee55","id":133055005,"location_subtype":"","month":"2025-12"},{"category":"possession-of-weapons","location_type":"Force","location":{"latitude":"52.407873","street":{"id":1648719,"name":"On or near Far Gosford Street"},"longitude":"-1.495036"},"context":"","outcome_status":{"category":"Awaiting court outcome","date":"2025-12"},"persistent_id":"d93d634d90b5c1441991cbb9af4fd11ba32876db73f5ba9f7c7594f2737ede8b","id":133043766,"location_subtype":"","month":"2025-12"},{"category":"possession-of-weapons","location_type":"Force","location":{"latitude":"52.397752","street":{"id":1648103,"name":"On or near Asthill Grove"},"longitude":"-1.514860"},"context":"","outcome_status":{"category":"Awaiting court outcome","date":"2026-01"},"persistent_id":"346c7a2cb6b719ea12ce5434b1c817e3bbdd68aabe9d2a0437f4937a5c3b9a90","id":133050550,"location_subtype":"","month":"2025-12"},{"category":"possession-of-weapons","location_type":"Force","location":{"latitude":"52.416733","street":{"id":1648002,"name":"On or near Brightmere Road"},"longitude":"-1.522077"},"context":"","outcome_status":{"category":"Unable to prosecute suspect","date":"2025-12"},"persistent_id":"fb8d96c4e882cd64be9b9d3f4f1a9b3c0c001fe94cb76307514f2e3fdbdc24f4","id":133040779,"location_subtype":"","month":"2025-12"},{"category":"possession-of-weapons","location_type":"Force","location":{"latitude":"52.416733","street":{"id":1648002,"name":"On or near Brightmere Road"},"longitude":"-1.522077"},"context":"","outcome_status":{"category":"Awaiting court outcome","date":"2025-12"},"persistent_id":"ac608918d8bbdb1358526f610ed644ad9d8b8b19f11d7eb72812520c4af19b98","id":133040442,"location_subtype":"","month":"2025-12"},{"category":"possession-of-weapons","location_type":"Force","location":{"latitude":"52.411032","street":{"id":1647997,"name":"On or near Meriden Street"},"longitude":"-1.521845"},"context":"","outcome_status":{"category":"Awaiting court outcome","date":"2025-12"},"persistent_id":"18d3309c719d284fd32178be5e3eff2072e682d71e64dcad9cf748602a33389c","id":133046103,"location_subtype":"","month":"2025-12"},{"category":"possession-of-weapons","location_type":"Force","location":{"latitude":"52.408060","street":{"id":1648306,"name":"On or near Shopping Area"},"longitude":"-1.509631"},"context":"","outcome_status":{"category":"Awaiting court outcome","date":"2025-12"},"persistent_id":"27b2eae2817029b901f1d55981a199a00880aad6779a6b139efa4cae3cd2f521","id":133047621,"location_subtype":"","month":"2025-12"},{"category":"possession-of-weapons","location_type":"Force","location":{"latitude":"52.408176","street":{"id":1648969,"name":"On or near Marlborough Road"},"longitude":"-1.484051"},"context":"","outcome_status":{"category":"Awaiting court outcome","date":"2025-12"},"persistent_id":"20fc9bf5d3d1885fd2e98609fc24b84596ffd57fa4f6eb5e20efa8c88e9ff186","id":133039184,"location_subtype":"","month":"2025-12"},{"category":"possession-of-weapons","location_type":"Force","location":{"latitude":"52.410124","street":{"id":1648283,"name":"On or near Burges"},"longitude":"-1.510799"},"context":"","outcome_status":{"category":"Investigation complete; no suspect identified","date":"2026-01"},"persistent_id":"5df1f9248668549ec8cfcfd165ae0e68c35b37739e61315be5bf22a087ba10e6","id":133047089,"location_subtype":"","month":"2025-12"},{"category":"possession-of-weapons","location_type":"Force","location":{"latitude":"52.409798","street":{"id":1648991,"name":"On or near St Michael's Road"},"longitude":"-1.482930"},"context":"","outcome_status":{"category":"Awaiting court outcome","date":"2025-12"},"persistent_id":"292ca2cb8c3c0ba33154acaa07dd02a2b5c6fe2982a292823ac20def91faf255","id":133051291,"location_subtype":"","month":"2025-12"},{"category":"possession-of-weapons","location_type":"Force","location":{"latitude":"52.408581","street":{"id":1648320,"name":"On or near Trinity Lane"},"longitude":"-1.509464"},"context":"","outcome_status":{"category":"Unable to prosecute suspect","date":"2025-12"},"persistent_id":"0aa3a66fc4864708634ddd9f6ddeab5653a6fa6115892b2fafc59cefecc9b09e","id":133050168,"location_subtype":"","month":"2025-12"},{"category":"possession-of-weapons","location_type":"Force","location":{"latitude":"52.403600","street":{"id":1648694,"name":"On or near Irving Road"},"longitude":"-1.494321"},"context":"","outcome_status":{"category":"Under investigation","date":"2025-12"},"persistent_id":"e7a7c7f4a36003051bec8bbaa8a63f7814aa47fc194227ac6b74be6916d97002","id":133035029,"location_subtype":"","month":"2025-12"},{"category":"possession-of-weapons","location_type":"Force","location":{"latitude":"52.408581","street":{"id":1648320,"name":"On or near Trinity Lane"},"longitude":"-1.509464"},"context":"","outcome_status":{"category":"Investigation complete; no suspect identified","date":"2025-12"},"persistent_id":"3d1621eb390d3db0fe25b2919247f447d2417178efa29fb4684c7970e25c15bd","id":133042171,"location_subtype":"","month":"2025-12"},{"category":"possession-of-weapons","location_type":"Force","location":{"latitude":"52.404087","street":{"id":1647965,"name":"On or near Gordon Street"},"longitude":"-1.523007"},"context":"","outcome_status":{"category":"Unable to prosecute suspect","date":"2025-12"},"persistent_id":"0fe2bad5a419e0e7d8c4895a2d23331e878d0e74358a79470f3ad548dfdecb47","id":133044818,"location_subtype":"","month":"2025-12"},{"category":"possession-of-weapons","location_type":"Force","location":{"latitude":"52.406876","street":{"id":1648224,"name":"On or near Parking Area"},"longitude":"-1.512305"},"context":"","outcome_status":{"category":"Awaiting court outcome","date":"2025-12"},"persistent_id":"d69be0b7df3150d7208d1c62216288ad2e3e61d500fd5e7e7371e8fb5aa0f617","id":133050221,"location_subtype":"","month":"2025-12"},{"category":"possession-of-weapons","location_type":"Force","location":{"latitude":"52.411508","street":{"id":1648313,"name":"On or near Chauntry Place"},"longitude":"-1.508535"},"context":"","outcome_status":{"category":"Under investigation","date":"2025-12"},"persistent_id":"107c0539863676486e844c3032483a23ea456ec4c8200a39137b768aeed6e6a5","id":133034609,"location_subtype":"","month":"2025-12"},{"category":"possession-of-weapons","location_type":"Force","location":{"latitude":"52.409798","street":{"id":1648991,"name":"On or near St Michael's Road"},"longitude":"-1.482930"},"context":"","outcome_status":{"category":"Unable to prosecute suspect","date":"2025-12"},"persistent_id":"10a12586f18a2878aa87060b818e24d084b52ea8812aef51ba3894b7fd5a5ef0","id":133052821,"location_subtype":"","month":"2025-12"},{"category":"possession-of-weapons","location_type":"Force","location":{"latitude":"52.408679","street":{"id":1648934,"name":"On or near Dean Street"},"longitude":"-1.486045"},"context":"","outcome_status":{"category":"Awaiting court outcome","date":"2026-01"},"persistent_id":"3069a6f75955d691434bdfcafd5cb00e4910fe69fcedf4aa0342eb4df27f0729","id":133035513,"location_subtype":"","month":"2025-12"},{"category":"public-order","location_type":"Force","location":{"latitude":"52.410124","street":{"id":1648283,"name":"On or near Burges"},"longitude":"-1.510799"},"context":"","outcome_status":{"category":"Investigation complete; no suspect identified","date":"2026-01"},"persistent_id":"f3eac280c7f96c016d9be833aea67d4647891d1f192afa5dc4e029964206d665","id":133035840,"location_subtype":"","month":"2025-12"},{"category":"public-order","location_type":"Force","location":{"latitude":"52.406935","street":{"id":1648721,"name":"On or near Grafton Street"},"longitude":"-1.494282"},"context":"","outcome_status":{"category":"Unable to prosecute suspect","date":"2026-01"},"persistent_id":"de02c384fcd11dca21cd6faaca5e07a482580b1e1755ce26220245453643d054","id":133034777,"location_subtype":"","month":"2025-12"},{"category":"public-order","location_type":"Force","location":{"latitude":"52.404866","street":{"id":1648359,"name":"On or near St John's Street"},"longitude":"-1.506889"},"context":"","outcome_status":{"category":"Awaiting court outcome","date":"2026-01"},"persistent_id":"cf2ef77f04523d10cc65cd1ab854ac320c14e1bcfbbe698d9958d0d47af133d3","id":133035795,"location_subtype":"","month":"2025-12"},{"category":"public-order","location_type":"Force","location":{"latitude":"52.410124","street":{"id":1648283,"name":"On or near Burges"},"longitude":"-1.510799"},"context":"","outcome_status":{"category":"Unable to prosecute suspect","date":"2025-12"},"persistent_id":"40955cc4bad0967d41ef8363a3f101013375ae519bf13f9c04dc40bfaf19f8d9","id":133042167,"location_subtype":"","month":"2025-12"},{"category":"public-order","location_type":"Force","location":{"latitude":"52.412770","street":{"id":1648025,"name":"On or near Coundon Street"},"longitude":"-1.520370"},"context":"","outcome_status":{"category":"Unable to prosecute suspect","date":"2025-12"},"persistent_id":"c6de5d384632ec9cd6846892900c5f3a23c16026cb462c8d3f2427f4a4988bba","id":133054214,"location_subtype":"","month":"2025-12"},{"category":"public-order","location_type":"Force","location":{"latitude":"52.408608","street":{"id":1648673,"name":"On or near West Street"},"longitude":"-1.496630"},"context":"","outcome_status":{"category":"Under investigation","date":"2025-12"},"persistent_id":"c0a6bfa0ec5e3d9366b89fd5030d46a888909a87842edae47e48aa5f92c9d4ea","id":132923991,"location_subtype":"","month":"2025-12"},{"category":"public-order","location_type":"Force","location":{"latitude":"52.408131","street":{"id":1648327,"name":"On or near Shopping Area"},"longitude":"-1.509564"},"context":"","outcome_status":{"category":"Unable to prosecute suspect","date":"2025-12"},"persistent_id":"2570eefd04831e100f39ef4774ab7709fd068d9903a35f81b616c659c15ae564","id":133056854,"location_subtype":"","month":"2025-12"},{"category":"public-order","location_type":"Force","location":{"latitude":"52.412101","street":{"id":1647941,"name":"On or near Hawksworth Drive"},"longitude":"-1.523744"},"context":"","outcome_status":{"category":"Unable to prosecute suspect","date":"2025-12"},"persistent_id":"9b746ac717b3b19552b062bf72e02f8ad5fc95a3fd30f7eaa5e740f663a1c01d","id":133055696,"location_subtype":"","month":"2025-12"},{"category":"public-order","location_type":"Force","location":{"latitude":"52.413463","street":{"id":1648208,"name":"On or near St Columba's Close"},"longitude":"-1.513909"},"context":"","outcome_status":{"category":"Unable to prosecute suspect","date":"2025-12"},"persistent_id":"8b52c369b36f87038e6005af777f974d86ac2dcbf4e9a117897a7ce1b9dc805d","id":133049999,"location_subtype":"","month":"2025-12"},{"category":"public-order","location_type":"Force","location":{"latitude":"52.407863","street":{"id":1648754,"name":"On or near Shopping Area"},"longitude":"-1.493704"},"context":"","outcome_status":{"category":"Awaiting court outcome","date":"2025-12"},"persistent_id":"63c5e960c29c06914cd46ea85d5aa7ec7623ad2821916e9c0700774396969985","id":133043764,"location_subtype":"","month":"2025-12"},{"category":"public-order","location_type":"Force","location":{"latitude":"52.406089","street":{"id":1647926,"name":"On or near Parking Area"},"longitude":"-1.524573"},"context":"","outcome_status":{"category":"Investigation complete; no suspect identified","date":"2026-01"},"persistent_id":"6e4260de512bf240402603d015e751f6b6504956fe55dee8a800f698edf11657","id":133034662,"location_subtype":"","month":"2025-12"},{"category":"public-order","location_type":"Force","location":{"latitude":"52.418446","street":{"id":1648657,"name":"On or near Keppel Street"},"longitude":"-1.497209"},"context":"","outcome_status":{"category":"Investigation complete; no suspect identified","date":"2025-12"},"persistent_id":"5e3dd1f31bf672e5eb1e1f71be9b908cd7646a6bb3fe1f7e35670a91f2904104","id":133050185,"location_subtype":"","month":"2025-12"},{"category":"public-order","location_type":"Force","location":{"latitude":"52.408539","street":{"id":1648220,"name":"On or near Shopping Area"},"longitude":"-1.512448"},