[{"category":"anti-social-behaviour","location_type":"Force","location":{"latitude":"52.476584","street":{"id":1532857,"name":"On or near Poplar Avenue"},"longitude":"-1.460358"},"context":"","outcome_status":null,"persistent_id":"","id":127986549,"location_subtype":"","month":"2025-05"},{"category":"anti-social-behaviour","location_type":"Force","location":{"latitude":"52.480488","street":{"id":1532398,"name":"On or near Shopping Area"},"longitude":"-1.478922"},"context":"","outcome_status":null,"persistent_id":"","id":127986497,"location_subtype":"","month":"2025-05"},{"category":"anti-social-behaviour","location_type":"Force","location":{"latitude":"52.488751","street":{"id":1532476,"name":"On or near John Knight Road"},"longitude":"-1.475098"},"context":"","outcome_status":null,"persistent_id":"","id":127986472,"location_subtype":"","month":"2025-05"},{"category":"anti-social-behaviour","location_type":"Force","location":{"latitude":"52.473976","street":{"id":1532762,"name":"On or near Walter Scott Road"},"longitude":"-1.464158"},"context":"","outcome_status":null,"persistent_id":"","id":127986437,"location_subtype":"","month":"2025-05"},{"category":"anti-social-behaviour","location_type":"Force","location":{"latitude":"52.478587","street":{"id":1532536,"name":"On or near High Street"},"longitude":"-1.471921"},"context":"","outcome_status":null,"persistent_id":"","id":127986434,"location_subtype":"","month":"2025-05"},{"category":"anti-social-behaviour","location_type":"Force","location":{"latitude":"52.484685","street":{"id":1532400,"name":"On or near Barton Road"},"longitude":"-1.478519"},"context":"","outcome_status":null,"persistent_id":"","id":127986571,"location_subtype":"","month":"2025-05"},{"category":"anti-social-behaviour","location_type":"Force","location":{"latitude":"52.478587","street":{"id":1532536,"name":"On or near High Street"},"longitude":"-1.471921"},"context":"","outcome_status":null,"persistent_id":"","id":127986548,"location_subtype":"","month":"2025-05"},{"category":"anti-social-behaviour","location_type":"Force","location":{"latitude":"52.479171","street":{"id":1532326,"name":"On or near Thomas Street"},"longitude":"-1.482029"},"context":"","outcome_status":null,"persistent_id":"","id":127986399,"location_subtype":"","month":"2025-05"},{"category":"anti-social-behaviour","location_type":"Force","location":{"latitude":"52.482652","street":{"id":1532713,"name":"On or near Johnson Road"},"longitude":"-1.466159"},"context":"","outcome_status":null,"persistent_id":"","id":127986403,"location_subtype":"","month":"2025-05"},{"category":"anti-social-behaviour","location_type":"Force","location":{"latitude":"52.484251","street":{"id":1532526,"name":"On or near Leicester Road"},"longitude":"-1.473900"},"context":"","outcome_status":null,"persistent_id":"","id":127986431,"location_subtype":"","month":"2025-05"},{"category":"anti-social-behaviour","location_type":"Force","location":{"latitude":"52.484993","street":{"id":1532525,"name":"On or near Old Arden Close"},"longitude":"-1.473022"},"context":"","outcome_status":null,"persistent_id":"","id":127986432,"location_subtype":"","month":"2025-05"},{"category":"anti-social-behaviour","location_type":"Force","location":{"latitude":"52.478587","street":{"id":1532536,"name":"On or near High Street"},"longitude":"-1.471921"},"context":"","outcome_status":null,"persistent_id":"","id":127986433,"location_subtype":"","month":"2025-05"},{"category":"anti-social-behaviour","location_type":"Force","location":{"latitude":"52.473566","street":{"id":1532175,"name":"On or near Hollyhurst"},"longitude":"-1.489235"},"context":"","outcome_status":null,"persistent_id":"","id":127987368,"location_subtype":"","month":"2025-05"},{"category":"anti-social-behaviour","location_type":"Force","location":{"latitude":"52.483272","street":{"id":1532312,"name":"On or near Newdegate Road"},"longitude":"-1.482408"},"context":"","outcome_status":null,"persistent_id":"","id":127987277,"location_subtype":"","month":"2025-05"},{"category":"anti-social-behaviour","location_type":"Force","location":{"latitude":"52.470844","street":{"id":1532118,"name":"On or near Constance Close"},"longitude":"-1.491740"},"context":"","outcome_status":null,"persistent_id":"","id":127987276,"location_subtype":"","month":"2025-05"},{"category":"anti-social-behaviour","location_type":"Force","location":{"latitude":"52.486031","street":{"id":1532292,"name":"On or near Girtin Close"},"longitude":"-1.484172"},"context":"","outcome_status":null,"persistent_id":"","id":127987246,"location_subtype":"","month":"2025-05"},{"category":"anti-social-behaviour","location_type":"Force","location":{"latitude":"52.480966","street":{"id":1532131,"name":"On or near Woodlands Road"},"longitude":"-1.491579"},"context":"","outcome_status":null,"persistent_id":"","id":127987245,"location_subtype":"","month":"2025-05"},{"category":"anti-social-behaviour","location_type":"Force","location":{"latitude":"52.479882","street":{"id":1532557,"name":"On or near Parking Area"},"longitude":"-1.471920"},"context":"","outcome_status":null,"persistent_id":"","id":127987210,"location_subtype":"","month":"2025-05"},{"category":"anti-social-behaviour","location_type":"Force","location":{"latitude":"52.483451","street":{"id":1532732,"name":"On or near Evans Close"},"longitude":"-1.466017"},"context":"","outcome_status":null,"persistent_id":"","id":127987149,"location_subtype":"","month":"2025-05"},{"category":"anti-social-behaviour","location_type":"Force","location":{"latitude":"52.483451","street":{"id":1532732,"name":"On or near Evans Close"},"longitude":"-1.466017"},"context":"","outcome_status":null,"persistent_id":"","id":127987148,"location_subtype":"","month":"2025-05"},{"category":"anti-social-behaviour","location_type":"Force","location":{"latitude":"52.488405","street":{"id":1532571,"name":"On or near Orchard Street"},"longitude":"-1.472083"},"context":"","outcome_status":null,"persistent_id":"","id":127987143,"location_subtype":"","month":"2025-05"},{"category":"anti-social-behaviour","location_type":"Force","location":{"latitude":"52.479983","street":{"id":1532531,"name":"On or near Shopping Area"},"longitude":"-1.474378"},"context":"","outcome_status":null,"persistent_id":"","id":127987141,"location_subtype":"","month":"2025-05"},{"category":"anti-social-behaviour","location_type":"Force","location":{"latitude":"52.479759","street":{"id":1532507,"name":"On or near Church Way"},"longitude":"-1.474660"},"context":"","outcome_status":null,"persistent_id":"","id":127987140,"location_subtype":"","month":"2025-05"},{"category":"anti-social-behaviour","location_type":"Force","location":{"latitude":"52.488751","street":{"id":1532476,"name":"On or near John Knight Road"},"longitude":"-1.475098"},"context":"","outcome_status":null,"persistent_id":"","id":127987106,"location_subtype":"","month":"2025-05"},{"category":"anti-social-behaviour","location_type":"Force","location":{"latitude":"52.468102","street":{"id":1532330,"name":"On or near Coventry Road Exhall"},"longitude":"-1.481364"},"context":"","outcome_status":null,"persistent_id":"","id":127987105,"location_subtype":"","month":"2025-05"},{"category":"anti-social-behaviour","location_type":"Force","location":{"latitude":"52.484251","street":{"id":1532526,"name":"On or near Leicester Road"},"longitude":"-1.473900"},"context":"","outcome_status":null,"persistent_id":"","id":127987334,"location_subtype":"","month":"2025-05"},{"category":"anti-social-behaviour","location_type":"Force","location":{"latitude":"52.480159","street":{"id":1532433,"name":"On or near Bus/coach Station"},"longitude":"-1.477644"},"context":"","outcome_status":null,"persistent_id":"","id":127987300,"location_subtype":"","month":"2025-05"},{"category":"anti-social-behaviour","location_type":"Force","location":{"latitude":"52.482950","street":{"id":1532823,"name":"On or near Acacia Crescent"},"longitude":"-1.460604"},"context":"","outcome_status":null,"persistent_id":"","id":127986926,"location_subtype":"","month":"2025-05"},{"category":"anti-social-behaviour","location_type":"Force","location":{"latitude":"52.483450","street":{"id":1532646,"name":"On or near Willis Grove"},"longitude":"-1.467636"},"context":"","outcome_status":null,"persistent_id":"","id":127986924,"location_subtype":"","month":"2025-05"},{"category":"anti-social-behaviour","location_type":"Force","location":{"latitude":"52.483450","street":{"id":1532646,"name":"On or near Willis Grove"},"longitude":"-1.467636"},"context":"","outcome_status":null,"persistent_id":"","id":127986923,"location_subtype":"","month":"2025-05"},{"category":"anti-social-behaviour","location_type":"Force","location":{"latitude":"52.478428","street":{"id":1532459,"name":"On or near The Mews"},"longitude":"-1.476664"},"context":"","outcome_status":null,"persistent_id":"","id":127986921,"location_subtype":"","month":"2025-05"},{"category":"anti-social-behaviour","location_type":"Force","location":{"latitude":"52.489900","street":{"id":1532448,"name":"On or near Brook Street"},"longitude":"-1.476822"},"context":"","outcome_status":null,"persistent_id":"","id":127986919,"location_subtype":"","month":"2025-05"},{"category":"anti-social-behaviour","location_type":"Force","location":{"latitude":"52.479983","street":{"id":1532531,"name":"On or near Shopping Area"},"longitude":"-1.474378"},"context":"","outcome_status":null,"persistent_id":"","id":127986896,"location_subtype":"","month":"2025-05"},{"category":"anti-social-behaviour","location_type":"Force","location":{"latitude":"52.470844","street":{"id":1532118,"name":"On or near Constance Close"},"longitude":"-1.491740"},"context":"","outcome_status":null,"persistent_id":"","id":127986894,"location_subtype":"","month":"2025-05"},{"category":"anti-social-behaviour","location_type":"Force","location":{"latitude":"52.479983","street":{"id":1532531,"name":"On or near Shopping Area"},"longitude":"-1.474378"},"context":"","outcome_status":null,"persistent_id":"","id":127986763,"location_subtype":"","month":"2025-05"},{"category":"anti-social-behaviour","location_type":"Force","location":{"latitude":"52.481389","street":{"id":1532589,"name":"On or near Wyatt Court"},"longitude":"-1.471342"},"context":"","outcome_status":null,"persistent_id":"","id":127987012,"location_subtype":"","month":"2025-05"},{"category":"anti-social-behaviour","location_type":"Force","location":{"latitude":"52.479983","street":{"id":1532531,"name":"On or near Shopping Area"},"longitude":"-1.474378"},"context":"","outcome_status":null,"persistent_id":"","id":127986978,"location_subtype":"","month":"2025-05"},{"category":"anti-social-behaviour","location_type":"Force","location":{"latitude":"52.471074","street":{"id":1532195,"name":"On or near Silk Weavers Way"},"longitude":"-1.486747"},"context":"","outcome_status":null,"persistent_id":"","id":127986976,"location_subtype":"","month":"2025-05"},{"category":"anti-social-behaviour","location_type":"Force","location":{"latitude":"52.478555","street":{"id":1532153,"name":"On or near A444"},"longitude":"-1.489104"},"context":"","outcome_status":null,"persistent_id":"","id":127986975,"location_subtype":"","month":"2025-05"},{"category":"anti-social-behaviour","location_type":"Force","location":{"latitude":"52.479882","street":{"id":1532557,"name":"On or near Parking Area"},"longitude":"-1.471920"},"context":"","outcome_status":null,"persistent_id":"","id":127986720,"location_subtype":"","month":"2025-05"},{"category":"anti-social-behaviour","location_type":"Force","location":{"latitude":"52.478587","street":{"id":1532536,"name":"On or near High Street"},"longitude":"-1.471921"},"context":"","outcome_status":null,"persistent_id":"","id":127986719,"location_subtype":"","month":"2025-05"},{"category":"anti-social-behaviour","location_type":"Force","location":{"latitude":"52.479983","street":{"id":1532531,"name":"On or near Shopping Area"},"longitude":"-1.474378"},"context":"","outcome_status":null,"persistent_id":"","id":127986718,"location_subtype":"","month":"2025-05"},{"category":"anti-social-behaviour","location_type":"Force","location":{"latitude":"52.482652","street":{"id":1532713,"name":"On or near Johnson Road"},"longitude":"-1.466159"},"context":"","outcome_status":null,"persistent_id":"","id":127986685,"location_subtype":"","month":"2025-05"},{"category":"anti-social-behaviour","location_type":"Force","location":{"latitude":"52.479242","street":{"id":1532588,"name":"On or near King Street"},"longitude":"-1.469631"},"context":"","outcome_status":null,"persistent_id":"","id":127986684,"location_subtype":"","month":"2025-05"},{"category":"anti-social-behaviour","location_type":"Force","location":{"latitude":"52.480966","street":{"id":1532131,"name":"On or near Woodlands Road"},"longitude":"-1.491579"},"context":"","outcome_status":null,"persistent_id":"","id":127986681,"location_subtype":"","month":"2025-05"},{"category":"anti-social-behaviour","location_type":"Force","location":{"latitude":"52.479155","street":{"id":1532468,"name":"On or near Roadway Close"},"longitude":"-1.476405"},"context":"","outcome_status":null,"persistent_id":"","id":127986650,"location_subtype":"","month":"2025-05"},{"category":"anti-social-behaviour","location_type":"Force","location":{"latitude":"52.482950","street":{"id":1532823,"name":"On or near Acacia Crescent"},"longitude":"-1.460604"},"context":"","outcome_status":null,"persistent_id":"","id":127987057,"location_subtype":"","month":"2025-05"},{"category":"anti-social-behaviour","location_type":"Force","location":{"latitude":"52.485684","street":{"id":1532812,"name":"On or near Pine Tree Road"},"longitude":"-1.462735"},"context":"","outcome_status":null,"persistent_id":"","id":127987056,"location_subtype":"","month":"2025-05"},{"category":"anti-social-behaviour","location_type":"Force","location":{"latitude":"52.485388","street":{"id":1532512,"name":"On or near The Leys"},"longitude":"-1.474947"},"context":"","outcome_status":null,"persistent_id":"","id":127987052,"location_subtype":"","month":"2025-05"},{"category":"anti-social-behaviour","location_type":"Force","location":{"latitude":"52.486064","street":{"id":1532444,"name":"On or near Cheltenham Close"},"longitude":"-1.477354"},"context":"","outcome_status":null,"persistent_id":"","id":127987051,"location_subtype":"","month":"2025-05"},{"category":"anti-social-behaviour","location_type":"Force","location":{"latitude":"52.478587","street":{"id":1532536,"name":"On or near High Street"},"longitude":"-1.471921"},"context":"","outcome_status":null,"persistent_id":"","id":127986623,"location_subtype":"","month":"2025-05"},{"category":"anti-social-behaviour","location_type":"Force","location":{"latitude":"52.479983","street":{"id":1532531,"name":"On or near Shopping Area"},"longitude":"-1.474378"},"context":"","outcome_status":null,"persistent_id":"","id":127986597,"location_subtype":"","month":"2025-05"},{"category":"anti-social-behaviour","location_type":"Force","location":{"latitude":"52.478007","street":{"id":1532215,"name":"On or near Croft Pool"},"longitude":"-1.487270"},"context":"","outcome_status":null,"persistent_id":"","id":127986594,"location_subtype":"","month":"2025-05"},{"category":"bicycle-theft","location_type":"Force","location":{"latitude":"52.478428","street":{"id":1532459,"name":"On or near The Mews"},"longitude":"-1.476664"},"context":"","outcome_status":{"category":"Investigation complete; no suspect identified","date":"2025-05"},"persistent_id":"8b0566e6fb8ffd981ba3a3d85763b79625f328b158d81589f9f086a3a79658ad","id":127984794,"location_subtype":"","month":"2025-05"},{"category":"bicycle-theft","location_type":"Force","location":{"latitude":"52.486037","street":{"id":1532833,"name":"On or near Furnace Road"},"longitude":"-1.461288"},"context":"","outcome_status":{"category":"Investigation complete; no suspect identified","date":"2025-05"},"persistent_id":"3bb2bf2b6d34d1069f26029cd1817eb0cc1d6ebbfa1c793322490dcb43481953","id":127983594,"location_subtype":"","month":"2025-05"},{"category":"burglary","location_type":"Force","location":{"latitude":"52.484268","street":{"id":1532432,"name":"On or near Tulliver Close"},"longitude":"-1.477876"},"context":"","outcome_status":{"category":"Investigation complete; no suspect identified","date":"2025-05"},"persistent_id":"5ac8675fb0870563739c69d1d106b35d61b9d572f835e0f143d165db2fe1a52f","id":127984363,"location_subtype":"","month":"2025-05"},{"category":"burglary","location_type":"Force","location":{"latitude":"52.466002","street":{"id":1532506,"name":"On or near Brindley Road"},"longitude":"-1.474162"},"context":"","outcome_status":{"category":"Investigation complete; no suspect identified","date":"2025-06"},"persistent_id":"95ef6603ecce0eee686f5f950da492cfd53626fb61c8fe887f18e00cd08832af","id":127984137,"location_subtype":"","month":"2025-05"},{"category":"burglary","location_type":"Force","location":{"latitude":"52.485312","street":{"id":1532659,"name":"On or near Downing Crescent"},"longitude":"-1.467908"},"context":"","outcome_status":{"category":"Investigation complete; no suspect identified","date":"2025-06"},"persistent_id":"1fa72661affcc7c12e4aedc3cd469166722d1571c9637de9652cea2ab1a884ef","id":127984800,"location_subtype":"","month":"2025-05"},{"category":"burglary","location_type":"Force","location":{"latitude":"52.490137","street":{"id":1532467,"name":"On or near Hill Street"},"longitude":"-1.473506"},"context":"","outcome_status":{"category":"Investigation complete; no suspect identified","date":"2025-06"},"persistent_id":"d1333f9354e21ad3cec1a7790eb73735d78e74465e31bc8c299775bc035b0d1e","id":127985005,"location_subtype":"","month":"2025-05"},{"category":"burglary","location_type":"Force","location":{"latitude":"52.476276","street":{"id":1532220,"name":"On or near Sharratt Road"},"longitude":"-1.486127"},"context":"","outcome_status":{"category":"Investigation complete; no suspect identified","date":"2025-07"},"persistent_id":"bf9fc1417e98e615361054432aead59a7bcfb749b931525fd1dce829d43b35f2","id":127983402,"location_subtype":"","month":"2025-05"},{"category":"burglary","location_type":"Force","location":{"latitude":"52.479747","street":{"id":1532723,"name":"On or near Tintern Way"},"longitude":"-1.465973"},"context":"","outcome_status":{"category":"Investigation complete; no suspect identified","date":"2025-07"},"persistent_id":"8fa14ad9d8791b4531ff741c11ddcf5892f1e9dd3da082c9eb9bbd87bc3aa4e3","id":127983177,"location_subtype":"","month":"2025-05"},{"category":"burglary","location_type":"Force","location":{"latitude":"52.474242","street":{"id":1532302,"name":"On or near Didsbury Road"},"longitude":"-1.483368"},"context":"","outcome_status":{"category":"Unable to prosecute suspect","date":"2025-07"},"persistent_id":"1bd3f6eecc9a9948df6f8669e036620db0ffb4f061268f5a76a89b017e83e9fd","id":127986290,"location_subtype":"","month":"2025-05"},{"category":"burglary","location_type":"Force","location":{"latitude":"52.465804","street":{"id":1532457,"name":"On or near Crondal Road"},"longitude":"-1.476136"},"context":"","outcome_status":{"category":"Investigation complete; no suspect identified","date":"2025-10"},"persistent_id":"3b56694a3bf466e07ee209c2939ecfcf25d96ff8e751100f8708014a56eebf52","id":127984894,"location_subtype":"","month":"2025-05"},{"category":"burglary","location_type":"Force","location":{"latitude":"52.486944","street":{"id":1532390,"name":"On or near Holbein Close"},"longitude":"-1.479125"},"context":"","outcome_status":{"category":"Investigation complete; no suspect identified","date":"2025-09"},"persistent_id":"0cb27dd0654782792086ec7a3d26e3b3e9622b3c12a13cef3fdbc5a5eb157a80","id":127985275,"location_subtype":"","month":"2025-05"},{"category":"burglary","location_type":"Force","location":{"latitude":"52.479882","street":{"id":1532557,"name":"On or near Parking Area"},"longitude":"-1.471920"},"context":"","outcome_status":{"category":"Investigation complete; no suspect identified","date":"2025-05"},"persistent_id":"969c06c1898b572ebabfe3c13aa1733f38ad88aa8a84c65a630fc5d6bee42c16","id":127983601,"location_subtype":"","month":"2025-05"},{"category":"criminal-damage-arson","location_type":"Force","location":{"latitude":"52.479882","street":{"id":1532557,"name":"On or near Parking Area"},"longitude":"-1.471920"},"context":"","outcome_status":{"category":"Investigation complete; no suspect identified","date":"2025-06"},"persistent_id":"7256ea5229afe1562d526f28caf9f65f9f4268e18bedb9cc89183c31e4b7ac8c","id":127985016,"location_subtype":"","month":"2025-05"},{"category":"criminal-damage-arson","location_type":"Force","location":{"latitude":"52.479155","street":{"id":1532468,"name":"On or near Roadway Close"},"longitude":"-1.476405"},"context":"","outcome_status":{"category":"Unable to prosecute suspect","date":"2025-05"},"persistent_id":"d254e27d1c42811b8870fd0fccf33ebe24901684c07b39e5d6a1c9d7ebdf5767","id":127984807,"location_subtype":"","month":"2025-05"},{"category":"criminal-damage-arson","location_type":"Force","location":{"latitude":"52.480159","street":{"id":1532433,"name":"On or near Bus/coach Station"},"longitude":"-1.477644"},"context":"","outcome_status":{"category":"Unable to prosecute suspect","date":"2025-05"},"persistent_id":"08b2b01f249bcc4a58e280b7a89f2d6d0275955896b3156e7c60d426cefd5b61","id":127985553,"location_subtype":"","month":"2025-05"},{"category":"criminal-damage-arson","location_type":"Force","location":{"latitude":"52.479155","street":{"id":1532468,"name":"On or near Roadway Close"},"longitude":"-1.476405"},"context":"","outcome_status":{"category":"Investigation complete; no suspect identified","date":"2025-05"},"persistent_id":"b2b3c32b54807a4141c52ac37e311a3befd85acbe473cb8ce4a322070ac9c025","id":127984149,"location_subtype":"","month":"2025-05"},{"category":"criminal-damage-arson","location_type":"Force","location":{"latitude":"52.486944","street":{"id":1532390,"name":"On or near Holbein Close"},"longitude":"-1.479125"},"context":"","outcome_status":{"category":"Unable to prosecute suspect","date":"2025-05"},"persistent_id":"9ac22751219050dffb4a3fd1dfbf71df8b5a1002947812a7609c9ecf47cddb36","id":127984018,"location_subtype":"","month":"2025-05"},{"category":"criminal-damage-arson","location_type":"Force","location":{"latitude":"52.480488","street":{"id":1532398,"name":"On or near Shopping Area"},"longitude":"-1.478922"},"context":"","outcome_status":{"category":"Investigation complete; no suspect identified","date":"2025-06"},"persistent_id":"5da8d0dc9952acc9ef5d86b31c7e23fc81cde3a3c930a6e041f6954ac14bb7a1","id":127985973,"location_subtype":"","month":"2025-05"},{"category":"criminal-damage-arson","location_type":"Force","location":{"latitude":"52.474657","street":{"id":1532503,"name":"On or near Petrol Station"},"longitude":"-1.475693"},"context":"","outcome_status":{"category":"Investigation complete; no suspect identified","date":"2025-05"},"persistent_id":"defb9c2e5acb192f321e5d6dbc7a55be3aac87439b9894cfe50fbb9285da1936","id":127983725,"location_subtype":"","month":"2025-05"},{"category":"criminal-damage-arson","location_type":"Force","location":{"latitude":"52.481355","street":{"id":1532534,"name":"On or near Supermarket"},"longitude":"-1.473596"},"context":"","outcome_status":{"category":"Unable to prosecute suspect","date":"2025-06"},"persistent_id":"d4c6ed8c6e255f63ddb1addf5a5dd63918dc8ee338b42a1d22558028c34ac743","id":127983184,"location_subtype":"","month":"2025-05"},{"category":"criminal-damage-arson","location_type":"Force","location":{"latitude":"52.469824","street":{"id":1532322,"name":"On or near Field View Close"},"longitude":"-1.482507"},"context":"","outcome_status":{"category":"Unable to prosecute suspect","date":"2025-08"},"persistent_id":"73b75d9a2ed232fe8ca955e756e53e346e13eb724812eea099f9be9a6553d074","id":127983489,"location_subtype":"","month":"2025-05"},{"category":"criminal-damage-arson","location_type":"Force","location":{"latitude":"52.480488","street":{"id":1532398,"name":"On or near Shopping Area"},"longitude":"-1.478922"},"context":"","outcome_status":{"category":"Investigation complete; no suspect identified","date":"2025-06"},"persistent_id":"2bfd9f30938c12fb2da0181a2119e5f5679676d23b24480b8e3f4822e31acd6b","id":127985972,"location_subtype":"","month":"2025-05"},{"category":"drugs","location_type":"Force","location":{"latitude":"52.482079","street":{"id":1532734,"name":"On or near Tewkesbury Drive"},"longitude":"-1.464826"},"context":"","outcome_status":{"category":"Investigation complete; no suspect identified","date":"2025-08"},"persistent_id":"77771f4bd96e402cbad05a675178e05096f511332e6864da88ab7b489b1a522f","id":127983619,"location_subtype":"","month":"2025-05"},{"category":"drugs","location_type":"Force","location":{"latitude":"52.478851","street":{"id":1532119,"name":"On or near Sports/recreation Area"},"longitude":"-1.491580"},"context":"","outcome_status":{"category":"Awaiting court outcome","date":"2025-11"},"persistent_id":"29ab38ecb410373fdbb2dc5f377ea6ea8cbfb3722abd7db443d4914772b346b1","id":127984911,"location_subtype":"","month":"2025-05"},{"category":"drugs","location_type":"Force","location":{"latitude":"52.484063","street":{"id":1532731,"name":"On or near Alexander Road"},"longitude":"-1.466127"},"context":"","outcome_status":{"category":"Status update unavailable","date":"2025-09"},"persistent_id":"c6b0884f389cf17c674175ce562352700a35c5c22ec4dae0e654c2afa6cf62b9","id":127986087,"location_subtype":"","month":"2025-05"},{"category":"other-theft","location_type":"Force","location":{"latitude":"52.480911","street":{"id":1532805,"name":"On or near Wootton Street"},"longitude":"-1.462823"},"context":"","outcome_status":{"category":"Unable to prosecute suspect","date":"2025-05"},"persistent_id":"b09cedf35d82060853ad364ab25c8bebe92d0bdd308de85003f06e77a7f23ef7","id":127983200,"location_subtype":"","month":"2025-05"},{"category":"other-theft","location_type":"Force","location":{"latitude":"52.489900","street":{"id":1532448,"name":"On or near Brook Street"},"longitude":"-1.476822"},"context":"","outcome_status":{"category":"Investigation complete; no suspect identified","date":"2025-05"},"persistent_id":"ea867a4026d62dfdb546e497a7e5f761df3204820a205c8aa948295e0599ade0","id":127983306,"location_subtype":"","month":"2025-05"},{"category":"other-theft","location_type":"Force","location":{"latitude":"52.478613","street":{"id":1532825,"name":"On or near B4029"},"longitude":"-1.461717"},"context":"","outcome_status":{"category":"Unable to prosecute suspect","date":"2025-05"},"persistent_id":"1bae3b278c9a22263cfb2b390739af96a654e3ee9e0f8fb51c98ade75e607883","id":127983309,"location_subtype":"","month":"2025-05"},{"category":"other-theft","location_type":"Force","location":{"latitude":"52.484780","street":{"id":1532316,"name":"On or near Dempster Road"},"longitude":"-1.481904"},"context":"","outcome_status":{"category":"Investigation complete; no suspect identified","date":"2025-05"},"persistent_id":"c4580c6447699b2fa78cc2635c06f6ced2fbd0e445645b96b4a97e3a34047a98","id":127985300,"location_subtype":"","month":"2025-05"},{"category":"other-theft","location_type":"Force","location":{"latitude":"52.484251","street":{"id":1532526,"name":"On or near Leicester Road"},"longitude":"-1.473900"},"context":"","outcome_status":{"category":"Investigation complete; no suspect identified","date":"2025-06"},"persistent_id":"ffc7555b3553c5b9424bc46d2549c9b5f4399f3a191b4da78550a7d19d8b3576","id":127985989,"location_subtype":"","month":"2025-05"},{"category":"other-theft","location_type":"Force","location":{"latitude":"52.471913","street":{"id":1532167,"name":"On or near Walkers Way"},"longitude":"-1.489578"},"context":"","outcome_status":{"category":"Status update unavailable","date":"2025-09"},"persistent_id":"6ac868edf62eb998edccafb03f0b9bebbc9919847397bc72abd12218ad8c5fde","id":127985987,"location_subtype":"","month":"2025-05"},{"category":"other-theft","location_type":"Force","location":{"latitude":"52.490137","street":{"id":1532467,"name":"On or near Hill Street"},"longitude":"-1.473506"},"context":"","outcome_status":{"category":"Investigation complete; no suspect identified","date":"2025-07"},"persistent_id":"a3f36488b442441b97933a3845c43371e5f39178622e808e99f02eb8434c5478","id":127985871,"location_subtype":"","month":"2025-05"},{"category":"other-theft","location_type":"Force","location":{"latitude":"52.487515","street":{"id":1532694,"name":"On or near Marston Lane"},"longitude":"-1.466041"},"context":"","outcome_status":{"category":"Unable to prosecute suspect","date":"2025-05"},"persistent_id":"803a38470a2b0e6ec971426648fd0e72dfd2824830970e9612a114fd1ac7b323","id":127982982,"location_subtype":"","month":"2025-05"},{"category":"other-theft","location_type":"Force","location":{"latitude":"52.473566","street":{"id":1532175,"name":"On or near Hollyhurst"},"longitude":"-1.489235"},"context":"","outcome_status":{"category":"Investigation complete; no suspect identified","date":"2025-10"},"persistent_id":"44771d4b47022aedfc923ad2695ba2013f120a4f930b101a2ebd1bf159a8c292","id":127985298,"location_subtype":"","month":"2025-05"},{"category":"other-theft","location_type":"Force","location":{"latitude":"52.475273","street":{"id":1532671,"name":"On or near Sadler Gardens"},"longitude":"-1.466543"},"context":"","outcome_status":{"category":"Investigation complete; no suspect identified","date":"2025-06"},"persistent_id":"72acac7f107f49f0405bf3feea38031643ac78e3a97c9125a670008498876d06","id":127985033,"location_subtype":"","month":"2025-05"},{"category":"possession-of-weapons","location_type":"Force","location":{"latitude":"52.478555","street":{"id":1532153,"name":"On or near A444"},"longitude":"-1.489104"},"context":"","outcome_status":{"category":"Unable to prosecute suspect","date":"2025-07"},"persistent_id":"5b5525c6f2e4c8bff10fec1c45e01f57c901ac0cfd7098e1df959b8536339b46","id":127986202,"location_subtype":"","month":"2025-05"},{"category":"public-order","location_type":"Force","location":{"latitude":"52.480159","street":{"id":1532433,"name":"On or near Bus/coach Station"},"longitude":"-1.477644"},"context":"","outcome_status":{"category":"Unable to prosecute suspect","date":"2025-05"},"persistent_id":"4644d10144a4f5252f27ae24783713adb86ad6f6838bf6b1e58281ca1181195a","id":127985573,"location_subtype":"","month":"2025-05"},{"category":"public-order","location_type":"Force","location":{"latitude":"52.480159","street":{"id":1532433,"name":"On or near Bus/coach Station"},"longitude":"-1.477644"},"context":"","outcome_status":{"category":"Unable to prosecute suspect","date":"2025-05"},"persistent_id":"7037d10a6c733523a4065ea4e29d73dcf32d8a8e89d119f26f7ac7dfe7ff81e9","id":127985310,"location_subtype":"","month":"2025-05"},{"category":"public-order","location_type":"Force","location":{"latitude":"52.478587","street":{"id":1532536,"name":"On or near High Street"},"longitude":"-1.471921"},"context":"","outcome_status":{"category":"Investigation complete; no suspect identified","date":"2025-05"},"persistent_id":"4ea9fab52bea07aaceb8214df8f2b6741703fa92470564a12da7f8521bff60b4","id":127983209,"location_subtype":"","month":"2025-05"},{"category":"public-order","location_type":"Force","location":{"latitude":"52.480159","street":{"id":1532433,"name":"On or near Bus/coach Station"},"longitude":"-1.477644"},"context":"","outcome_status":{"category":"Unable to prosecute suspect","date":"2025-07"},"persistent_id":"91a1583cca88508644de2019ddaf680713b1e04d845a01c49c6244f0c746d2b7","id":127985769,"location_subtype":"","month":"2025-05"},{"category":"public-order","location_type":"Force","location":{"latitude":"52.484550","street":{"id":1532708,"name":"On or near Hanbury Road"},"longitude":"-1.466430"},"context":"","outcome_status":{"category":"Unable to prosecute suspect","date":"2025-06"},"persistent_id":"b81579721ec2fc6a0a753cce6fd8965e22d3aafecb48a7f05b4c6671217419f3","id":127985175,"location_subtype":"","month":"2025-05"},{"category":"public-order","location_type":"Force","location":{"latitude":"52.480159","street":{"id":1532433,"name":"On or near Bus/coach Station"},"longitude":"-1.477644"},"context":"","outcome_status":{"category":"Awaiting court outcome","date":"2025-11"},"persistent_id":"1aa70b23c74fb0e35f17fd16e6e1e25a6bc336855b435016c099689c3d867ea4","id":127984622,"location_subtype":"","month":"2025-05"},{"category":"public-order","location_type":"Force","location":{"latitude":"52.479882","street":{"id":1532557,"name":"On or near Parking Area"},"longitude":"-1.471920"},"context":"","outcome_status":{"category":"Unable to prosecute suspect","date":"2025-05"},"persistent_id":"5471ee3f619aa379c79d70d8410f83c98bc4f86d134f0ac5d55c1584555aa032","id":127983435,"location_subtype":"","month":"2025-05"},{"category":"public-order","location_type":"Force","location":{"latitude":"52.479882","street":{"id":1532557,"name":"On or near Parking Area"},"longitude":"-1.471920"},"context":"","outcome_status":{"category":"Unable to prosecute suspect","date":"2025-05"},"persistent_id":"8d21668e7fe4cffa2a441b10a2b198662369cdef232b34395a888dabefb83acc","id":127984031,"location_subtype":"","month":"2025-05"},{"category":"public-order","location_type":"Force","location":{"latitude":"52.474242","street":{"id":1532302,"name":"On or near Didsbury Road"},"longitude":"-1.483368"},"context":"","outcome_status":{"category":"Unable to prosecute suspect","date":"2025-05"},"persistent_id":"b9275508dfeb4bdf3c6df3679f57cf1e465d56e89c0a52ce9fe63cb39ef9a327","id":127984406,"location_subtype":"","month":"2025-05"},{"category":"public-order","location_type":"Force","location":{"latitude":"52.470441","street":{"id":1532245,"name":"On or near Marshall Road"},"longitude":"-1.485974"},"context":"","outcome_status":{"category":"Unable to prosecute suspect","date":"2025-06"},"persistent_id":"17403121246d99dd214e6369a7a7da54a9dcbbef3394e791aba0daf682b4af19","id":127984277,"location_subtype":"","month":"2025-05"},{"category":"public-order","location_type":"Force","location":{"latitude":"52.489900","street":{"id":1532448,"name":"On or near Brook Street"},"longitude":"-1.476822"},"context":"","outcome_status":{"category":"Unable to prosecute suspect","date":"2025-06"},"persistent_id":"9a31dec937e883b61dca3d7b6c1c8c3b8f9c834c635f1d64e3e1fb87a586133a","id":127985045,"location_subtype":"","month":"2025-05"},{"category":"public-order","location_type":"Force","location":{"latitude":"52.479882","street":{"id":1532557,"name":"On or near Parking Area"},"longitude":"-1.471920"},"context":"","outcome_status":{"category":"Unable to prosecute suspect","date":"2025-06"},"persistent_id":"f191595ae3b174a45538fb78c251155579540b5d8ae10bdbe34db8ec3aa52504","id":127985312,"location_subtype":"","month":"2025-05"},{"category":"public-order","location_type":"Force","location":{"latitude":"52.473566","street":{"id":1532175,"name":"On or near Hollyhurst"},"longitude":"-1.489235"},"context":"","outcome_status":{"category":"Investigation complete; no suspect identified","date":"2025-06"},"persistent_id":"96801f7f7c421810d4cfdd0c69fa9984c3e55298a5fdf08f4b1eb08e6cc78340","id":127986206,"location_subtype":"","month":"2025-05"},{"category":"robbery","location_type":"Force","location":{"latitude":"52.478028","street":{"id":1532492,"name":"On or near Park Road"},"longitude":"-1.475623"},"context":"","outcome_status":{"category":"Unable to prosecute suspect","date":"2025-06"},"persistent_id":"7189fc4c7f5cd4e29119111acce72503ebdc9e0e70c1b291cc84deab6c906a3c","id":127985772,"location_subtype":"","month":"2025-05"},{"category":"robbery","location_type":"Force","location":{"latitude":"52.481355","street":{"id":1532534,"name":"On or near Supermarket"},"longitude":"-1.473596"},"context":"","outcome_status":{"category":"Investigation complete; no suspect identified","date":"2025-06"},"persistent_id":"4d2ea70f53ec5dde84679be1f16f3afe5cd06677d97a72419aa9503471747e12","id":127984628,"location_subtype":"","month":"2025-05"},{"category":"shoplifting","location_type":"Force","location":{"latitude":"52.479983","street":{"id":1532531,"name":"On or near Shopping Area"},"longitude":"-1.474378"},"context":"","outcome_status":{"category":"Investigation complete; no suspect identified","date":"2025-06"},"persistent_id":"2cfee052f6afb4d2328640d8d266032b92e06c0a2120ccd895533c765a890d64","id":127984284,"location_subtype":"","month":"2025-05"},{"category":"shoplifting","location_type":"Force","location":{"latitude":"52.473796","street":{"id":1532112,"name":"On or near Parking Area"},"longitude":"-1.492707"},"context":"","outcome_status":{"category":"Investigation complete; no suspect identified","date":"2025-07"},"persistent_id":"fde6ae6333cf0a8e8b49fe8d1347d26751c4aa662f84dbb264cae19d6c6bbf85","id":127985578,"location_subtype":"","month":"2025-05"},{"category":"shoplifting","location_type":"Force","location":{"latitude":"52.481355","street":{"id":1532534,"name":"On or near Supermarket"},"longitude":"-1.473596"},"context":"","outcome_status":{"category":"Investigation complete; no suspect identified","date":"2025-07"},"persistent_id":"ab056425f5ca402d1463b5c3cb474bb94fca0440718e45a43ccd7b62d30049e9","id":127986221,"location_subtype":"","month":"2025-05"},{"category":"shoplifting","location_type":"Force","location":{"latitude":"52.471903","street":{"id":1532497,"name":"On or near Colliery Lane (north)"},"longitude":"-1.472914"},"context":"","outcome_status":{"category":"Investigation complete; no suspect identified","date":"2025-06"},"persistent_id":"60bcb6d2e419c582522307ffb1b77da53376dc7bee04f70242f85babb4d32dc8","id":127985777,"location_subtype":"","month":"2025-05"},{"category":"shoplifting","location_type":"Force","location":{"latitude":"52.471762","street":{"id":1532367,"name":"On or near Manse Close"},"longitude":"-1.479613"},"context":"","outcome_status":{"category":"Investigation complete; no suspect identified","date":"2025-05"},"persistent_id":"f9cf9d95d7a401bcae096d611330ed63402297f2d8e4f7a7dc77006088bbb3a5","id":127984283,"location_subtype":"","month":"2025-05"},{"category":"shoplifting","location_type":"Force","location":{"latitude":"52.480488","street":{"id":1532398,"name":"On or near Shopping Area"},"longitude":"-1.478922"},"context":"","outcome_status":{"category":"Court result unavailable","date":"2025-11"},"persistent_id":"d01aa3fe41206bf24fd09ed35d22ce4b95c3af27e92695d54fde6f8725367fa3","id":127986218,"location_subtype":"","month":"2025-05"},{"category":"shoplifting","location_type":"Force","location":{"latitude":"52.479983","street":{"id":1532531,"name":"On or near Shopping Area"},"longitude":"-1.474378"},"context":"","outcome_status":{"category":"Awaiting court outcome","date":"2025-12"},"persistent_id":"97127b30823b75949de70f595782334348d6714be474cee9d3db2148528ec54c","id":127986327,"location_subtype":"","month":"2025-05"},{"category":"shoplifting","location_type":"Force","location":{"latitude":"52.481355","street":{"id":1532534,"name":"On or near Supermarket"},"longitude":"-1.473596"},"context":"","outcome_status":{"category":"Investigation complete; no suspect identified","date":"2025-06"},"persistent_id":"fc41ab0cebbe2e004472608374a26f84889d68a4a54027343628278f40d1a831","id":127984182,"location_subtype":"","month":"2025-05"},{"category":"shoplifting","location_type":"Force","location":{"latitude":"52.481355","street":{"id":1532534,"name":"On or near Supermarket"},"longitude":"-1.473596"},"context":"","outcome_status":{"category":"Investigation complete; no suspect identified","date":"2025-06"},"persistent_id":"362dbe82bce306d3d897bf167240fd1c31d34fc4281f795b24231caf62a03f63","id":127985316,"location_subtype":"","month":"2025-05"},{"category":"shoplifting","location_type":"Force","location":{"latitude":"52.471762","street":{"id":1532367,"name":"On or near Manse Close"},"longitude":"-1.479613"},"context":"","outcome_status":{"category":"Investigation complete; no suspect identified","date":"2025-06"},"persistent_id":"f675c50601d6bd572e693470224830cdc7dea2493112c03f4ae6930f75025ee7","id":127985457,"location_subtype":"","month":"2025-05"},{"category":"shoplifting","location_type":"Force","location":{"latitude":"52.479759","street":{"id":1532507,"name":"On or near Church Way"},"longitude":"-1.474660"},"context":"","outcome_status":{"category":"Investigation complete; no suspect identified","date":"2025-06"},"persistent_id":"eb7eb5253dfa57053d7fb29d63c05304942d964e2c78c85d8503493c8599727f","id":127985579,"location_subtype":"","month":"2025-05"},{"category":"shoplifting","location_type":"Force","location":{"latitude":"52.479983","street":{"id":1532531,"name":"On or near Shopping Area"},"longitude":"-1.474378"},"context":"","outcome_status":{"category":"Investigation complete; no suspect identified","date":"2025-05"},"persistent_id":"546e8d852c2362e3d9bac14cf22475b918e711caa2b24e1d15468eaca5c20e43","id":127982994,"location_subtype":"","month":"2025-05"},{"category":"shoplifting","location_type":"Force","location":{"latitude":"52.481355","street":{"id":1532534,"name":"On or near Supermarket"},"longitude":"-1.473596"},"context":"","outcome_status":{"category":"Investigation complete; no suspect identified","date":"2025-05"},"persistent_id":"51591aae4077e77166368285c3046bb86f394081339fa095dc9852489bd636bc","id":127984054,"location_subtype":"","month":"2025-05"},{"category":"shoplifting","location_type":"Force","location":{"latitude":"52.479983","street":{"id":1532531,"name":"On or near Shopping Area"},"longitude":"-1.474378"},"context":"","outcome_status":{"category":"Court result unavailable","date":"2025-11"},"persistent_id":"8e5daf6a5ad4109f0c0176da3555a4aa33e737b80effd075d4a23a7caf931133","id":127985190,"location_subtype":"","month":"2025-05"},{"category":"shoplifting","location_type":"Force","location":{"latitude":"52.471762","street":{"id":1532367,"name":"On or near Manse Close"},"longitude":"-1.479613"},"context":"","outcome_status":{"category":"Investigation complete; no suspect identified","date":"2025-06"},"persistent_id":"bdac87c12ac10dd9777b4cc7beef05c226e9c23516ef2899667d29acbcf1a411","id":127984637,"location_subtype":"","month":"2025-05"},{"category":"shoplifting","location_type":"Force","location":{"latitude":"52.484251","street":{"id":1532526,"name":"On or near Leicester Road"},"longitude":"-1.473900"},"context":"","outcome_status":{"category":"Investigation complete; no suspect identified","date":"2025-06"},"persistent_id":"b02e6ddd11e12115d8279df748c19070bea565bb73e309204539f339a7d2ae72","id":127986120,"location_subtype":"","month":"2025-05"},{"category":"shoplifting","location_type":"Force","location":{"latitude":"52.479155","street":{"id":1532468,"name":"On or near Roadway Close"},"longitude":"-1.476405"},"context":"","outcome_status":{"category":"Court result unavailable","date":"2025-11"},"persistent_id":"3a06bbd202294dc2aaf2e84742883464fb84baecee1348e1b301422af226fe2d","id":127985188,"location_subtype":"","month":"2025-05"},{"category":"shoplifting","location_type":"Force","location":{"latitude":"52.479983","street":{"id":1532531,"name":"On or near Shopping Area"},"longitude":"-1.474378"},"context":"","outcome_status":{"category":"Investigation complete; no suspect identified","date":"2025-05"},"persistent_id":"f78445ad9e925469c0d0ebdd044685bbcd9c4bf4b5d4e457074f124ad5dbf0da","id":127985458,"location_subtype":"","month":"2025-05"},{"category":"shoplifting","location_type":"Force","location":{"latitude":"52.481355","street":{"id":1532534,"name":"On or near Supermarket"},"longitude":"-1.473596"},"context":"","outcome_status":{"category":"Court result unavailable","date":"2025-11"},"persistent_id":"0abce4ed0201cc808f123112e87eaeef2927ea02aedb3e7b869517769c7d5abe","id":127985189,"location_subtype":"","month":"2025-05"},{"category":"shoplifting","location_type":"Force","location":{"latitude":"52.479983","street":{"id":1532531,"name":"On or near Shopping Area"},"longitude":"-1.474378"},"context":"","outcome_status":{"category":"Court result unavailable","date":"2025-11"},"persistent_id":"d8ca0166e6902a0ac3f086dbde7220c46defa50cf3b2d41fa5fcb09e1951d365","id":127986220,"location_subtype":"","month":"2025-05"},{"category":"shoplifting","location_type":"Force","location":{"latitude":"52.471762","street":{"id":1532367,"name":"On or near Manse Close"},"longitude":"-1.479613"},"context":"","outcome_status":{"category":"Unable to prosecute suspect","date":"2025-09"},"persistent_id":"6b7cf160b5cad934d79e31676cfc8eef31863d9c4ea2001e5bf18323bf728f14","id":127983641,"location_subtype":"","month":"2025-05"},{"category":"vehicle-crime","location_type":"Force","location":{"latitude":"52.480966","street":{"id":1532131,"name":"On or near Woodlands Road"},"longitude":"-1.491579"},"context":"","outcome_status":{"category":"Investigation complete; no suspect identified","date":"2025-05"},"persistent_id":"8f943d437f14d0b2bdcc929961b1cef958adc06f02103048dc03db3796c9f7f9","id":127984742,"location_subtype":"","month":"2025-05"},{"category":"vehicle-crime","location_type":"Force","location":{"latitude":"52.464625","street":{"id":1532533,"name":"On or near Bayton Road"},"longitude":"-1.473751"},"context":"","outcome_status":{"category":"Unable to prosecute suspect","date":"2025-06"},"persistent_id":"b0bad82463f01ea13f3509323f6429a5d954a023291356adc5e373866be379c5","id":127984646,"location_subtype":"","month":"2025-05"},{"category":"vehicle-crime","location_type":"Force","location":{"latitude":"52.489900","street":{"id":1532448,"name":"On or near Brook Street"},"longitude":"-1.476822"},"context":"","outcome_status":{"category":"Investigation complete; no suspect identified","date":"2025-05"},"persistent_id":"02ab08deb647d21239a6ca74d46e18082f2b92952db129208ebf3a25c4b5d749","id":127984837,"location_subtype":"","month":"2025-05"},{"category":"vehicle-crime","location_type":"Force","location":{"latitude":"52.480159","street":{"id":1532433,"name":"On or near Bus/coach Station"},"longitude":"-1.477644"},"context":"","outcome_status":{"category":"Unable to prosecute suspect","date":"2025-08"},"persistent_id":"fe1fa0543306017a4db454a266edd2b6327618c72f816586903fcaf7a954a9a6","id":127985468,"location_subtype":"","month":"2025-05"},{"category":"vehicle-crime","location_type":"Force","location":{"latitude":"52.473566","street":{"id":1532175,"name":"On or near Hollyhurst"},"longitude":"-1.489235"},"context":"","outcome_status":{"category":"Unable to prosecute suspect","date":"2025-06"},"persistent_id":"c6131ed773683b678cbb0791b4473513feb0af18ca1d0cddad10828fda29e2e2","id":127985791,"location_subtype":"","month":"2025-05"},{"category":"vehicle-crime","location_type":"Force","location":{"latitude":"52.481325","street":{"id":1532553,"name":"On or near Leicester Street"},"longitude":"-1.473022"},"context":"","outcome_status":{"category":"Investigation complete; no suspect identified","date":"2025-06"},"persistent_id":"90b7e76ff412027bf65f0f08ec7f5bb673dea756633cf8a858dbb3912b6642a1","id":127984064,"location_subtype":"","month":"2025-05"},{"category":"vehicle-crime","location_type":"Force","location":{"latitude":"52.484888","street":{"id":1532374,"name":"On or near Bede Road"},"longitude":"-1.479783"},"context":"","outcome_status":{"category":"Investigation complete; no suspect identified","date":"2025-05"},"persistent_id":"640b0cf0cf866efa980ffd5062dbd79a82cbc052eb8b05cf813457e4ac8a2e6f","id":127984743,"location_subtype":"","month":"2025-05"},{"category":"vehicle-crime","location_type":"Force","location":{"latitude":"52.481303","street":{"id":1532636,"name":"On or near Chapel Street"},"longitude":"-1.470180"},"context":"","outcome_status":{"category":"Status update unavailable","date":"2025-09"},"persistent_id":"75d508b9dfd65773a090dc10053aae867d5fd438649f90286517e86d48d06c71","id":127984304,"location_subtype":"","month":"2025-05"},{"category":"vehicle-crime","location_type":"Force","location":{"latitude":"52.486231","street":{"id":1532626,"name":"On or near Blockley Road"},"longitude":"-1.470445"},"context":"","outcome_status":{"category":"Investigation complete; no suspect identified","date":"2025-06"},"persistent_id":"0571d6d959cf604384d4b2ccdae1f6f777ab0515114c7bd98806414b15b592ce","id":127985332,"location_subtype":"","month":"2025-05"},{"category":"vehicle-crime","location_type":"Force","location":{"latitude":"52.471762","street":{"id":1532367,"name":"On or near Manse Close"},"longitude":"-1.479613"},"context":"","outcome_status":{"category":"Investigation complete; no suspect identified","date":"2025-05"},"persistent_id":"a4cdb1ff12430c6cff50507a7420b05c2860311c7f75574608826125d2addb85","id":127984545,"location_subtype":"","month":"2025-05"},{"category":"vehicle-crime","location_type":"Force","location":{"latitude":"52.478421","street":{"id":1532844,"name":"On or near Bulkington Road"},"longitude":"-1.460924"},"context":"","outcome_status":{"category":"Investigation complete; no suspect identified","date":"2025-05"},"persistent_id":"b935a4caf8dd3ab432ba97b51f7ac6ab091220f8aa46d431e9f5e66710e3b73b","id":127985333,"location_subtype":"","month":"2025-05"},{"category":"vehicle-crime","location_type":"Force","location":{"latitude":"52.477385","street":{"id":1532078,"name":"On or near The Rowans"},"longitude":"-1.495125"},"context":"","outcome_status":{"category":"Status update unavailable","date":"2025-09"},"persistent_id":"1f443c4e499c83294a4a7facf542666ad0aafdf508c40cc66f50b382c6cf4380","id":127985897,"location_subtype":"","month":"2025-05"},{"category":"vehicle-crime","location_type":"Force","location":{"latitude":"52.481355","street":{"id":1532534,"name":"On or near Supermarket"},"longitude":"-1.473596"},"context":"","outcome_status":{"category":"Investigation complete; no suspect identified","date":"2025-05"},"persistent_id":"6fb663a283a09dde4689046c2d206769e797da00567b57b50eec95e70dda3215","id":127983008,"location_subtype":"","month":"2025-05"},{"category":"vehicle-crime","location_type":"Force","location":{"latitude":"52.466417","street":{"id":1532406,"name":"On or near Trevose Avenue"},"longitude":"-1.478499"},"context":"","outcome_status":{"category":"Investigation complete; no suspect identified","date":"2025-07"},"persistent_id":"7d30c525954014ac224fbd50c90a44f997adafdd144c37640ab9c0d4ff93a11a","id":127985792,"location_subtype":"","month":"2025-05"},{"category":"vehicle-crime","location_type":"Force","location":{"latitude":"52.480159","street":{"id":1532433,"name":"On or near Bus/coach Station"},"longitude":"-1.477644"},"context":"","outcome_status":{"category":"Investigation complete; no suspect identified","date":"2025-06"},"persistent_id":"25730e0073bb216a3983b5412db1d743d1f549506334b5d724f20cd90250465d","id":127986130,"location_subtype":"","month":"2025-05"},{"category":"vehicle-crime","location_type":"Force","location":{"latitude":"52.488141","street":{"id":1532543,"name":"On or near Nuneaton Road"},"longitude":"-1.473426"},"context":"","outcome_status":{"category":"Investigation complete; no suspect identified","date":"2025-06"},"persistent_id":"044aa600888014a68275521ff9b715a9661e32cd8ba9fa2647ab4c95a0c3b225","id":127986131,"location_subtype":"","month":"2025-05"},{"category":"vehicle-crime","location_type":"Force","location":{"latitude":"52.481325","street":{"id":1532553,"name":"On or near Leicester Street"},"longitude":"-1.473022"},"context":"","outcome_status":{"category":"Investigation complete; no suspect identified","date":"2025-05"},"persistent_id":"dd77532eaeeca5ac20eb719645fb7892b3210400e9684bb665d711c6f7fd124e","id":127983444,"location_subtype":"","month":"2025-05"},{"category":"violent-crime","location_type":"Force","location":{"latitude":"52.480159","street":{"id":1532433,"name":"On or near Bus/coach Station"},"longitude":"-1.477644"},"context":"","outcome_status":{"category":"Unable to prosecute suspect","date":"2025-06"},"persistent_id":"8b8fad2fbaa2e7213a29303b8780a819e3ba0f7f35b8b0683568b094b1859261","id":127986360,"location_subtype":"","month":"2025-05"},{"category":"violent-crime","location_type":"Force","location":{"latitude":"52.488751","street":{"id":1532476,"name":"On or near John Knight Road"},"longitude":"-1.475098"},"context":"","outcome_status":{"category":"Unable to prosecute suspect","date":"2025-05"},"persistent_id":"11f1413fbfdcd388276a4e6cac5a47b22b334a95c6b73f2ce6bf481c08a54970","id":127984466,"location_subtype":"","month":"2025-05"},{"category":"violent-crime","location_type":"Force","location":{"latitude":"52.484780","street":{"id":1532316,"name":"On or near Dempster Road"},"longitude":"-1.481904"},"context":"","outcome_status":{"category":"Unable to prosecute suspect","date":"2025-05"},"persistent_id":"9df512f58f535fd328ed0ac0fac8151e169a1676b2d4b0a3713550a484a8edfb","id":127984490,"location_subtype":"","month":"2025-05"},{"category":"violent-crime","location_type":"Force","location":{"latitude":"52.479882","street":{"id":1532557,"name":"On or near Parking Area"},"longitude":"-1.471920"},"context":"","outcome_status":{"category":"Unable to prosecute suspect","date":"2025-05"},"persistent_id":"aa4ea6ee18559b748ff8758d6c30244a87430164132477911ba41c549e91eaa7","id":127984572,"location_subtype":"","month":"2025-05"},{"category":"violent-crime","location_type":"Force","location":{"latitude":"52.474978","street":{"id":1532737,"name":"On or near Pebblebrook Way"},"longitude":"-1.465000"},"context":"","outcome_status":{"category":"Unable to prosecute suspect","date":"2025-05"},"persistent_id":"4f5650a2eff4110cf3c16692deae5e804e3843d7c6f29e302ebd21267b19dba2","id":127984573,"location_subtype":"","month":"2025-05"},{"category":"violent-crime","location_type":"Force","location":{"latitude":"52.485645","street":{"id":1532615,"name":"On or near Kimberley Road"},"longitude":"-1.470010"},"context":"","outcome_status":{"category":"Court result unavailable","date":"2025-11"},"persistent_id":"d2de28fc6b37d4847b83c292f38991ef089e04febb2582156df056f12d0ba6c3","id":127984686,"location_subtype":"","month":"2025-05"},{"category":"violent-crime","location_type":"Force","location":{"latitude":"52.474978","street":{"id":1532737,"name":"On or near Pebblebrook Way"},"longitude":"-1.465000"},"context":"","outcome_status":{"category":"Unable to prosecute suspect","date":"2025-05"},"persistent_id":"f89c6f775382942bf7e134cee6a8ba77a109ef3bd9d1a9b8ae2706ac6bccd061","id":127984690,"location_subtype":"","month":"2025-05"},{"category":"violent-crime","location_type":"Force","location":{"latitude":"52.487517","street":{"id":1532394,"name":"On or near Amos Jacques Road"},"longitude":"-1.478632"},"context":"","outcome_status":{"category":"Unable to prosecute suspect","date":"2025-05"},"persistent_id":"506ad0a76ab026c16d7d1dce39b4e99676f1f5df126064bf1555a8ec4fafc1c2","id":127984776,"location_subtype":"","month":"2025-05"},{"category":"violent-crime","location_type":"Force","location":{"latitude":"52.473362","street":{"id":1532453,"name":"On or near Black Bank"},"longitude":"-1.477475"},"context":"","outcome_status":{"category":"Investigation complete; no suspect identified","date":"2025-06"},"persistent_id":"0e788d9486fd85980913837ec8db3326d937561c0e28bd3ad45507ff254d5829","id":127985931,"location_subtype":"","month":"2025-05"},{"category":"violent-crime","location_type":"Force","location":{"latitude":"52.479155","street":{"id":1532468,"name":"On or near Roadway Close"},"longitude":"-1.476405"},"context":"","outcome_status":{"category":"Unable to prosecute suspect","date":"2025-06"},"persistent_id":"97bf5fdc68d95a42834d9f7a487584f4df5870678d0df3106ccf379fed8366da","id":127985955,"location_subtype":"","month":"2025-05"},{"category":"violent-crime","location_type":"Force","location":{"latitude":"52.482950","street":{"id":1532823,"name":"On or near Acacia Crescent"},"longitude":"-1.460604"},"context":"","outcome_status":{"category":"Unable to prosecute suspect","date":"2025-05"},"persistent_id":"91e6164015336df19e878a0f06a74c8da72a28c739ff5f58a1717ab9b719cde3","id":127985936,"location_subtype":"","month":"2025-05"},{"category":"violent-crime","location_type":"Force","location":{"latitude":"52.481997","street":{"id":1532425,"name":"On or near Frances Crescent"},"longitude":"-1.478698"},"context":"","outcome_status":{"category":"Unable to prosecute suspect","date":"2025-05"},"persistent_id":"4c52da6f9c5f66f71a37ba8f0d061a3d444553fc5368f2c9ee69c9d922fa7b3b","id":127986163,"location_subtype":"","month":"2025-05"},{"category":"violent-crime","location_type":"Force","location":{"latitude":"52.466480","street":{"id":1532344,"name":"On or near Tregorrick Road"},"longitude":"-1.480588"},"context":"","outcome_status":{"category":"Status update unavailable","date":"2025-09"},"persistent_id":"484e7e739f9a2119b1616178565836790b9231765f42e66caa859017b3eee1ef","id":128470547,"location_subtype":"","month":"2025-05"},{"category":"violent-crime","location_type":"Force","location":{"latitude":"52.487395","street":{"id":1532782,"name":"On or near Beechwood Road"},"longitude":"-1.463480"},"context":"","outcome_status":{"category":"Unable to prosecute suspect","date":"2025-06"},"persistent_id":"6e71806af5ed66e1cd4525da3f2e0b16c56201e27a66da1f1dbe5ddde13880aa","id":127986363,"location_subtype":"","month":"2025-05"},{"category":"violent-crime","location_type":"Force","location":{"latitude":"52.476276","street":{"id":1532220,"name":"On or near Sharratt Road"},"longitude":"-1.486127"},"context":"","outcome_status":{"category":"Unable to prosecute suspect","date":"2025-05"},"persistent_id":"7b4bbccd2cdd594586a49c932e11b185e08c71c24dda1ef899eb49751927e46d","id":127984863,"location_subtype":"","month":"2025-05"},{"category":"violent-crime","location_type":"Force","location":{"latitude":"52.480159","street":{"id":1532433,"name":"On or near Bus/coach Station"},"longitude":"-1.477644"},"context":"","outcome_status":{"category":"Awaiting court outcome","date":"2025-11"},"persistent_id":"2ae99548cae32b1be7267c53209b022d1ed8d45a275c02cd21540d89171d95bc","id":127985245,"location_subtype":"","month":"2025-05"},{"category":"violent-crime","location_type":"Force","location":{"latitude":"52.479983","street":{"id":1532531,"name":"On or near Shopping Area"},"longitude":"-1.474378"},"context":"","outcome_status":{"category":"Investigation complete; no suspect identified","date":"2025-06"},"persistent_id":"e06e3aade48da5c894c8b85a608293626ce9d5df8af81f0242dc1da456d147bd","id":127985933,"location_subtype":"","month":"2025-05"},{"category":"violent-crime","location_type":"Force","location":{"latitude":"52.478421","street":{"id":1532844,"name":"On or near Bulkington Road"},"longitude":"-1.460924"},"context":"","outcome_status":{"category":"Investigation complete; no suspect identified","date":"2025-06"},"persistent_id":"825524ea68d46056375dc873a807498a35c2aab2aa75d97425d587fbb9ffb326","id":127985106,"location_subtype":"","month":"2025-05"},{"category":"violent-crime","location_type":"Force","location":{"latitude":"52.478587","street":{"id":1532536,"name":"On or near High Street"},"longitude":"-1.471921"},"context":"","outcome_status":{"category":"Unable to prosecute suspect","date":"2025-06"},"persistent_id":"38ac51e501cdf294ed7f550347b2b20062dc33bc7fbb6d5bcf3f1d5b2f916114","id":127986047,"location_subtype":"","month":"2025-05"},{"category":"violent-crime","location_type":"Force","location":{"latitude":"52.481389","street":{"id":1532589,"name":"On or near Wyatt Court"},"longitude":"-1.471342"},"context":"","outcome_status":{"category":"Investigation complete; no suspect identified","date":"2025-06"},"persistent_id":"5ffad0569098723284a8c214ce4a7ff933308ff6a9b74a261fbce63036992747","id":127985367,"location_subtype":"","month":"2025-05"},{"category":"violent-crime","location_type":"Force","location":{"latitude":"52.477006","street":{"id":1532090,"name":"On or near The Chestnuts"},"longitude":"-1.494775"},"context":"","outcome_status":{"category":"Unable to prosecute suspect","date":"2025-06"},"persistent_id":"3486bc106ddc48ea883c4c4b2b58e2c32ee74f5cef00f12e0511e4a15de4d137","id":127985509,"location_subtype":"","month":"2025-05"},{"category":"violent-crime","location_type":"Force","location":{"latitude":"52.477186","street":{"id":1532469,"name":"On or near Saunders Avenue"},"longitude":"-1.476340"},"context":"","outcome_status":{"category":"Unable to prosecute suspect","date":"2025-06"},"persistent_id":"c80b091349e99a39b5c2b0f6ee67d74448ecc8998aa36890e2d4720815200df5","id":127985511,"location_subtype":"","month":"2025-05"},{"category":"violent-crime","location_type":"Force","location":{"latitude":"52.481371","street":{"id":1532287,"name":"On or near Ashford Drive"},"longitude":"-1.483446"},"context":"","outcome_status":{"category":"Unable to prosecute suspect","date":"2025-06"},"persistent_id":"ae2081fc9234e346fb14a5b815bd0177d7cdd1a2ae9dda52b41b410af76a0828","id":127985637,"location_subtype":"","month":"2025-05"},{"category":"violent-crime","location_type":"Force","location":{"latitude":"52.485312","street":{"id":1532659,"name":"On or near Downing Crescent"},"longitude":"-1.467908"},"context":"","outcome_status":{"category":"Unable to prosecute suspect","date":"2025-06"},"persistent_id":"1688f9bb3dc4b472a1911924eb7001572beb4b20543926be01adb9f086ab7b2f","id":127985639,"location_subtype":"","month":"2025-05"},{"category":"violent-crime","location_type":"Force","location":{"latitude":"52.481371","street":{"id":1532287,"name":"On or near Ashford Drive"},"longitude":"-1.483446"},"context":"","outcome_status":{"category":"Unable to prosecute suspect","date":"2025-06"},"persistent_id":"4434b3c80e4561ac9c5f6a780afbd35c0075c51d81b26286687d10e256352b5f","id":127985724,"location_subtype":"","month":"2025-05"},{"category":"violent-crime","location_type":"Force","location":{"latitude":"52.484993","street":{"id":1532525,"name":"On or near Old Arden Close"},"longitude":"-1.473022"},"context":"","outcome_status":{"category":"Local resolution","date":"2025-06"},"persistent_id":"36cb78c7a614be6a0e2c75486beb8f83f590e7611090ef187e6c1d77c9a6fb4d","id":127985827,"location_subtype":"","month":"2025-05"},{"category":"violent-crime","location_type":"Force","location":{"latitude":"52.475273","street":{"id":1532671,"name":"On or near Sadler Gardens"},"longitude":"-1.466543"},"context":"","outcome_status":{"category":"Unable to prosecute suspect","date":"2025-06"},"persistent_id":"8417605acac960ecc29b9f646b138a439abbd1fe65087a40d9f24040e39e5710","id":127985830,"location_subtype":"","month":"2025-05"},{"category":"violent-crime","location_type":"Force","location":{"latitude":"52.466480","street":{"id":1532344,"name":"On or near Tregorrick Road"},"longitude":"-1.480588"},"context":"","outcome_status":{"category":"Unable to prosecute suspect","date":"2025-10"},"persistent_id":"0d0b959e19fb9e48aaec1c4a791cfb154a13f194b83c63397b0f4c45eba479ef","id":127986046,"location_subtype":"","month":"2025-05"},{"category":"violent-crime","location_type":"Force","location":{"latitude":"52.478895","street":{"id":1532357,"name":"On or near Sports/recreation Area"},"longitude":"-1.479965"},"context":"","outcome_status":{"category":"Unable to prosecute suspect","date":"2025-10"},"persistent_id":"1f705d3d61aee24a0d7f0ed16159e669942ab1aa2e003b1d06f94645c7b79f1d","id":127984567,"location_subtype":"","month":"2025-05"},{"category":"violent-crime","location_type":"Force","location":{"latitude":"52.471074","street":{"id":1532195,"name":"On or near Silk Weavers Way"},"longitude":"-1.486747"},"context":"","outcome_status":{"category":"Investigation complete; no suspect identified","date":"2025-06"},"persistent_id":"a54df20a3f85eb23e5b2c90136a290390eb309fb017f03c142c2fd8c7b70e4f0","id":127986045,"location_subtype":"","month":"2025-05"},{"category":"violent-crime","location_type":"Force","location":{"latitude":"52.480159","street":{"id":1532433,"name":"On or near Bus/coach Station"},"longitude":"-1.477644"},"context":"","outcome_status":{"category":"Unable to prosecute suspect","date":"2025-06"},"persistent_id":"35930ca14bd156ab6265459b4a56317f887243ea95e19b62edaf0a877be2c77d","id":127986164,"location_subtype":"","month":"2025-05"},{"category":"violent-crime","location_type":"Force","location":{"latitude":"52.478587","street":{"id":1532536,"name":"On or near High Street"},"longitude":"-1.471921"},"context":"","outcome_status":{"category":"Unable to prosecute suspect","date":"2025-06"},"persistent_id":"06a9d53f64059cffa159b6c94ca0b908b59827d5f84b44cb27a6d949a6d3f9dc","id":127984976,"location_subtype":"","month":"2025-05"},{"category":"violent-crime","location_type":"Force","location":{"latitude":"52.478048","street":{"id":1532672,"name":"On or near Queen Street"},"longitude":"-1.467996"},"context":"","outcome_status":{"category":"Unable to prosecute suspect","date":"2025-07"},"persistent_id":"b2f786d848c2e4165ff3f2b50d72d160ebe73056f8b3e5343997f064daf3ee37","id":127984978,"location_subtype":"","month":"2025-05"},{"category":"violent-crime","location_type":"Force","location":{"latitude":"52.486127","street":{"id":1532592,"name":"On or near Gordon Close"},"longitude":"-1.471256"},"context":"","outcome_status":{"category":"Unable to prosecute suspect","date":"2026-01"},"persistent_id":"7c3fce1a2e7538316d592f7753efb14f0621a78eca830e2953fa42a80b131e17","id":127985248,"location_subtype":"","month":"2025-05"},{"category":"violent-crime","location_type":"Force","location":{"latitude":"52.470441","street":{"id":1532245,"name":"On or near Marshall Road"},"longitude":"-1.485974"},"context":"","outcome_status":{"category":"Investigation complete; no suspect identified","date":"2025-05"},"persistent_id":"c5029fd8f81758e1ce14a5a5c2858012730d5fc1faad08d2229851966d213ddc","id":127984775,"location_subtype":"","month":"2025-05"},{"category":"violent-crime","location_type":"Force","location":{"latitude":"52.473566","street":{"id":1532175,"name":"On or near Hollyhurst"},"longitude":"-1.489235"},"context":"","outcome_status":{"category":"Unable to prosecute suspect","date":"2025-06"},"persistent_id":"ae5481aa73096bab3338582f7720f538ce9e7ac649df27b3da70f1fa20b55651","id":127984774,"location_subtype":"","month":"2025-05"},{"category":"violent-crime","location_type":"Force","location":{"latitude":"52.481325","street":{"id":1532553,"name":"On or near Leicester Street"},"longitude":"-1.473022"},"context":"","outcome_status":{"category":"Unable to prosecute suspect","date":"2025-06"},"persistent_id":"06775b05d6ddf4903659444251b6b5ff635a3cfb21eb30f6676f37d429d0c7c9","id":127986265,"location_subtype":"","month":"2025-05"},{"category":"violent-crime","location_type":"Force","location":{"latitude":"52.477671","street":{"id":1532684,"name":"On or near The Priors"},"longitude":"-1.466087"},"context":"","outcome_status":{"category":"Investigation complete; no suspect identified","date":"2025-07"},"persistent_id":"502613af609b8d1a20452f0c33f6e658722dd49eaefde4db64187ac61f27d6af","id":127985369,"location_subtype":"","month":"2025-05"},{"category":"violent-crime","location_type":"Force","location":{"latitude":"52.467697","street":{"id":1532178,"name":"On or near Robert Road"},"longitude":"-1.487610"},"context":"","outcome_status":{"category":"Investigation complete; no suspect identified","date":"2025-05"},"persistent_id":"6f007d51310b9ca1e85855e17ecfd5b1aa1bb4ac7479af54bbbc3a7c55f2ac2e","id":127983884,"location_subtype":"","month":"2025-05"},{"category":"violent-crime","location_type":"Force","location":{"latitude":"52.484063","street":{"id":1532731,"name":"On or near Alexander Road"},"longitude":"-1.466127"},"context":"","outcome_status":{"category":"Unable to prosecute suspect","date":"2025-10"},"persistent_id":"b3c48e27386a9d1bbc3e13f955224cfeafba3781b32419502d3219c10b63afe0","id":127983892,"location_subtype":"","month":"2025-05"},{"category":"violent-crime","location_type":"Force","location":{"latitude":"52.479882","street":{"id":1532557,"name":"On or near Parking Area"},"longitude":"-1.471920"},"context":"","outcome_status":{"category":"Investigation complete; no suspect identified","date":"2025-05"},"persistent_id":"2adab164b8c38f9893f734de20c960ee959eb3d899f2780cd8352f9570c27f5f","id":127983572,"location_subtype":"","month":"2025-05"},{"category":"violent-crime","location_type":"Force","location":{"latitude":"52.476616","street":{"id":1532303,"name":"On or near Thirlmere Road"},"longitude":"-1.481588"},"context":"","outcome_status":{"category":"Unable to prosecute suspect","date":"2025-09"},"persistent_id":"50c7a225c5a691b0078daf05a21e709c782da38617ab5de4f2bd49cd5ef29d1d","id":127985242,"location_subtype":"","month":"2025-05"},{"category":"violent-crime","location_type":"Force","location":{"latitude":"52.488751","street":{"id":1532476,"name":"On or near John Knight Road"},"longitude":"-1.475098"},"context":"","outcome_status":{"category":"Unable to prosecute suspect","date":"2025-05"},"persistent_id":"09febdc1cf9d86c76a5abcdd0632189cbd67109371d1b64e056d97e498b63587","id":127983158,"location_subtype":"","month":"2025-05"},{"category":"violent-crime","location_type":"Force","location":{"latitude":"52.482652","street":{"id":1532713,"name":"On or near Johnson Road"},"longitude":"-1.466159"},"context":"","outcome_status":{"category":"Status update unavailable","date":"2025-09"},"persistent_id":"8983326a9672128acd577d89a1b9a491fbed4f7dbd3648152e4b9d2ff621308c","id":127983798,"location_subtype":"","month":"2025-05"},{"category":"violent-crime","location_type":"Force","location":{"latitude":"52.479983","street":{"id":1532531,"name":"On or near Shopping Area"},"longitude":"-1.474378"},"context":"","outcome_status":{"category":"Unable to prosecute suspect","date":"2025-06"},"persistent_id":"1f2e089f5770432a80cf8921790213dfcd11bd5a5c5f406c9cce10b017199940","id":127983795,"location_subtype":"","month":"2025-05"},{"category":"violent-crime","location_type":"Force","location":{"latitude":"52.473813","street":{"id":1532164,"name":"On or near Beechcroft"},"longitude":"-1.490219"},"context":"","outcome_status":{"category":"Unable to prosecute suspect","date":"2025-05"},"persistent_id":"1e6d62c9757068e06c9dcc37147b36bbddd07b31aaded553e88aa8736349a9f1","id":127983372,"location_subtype":"","month":"2025-05"},{"category":"violent-crime","location_type":"Force","location":{"latitude":"52.478352","street":{"id":1532864,"name":"On or near East Avenue"},"longitude":"-1.459585"},"context":"","outcome_status":{"category":"Action to be taken by another organisation","date":"2025-05"},"persistent_id":"aa68d4232d61d21d8c2e77b00580eebd5a3083b3422100f99a17ab073ea09a71","id":127985518,"location_subtype":"","month":"2025-05"},{"category":"violent-crime","location_type":"Force","location":{"latitude":"52.472157","street":{"id":1532128,"name":"On or near All Saints Road"},"longitude":"-1.491975"},"context":"","outcome_status":{"category":"Unable to prosecute suspect","date":"2025-05"},"persistent_id":"e2191a6aef100fe2c373d596861755ad3e0987a1f68434ed6f775ce1d669ffa0","id":127983257,"location_subtype":"","month":"2025-05"},{"category":"violent-crime","location_type":"Force","location":{"latitude":"52.481355","street":{"id":1532534,"name":"On or near Supermarket"},"longitude":"-1.473596"},"context":"","outcome_status":{"category":"Unable to prosecute suspect","date":"2025-05"},"persistent_id":"95517ef72ce666220cc10ddd3366e8d75ba3af998cf1235dc36de901c191edb3","id":127983259,"location_subtype":"","month":"2025-05"},{"category":"violent-crime","location_type":"Force","location":{"latitude":"52.485312","street":{"id":1532659,"name":"On or near Downing Crescent"},"longitude":"-1.467908"},"context":"","outcome_status":{"category":"Unable to prosecute suspect","date":"2025-05"},"persistent_id":"51b88ce625d8defde2dc4e75533b42c0c3653d41a27574b341a1b0eca55d036f","id":127983261,"location_subtype":"","month":"2025-05"},{"category":"violent-crime","location_type":"Force","location":{"latitude":"52.484993","street":{"id":1532525,"name":"On or near Old Arden Close"},"longitude":"-1.473022"},"context":"","outcome_status":{"category":"Unable to prosecute suspect","date":"2025-06"},"persistent_id":"056ac8f4d5e20525f27cf169531af8b50f459f506e1ae14404383372ad0aabc4","id":127983260,"location_subtype":"","month":"2025-05"},{"category":"violent-crime","location_type":"Force","location":{"latitude":"52.479853","street":{"id":1532345,"name":"On or near Petrol Station"},"longitude":"-1.481712"},"context":"","outcome_status":{"category":"Unable to prosecute suspect","date":"2025-05"},"persistent_id":"aa7dd0ce563f8ed202fd6cec8a50ca885673eba0654eac00c6306dd893d03d2c","id":127985364,"location_subtype":"","month":"2025-05"},{"category":"violent-crime","location_type":"Force","location":{"latitude":"52.471963","street":{"id":1532293,"name":"On or near Butlers Crescent"},"longitude":"-1.482438"},"context":"","outcome_status":{"category":"Unable to prosecute suspect","date":"2025-06"},"persistent_id":"395d63ff24d1f6ca767092a79e767dbee500397bab1604bfbf70b5fae50e2f46","id":127986260,"location_subtype":"","month":"2025-05"},{"category":"violent-crime","location_type":"Force","location":{"latitude":"52.480966","street":{"id":1532131,"name":"On or near Woodlands Road"},"longitude":"-1.491579"},"context":"","outcome_status":{"category":"Investigation complete; no suspect identified","date":"2025-05"},"persistent_id":"e4f842735815b48b2bca2de6ec8a36a617d57fa34b32c43f277ccadc94fa250a","id":127983564,"location_subtype":"","month":"2025-05"},{"category":"violent-crime","location_type":"Force","location":{"latitude":"52.468638","street":{"id":1532413,"name":"On or near Mawnan Close"},"longitude":"-1.478605"},"context":"","outcome_status":{"category":"Unable to prosecute suspect","date":"2025-05"},"persistent_id":"25ad85d5011b57d4e9d19fb380995264089223a68a172427c850aa8735ebe4b0","id":127983567,"location_subtype":"","month":"2025-05"},{"category":"violent-crime","location_type":"Force","location":{"latitude":"52.468638","street":{"id":1532413,"name":"On or near Mawnan Close"},"longitude":"-1.478605"},"context":"","outcome_status":{"category":"Unable to prosecute suspect","date":"2025-05"},"persistent_id":"fc225547f59d574fa260f5df63dfc8977c153377a41e9428eb74572fef65bb22","id":127983569,"location_subtype":"","month":"2025-05"},{"category":"violent-crime","location_type":"Force","location":{"latitude":"52.476276","street":{"id":1532220,"name":"On or near Sharratt Road"},"longitude":"-1.486127"},"context":"","outcome_status":{"category":"Unable to prosecute suspect","date":"2025-07"},"persistent_id":"305ab556091760c88648f4f969b449f4fbcd3c003eb16881a5add8c07f5c2043","id":127983034,"location_subtype":"","month":"2025-05"},{"category":"violent-crime","location_type":"Force","location":{"latitude":"52.478218","street":{"id":1532787,"name":"On or near Hatters Court"},"longitude":"-1.463871"},"context":"","outcome_status":{"category":"Unable to prosecute suspect","date":"2025-05"},"persistent_id":"851858bdbaca804bf890e2450368f39973b290014305ce1e840084bf3f2c97b2","id":127985730,"location_subtype":"","month":"2025-05"},{"category":"violent-crime","location_type":"Force","location":{"latitude":"52.471473","street":{"id":1532460,"name":"On or near Maple Avenue"},"longitude":"-1.477335"},"context":"","outcome_status":{"category":"Unable to prosecute suspect","date":"2025-05"},"persistent_id":"33a4a13f55487666ae94878cf53e55f01322adce1610db7558c6324ab783cecb","id":127985510,"location_subtype":"","month":"2025-05"},{"category":"violent-crime","location_type":"Force","location":{"latitude":"52.480911","street":{"id":1532805,"name":"On or near Wootton Street"},"longitude":"-1.462823"},"context":"","outcome_status":{"category":"Unable to prosecute suspect","date":"2025-05"},"persistent_id":"db58fd509231b83ac56e95b75189bc583bcefd36e0b764b550ff95803633caee","id":127983696,"location_subtype":"","month":"2025-05"},{"category":"violent-crime","location_type":"Force","location":{"latitude":"52.478352","street":{"id":1532864,"name":"On or near East Avenue"},"longitude":"-1.459585"},"context":"","outcome_status":{"category":"Unable to prosecute suspect","date":"2025-05"},"persistent_id":"7d27a118af7e7b49e62bafa80ec8568f76a694e67fc0fb2133f1a8929e4ccdf5","id":127983698,"location_subtype":"","month":"2025-05"},{"category":"violent-crime","location_type":"Force","location":{"latitude":"52.474657","street":{"id":1532503,"name":"On or near Petrol Station"},"longitude":"-1.475693"},"context":"","outcome_status":{"category":"Unable to prosecute suspect","date":"2025-05"},"persistent_id":"27e4a3b5dafdf40d90c99bb6ea1034a75c3c2a403ac44fa60384f4df9fda9c2b","id":127983794,"location_subtype":"","month":"2025-05"},{"category":"violent-crime","location_type":"Force","location":{"latitude":"52.476616","street":{"id":1532303,"name":"On or near Thirlmere Road"},"longitude":"-1.481588"},"context":"","outcome_status":{"category":"Unable to prosecute suspect","date":"2025-05"},"persistent_id":"9fba9f26be07e5b038e6f23e7efeae92cee2beb5d46e3c64879e7d12f4755cf0","id":127983886,"location_subtype":"","month":"2025-05"},{"category":"violent-crime","location_type":"Force","location":{"latitude":"52.478218","street":{"id":1532787,"name":"On or near Hatters Court"},"longitude":"-1.463871"},"context":"","outcome_status":{"category":"Unable to prosecute suspect","date":"2025-05"},"persistent_id":"426632a318d7ac71a200eb73f507d929745af02f38766572df6fa4242fd0994d","id":127983893,"location_subtype":"","month":"2025-05"},{"category":"violent-crime","location_type":"Force","location":{"latitude":"52.482950","street":{"id":1532823,"name":"On or near Acacia Crescent"},"longitude":"-1.460604"},"context":"","outcome_status":{"category":"Unable to prosecute suspect","date":"2025-05"},"persistent_id":"971109db42d23ed04cfe615cde4abf8ce1b97365cd1edef3c87c8909e3ea5d34","id":127983895,"location_subtype":"","month":"2025-05"},{"category":"violent-crime","location_type":"Force","location":{"latitude":"52.468638","street":{"id":1532413,"name":"On or near Mawnan Close"},"longitude":"-1.478605"},"context":"","outcome_status":{"category":"Unable to prosecute suspect","date":"2025-05"},"persistent_id":"9363e989db46ae6b9c60121bd26b7381c2845e57852e5ed26d293fe185013dca","id":127983568,"location_subtype":"","month":"2025-05"},{"category":"violent-crime","location_type":"Force","location":{"latitude":"52.483450","street":{"id":1532646,"name":"On or near Willis Grove"},"longitude":"-1.467636"},"context":"","outcome_status":{"category":"Unable to prosecute suspect","date":"2025-05"},"persistent_id":"6be954cf9b31298b7b36ba5a17f618585741764dac22f8f01e43c6ca4c6d7aa7","id":127983984,"location_subtype":"","month":"2025-05"},{"category":"violent-crime","location_type":"Force","location":{"latitude":"52.487395","street":{"id":1532782,"name":"On or near Beechwood Road"},"longitude":"-1.463480"},"context":"","outcome_status":{"category":"Investigation complete; no suspect identified","date":"2025-06"},"persistent_id":"a050f5530027c905f6aa21edf5ece4c749765da8d7836219d1fe151eaa0f2f2a","id":127986270,"location_subtype":"","month":"2025-05"},{"category":"violent-crime","location_type":"Force","location":{"latitude":"52.479147","street":{"id":1532418,"name":"On or near Grasmere Road"},"longitude":"-1.478599"},"context":"","outcome_status":{"category":"Unable to prosecute suspect","date":"2025-05"},"persistent_id":"f0762e51efdcac7b12fb6486901205e8c588c3f06bc3d7f029e15cc57e62e514","id":127984096,"location_subtype":"","month":"2025-05"},{"category":"violent-crime","location_type":"Force","location":{"latitude":"52.479848","street":{"id":1532605,"name":"On or near Croxhall Street"},"longitude":"-1.470522"},"context":"","outcome_status":{"category":"Unable to prosecute suspect","date":"2025-05"},"persistent_id":"2f6a55c6adb224d6217738ce6f2a2aa7e47ef459ca2a1afb011294d6dbb3dd9b","id":127984102,"location_subtype":"","month":"2025-05"},{"category":"violent-crime","location_type":"Force","location":{"latitude":"52.480911","street":{"id":1532805,"name":"On or near Wootton Street"},"longitude":"-1.462823"},"context":"","outcome_status":{"category":"Unable to prosecute suspect","date":"2025-05"},"persistent_id":"8396edc25b8921c229e1951500e960dcb08ffcbbc74540c28f5fccdb0a64b1a0","id":127984108,"location_subtype":"","month":"2025-05"},{"category":"violent-crime","location_type":"Force","location":{"latitude":"52.480911","street":{"id":1532805,"name":"On or near Wootton Street"},"longitude":"-1.462823"},"context":"","outcome_status":{"category":"Unable to prosecute suspect","date":"2025-05"},"persistent_id":"5bc31a9d3604d781a88e1d59d74e049cde9c4dd014d931a27847d05ee0a9cd53","id":127984109,"location_subtype":"","month":"2025-05"},{"category":"violent-crime","location_type":"Force","location":{"latitude":"52.475932","street":{"id":1532843,"name":"On or near George Eliot Avenue"},"longitude":"-1.461175"},"context":"","outcome_status":{"category":"Unable to prosecute suspect","date":"2025-05"},"persistent_id":"120822bb4a49069178045aa7b6eaf3a9dc9f6aa1c8b91985cbdd151143f46fe1","id":127984110,"location_subtype":"","month":"2025-05"},{"category":"violent-crime","location_type":"Force","location":{"latitude":"52.474242","street":{"id":1532302,"name":"On or near Didsbury Road"},"longitude":"-1.483368"},"context":"","outcome_status":{"category":"Unable to prosecute suspect","date":"2025-07"},"persistent_id":"6ea6d8b54c6e1a796b23b02563734b9df32905bee71c150705f4304dddfc6974","id":127985825,"location_subtype":"","month":"2025-05"},{"category":"violent-crime","location_type":"Force","location":{"latitude":"52.475932","street":{"id":1532843,"name":"On or near George Eliot Avenue"},"longitude":"-1.461175"},"context":"","outcome_status":{"category":"Unable to prosecute suspect","date":"2025-05"},"persistent_id":"b589636c6f23381d21d8eb5125ad17d8f9ee61fe15953970cecdcbb8bea8e648","id":127984231,"location_subtype":"","month":"2025-05"},{"category":"violent-crime","location_type":"Force","location":{"latitude":"52.473125","street":{"id":1532466,"name":"On or near The Waterfront"},"longitude":"-1.476903"},"context":"","outcome_status":{"category":"Unable to prosecute suspect","date":"2025-05"},"persistent_id":"95d30c2118ec1371c40914ab0832326640e7dc2055bd0b0fa0fcccd8a97ae0aa","id":127984338,"location_subtype":"","month":"2025-05"},{"category":"other-crime","location_type":"Force","location":{"latitude":"52.480159","street":{"id":1532433,"name":"On or near Bus/coach Station"},"longitude":"-1.477644"},"context":"","outcome_status":{"category":"Unable to prosecute suspect","date":"2025-06"},"persistent_id":"d7790c481541bd7f505c522d20022716c8bfb2948aa8911f189d365e002ae977","id":127985394,"location_subtype":"","month":"2025-05"},{"category":"other-crime","location_type":"Force","location":{"latitude":"52.479995","street":{"id":1532145,"name":"On or near Charles Eaton Road"},"longitude":"-1.491561"},"context":"","outcome_status":{"category":"Further action is not in the public interest","date":"2025-05"},"persistent_id":"144fccb21163b216f49fe98fa992a8ca07f183fffa0c5e43330a0b5a90570964","id":127983064,"location_subtype":"","month":"2025-05"},{"category":"other-crime","location_type":"Force","location":{"latitude":"52.481389","street":{"id":1532589,"name":"On or near Wyatt Court"},"longitude":"-1.471342"},"context":"","outcome_status":{"category":"Unable to prosecute suspect","date":"2025-05"},"persistent_id":"2076c52ea9ee435e73716d5fdae675484cb8bf39021e6723c9613e0e3868783c","id":127985395,"location_subtype":"","month":"2025-05"}]