[{"category":"anti-social-behaviour","location_type":"Force","location":{"latitude":"52.391571","street":{"id":1647226,"name":"On or near Mitchell Avenue"},"longitude":"-1.569431"},"context":"","outcome_status":null,"persistent_id":"","id":133495155,"location_subtype":"","month":"2026-01"},{"category":"anti-social-behaviour","location_type":"Force","location":{"latitude":"52.394348","street":{"id":1647112,"name":"On or near Marler Road"},"longitude":"-1.579132"},"context":"","outcome_status":null,"persistent_id":"","id":133495344,"location_subtype":"","month":"2026-01"},{"category":"bicycle-theft","location_type":"Force","location":{"latitude":"52.410435","street":{"id":1647098,"name":"On or near Bush Close"},"longitude":"-1.580008"},"context":"","outcome_status":{"category":"Under investigation","date":"2026-01"},"persistent_id":"18c1568b6da5acbc566caf74777f9284d7d31d00c21bc46f02c55c5f8600a2c8","id":133484071,"location_subtype":"","month":"2026-01"},{"category":"bicycle-theft","location_type":"Force","location":{"latitude":"52.396970","street":{"id":1647432,"name":"On or near Excelsior Road"},"longitude":"-1.558562"},"context":"","outcome_status":{"category":"Under investigation","date":"2026-01"},"persistent_id":"5b42a380d3a7b1392231012a180e78206b51db225c4a2ea7ec2a58a4f7a6e075","id":133474491,"location_subtype":"","month":"2026-01"},{"category":"burglary","location_type":"Force","location":{"latitude":"52.397196","street":{"id":1647041,"name":"On or near Parbrook Close"},"longitude":"-1.586248"},"context":"","outcome_status":{"category":"Investigation complete; no suspect identified","date":"2026-01"},"persistent_id":"604263ca6fd330e35bb910d0501cf9c4f1faba72a4e30c7d54e7c1d800662059","id":133491795,"location_subtype":"","month":"2026-01"},{"category":"burglary","location_type":"Force","location":{"latitude":"52.400653","street":{"id":1647241,"name":"On or near Wilman Close"},"longitude":"-1.569769"},"context":"","outcome_status":{"category":"Under investigation","date":"2026-01"},"persistent_id":"f0ad6e3f816c1cea493d408bc65377b7476385f83792e1b9495ff2fff82f67f3","id":133472103,"location_subtype":"","month":"2026-01"},{"category":"burglary","location_type":"Force","location":{"latitude":"52.402064","street":{"id":1647440,"name":"On or near Petrol Station"},"longitude":"-1.557452"},"context":"","outcome_status":{"category":"Investigation complete; no suspect identified","date":"2026-01"},"persistent_id":"e219c59257821ca3c3fd1f1c946769e920651d862cb174f9ce150b07aa51fa51","id":133488001,"location_subtype":"","month":"2026-01"},{"category":"burglary","location_type":"Force","location":{"latitude":"52.404968","street":{"id":1647105,"name":"On or near Boar Croft"},"longitude":"-1.579869"},"context":"","outcome_status":{"category":"Under investigation","date":"2026-01"},"persistent_id":"ec0baa2c0b059c0a855d1c7c9ece4c15d3909319caf762c22bba4ed56ae76f8c","id":133477107,"location_subtype":"","month":"2026-01"},{"category":"burglary","location_type":"Force","location":{"latitude":"52.392312","street":{"id":1647009,"name":"On or near Pomeroy Close"},"longitude":"-1.590731"},"context":"","outcome_status":{"category":"Under investigation","date":"2026-01"},"persistent_id":"29bfb70d87c84a91d6c7fa9ffc756849109939c0db1088bde4b0e9e48b797a51","id":133473363,"location_subtype":"","month":"2026-01"},{"category":"burglary","location_type":"Force","location":{"latitude":"52.404694","street":{"id":1647054,"name":"On or near Frisby Road"},"longitude":"-1.583605"},"context":"","outcome_status":{"category":"Investigation complete; no suspect identified","date":"2026-01"},"persistent_id":"970950002eb3140cad418d7d86d352dda0b9707e8e724bc909d9b66e50eb41d8","id":133487182,"location_subtype":"","month":"2026-01"},{"category":"burglary","location_type":"Force","location":{"latitude":"52.394038","street":{"id":1647039,"name":"On or near Bradney Green"},"longitude":"-1.585366"},"context":"","outcome_status":{"category":"Awaiting court outcome","date":"2026-01"},"persistent_id":"f8d4467457c8d4dc5a61199ae1238dea5689e1f946074e8f8bfc294f6e4b8cf7","id":133494435,"location_subtype":"","month":"2026-01"},{"category":"burglary","location_type":"Force","location":{"latitude":"52.406952","street":{"id":1647050,"name":"On or near Empire Road"},"longitude":"-1.584231"},"context":"","outcome_status":{"category":"Under investigation","date":"2026-01"},"persistent_id":"74f6b0f10ccaa3791e0d6ce6075812037ca7c103faf1d26f1f922966da588c77","id":133486834,"location_subtype":"","month":"2026-01"},{"category":"burglary","location_type":"Force","location":{"latitude":"52.393948","street":{"id":1647116,"name":"On or near Scarborough Way"},"longitude":"-1.577887"},"context":"","outcome_status":{"category":"Investigation complete; no suspect identified","date":"2026-01"},"persistent_id":"c0c2b26bbbaea6f5748851b60c3b82b4f47ba1d6a35ca0f4a13cd752a354570d","id":133479717,"location_subtype":"","month":"2026-01"},{"category":"criminal-damage-arson","location_type":"Force","location":{"latitude":"52.408131","street":{"id":1647108,"name":"On or near Gibbons Close"},"longitude":"-1.579369"},"context":"","outcome_status":{"category":"Under investigation","date":"2026-01"},"persistent_id":"641c53bc3c832e8f94ea6a3c2939513a434dc7043b19eb1f59363a669fc9df65","id":133474652,"location_subtype":"","month":"2026-01"},{"category":"criminal-damage-arson","location_type":"Force","location":{"latitude":"52.403461","street":{"id":1647084,"name":"On or near Bohun Street"},"longitude":"-1.580751"},"context":"","outcome_status":{"category":"Investigation complete; no suspect identified","date":"2026-01"},"persistent_id":"199d29b837c9f66e16354d4fd3eb145e2095ac88259b80f4f918d5dd47aadead","id":133482547,"location_subtype":"","month":"2026-01"},{"category":"criminal-damage-arson","location_type":"Force","location":{"latitude":"52.393656","street":{"id":1647220,"name":"On or near Thomas Sharp Street"},"longitude":"-1.571541"},"context":"","outcome_status":{"category":"Under investigation","date":"2026-01"},"persistent_id":"fab92a57422b8120ec97a983bb14e4916357902240125b2512f91e309eea75ac","id":133484748,"location_subtype":"","month":"2026-01"},{"category":"criminal-damage-arson","location_type":"Force","location":{"latitude":"52.399350","street":{"id":1647023,"name":"On or near Sorrel Close"},"longitude":"-1.587609"},"context":"","outcome_status":{"category":"Unable to prosecute suspect","date":"2026-01"},"persistent_id":"d1df14507226c09b705be7aedfef426bcf1d8765eabe20d5119a417d78f4ad4b","id":133477219,"location_subtype":"","month":"2026-01"},{"category":"criminal-damage-arson","location_type":"Force","location":{"latitude":"52.409222","street":{"id":1647160,"name":"On or near Ashcombe Drive"},"longitude":"-1.575183"},"context":"","outcome_status":{"category":"Investigation complete; no suspect identified","date":"2026-01"},"persistent_id":"0a4a5084598de0e53c075ac1eb9b4752cb1c6f7bb51c1eaab77857b2a1bd20d5","id":133493094,"location_subtype":"","month":"2026-01"},{"category":"criminal-damage-arson","location_type":"Force","location":{"latitude":"52.393851","street":{"id":1647031,"name":"On or near Wedon Close"},"longitude":"-1.586029"},"context":"","outcome_status":{"category":"Under investigation","date":"2026-01"},"persistent_id":"c4ae2e1fb6706e69c8ceda31d339344be7fccc4b4d4341db8696dcd429754a79","id":133473760,"location_subtype":"","month":"2026-01"},{"category":"criminal-damage-arson","location_type":"Force","location":{"latitude":"52.396052","street":{"id":1647338,"name":"On or near Rose Gardens"},"longitude":"-1.562965"},"context":"","outcome_status":{"category":"Under investigation","date":"2026-01"},"persistent_id":"ef6f94183f1a70d6ec544ec07f093aee2fb5043de40ccea49e8cc973416359ea","id":133477232,"location_subtype":"","month":"2026-01"},{"category":"criminal-damage-arson","location_type":"Force","location":{"latitude":"52.401873","street":{"id":1647259,"name":"On or near William Kirby Close"},"longitude":"-1.569037"},"context":"","outcome_status":{"category":"Unable to prosecute suspect","date":"2026-01"},"persistent_id":"6755d0d7c0f992010d930a94fd41652f8cdc29c5cf4452d2677b0b9f5d7526cb","id":133492867,"location_subtype":"","month":"2026-01"},{"category":"criminal-damage-arson","location_type":"Force","location":{"latitude":"52.400015","street":{"id":1647036,"name":"On or near Nickson Road"},"longitude":"-1.585090"},"context":"","outcome_status":{"category":"Unable to prosecute suspect","date":"2026-01"},"persistent_id":"a9a562c01a46e11c8e4b46071ed067bf2b178285ef16020bb97bfdf0fcc96949","id":133491910,"location_subtype":"","month":"2026-01"},{"category":"criminal-damage-arson","location_type":"Force","location":{"latitude":"52.392452","street":{"id":1647413,"name":"On or near Thimbler Road"},"longitude":"-1.559665"},"context":"","outcome_status":{"category":"Investigation complete; no suspect identified","date":"2026-01"},"persistent_id":"7c3f6e6a78f79c065c6ed1da197dded2f38fe1f1edeea03621650b46e47e4f8d","id":133491687,"location_subtype":"","month":"2026-01"},{"category":"criminal-damage-arson","location_type":"Force","location":{"latitude":"52.398768","street":{"id":1647190,"name":"On or near William Lewis Walk"},"longitude":"-1.573285"},"context":"","outcome_status":{"category":"Under investigation","date":"2026-01"},"persistent_id":"b7ad5b93f93854bed95cd00b98eaf2d23c18246b248d392a1e93d58f05e96350","id":133491579,"location_subtype":"","month":"2026-01"},{"category":"drugs","location_type":"Force","location":{"latitude":"52.391571","street":{"id":1647226,"name":"On or near Mitchell Avenue"},"longitude":"-1.569431"},"context":"","outcome_status":{"category":"Awaiting court outcome","date":"2026-01"},"persistent_id":"0a0fd7de4c4ee812332a6a6183fbdb3600ca221a3de5dfae031c1b1f0ade04fd","id":133478863,"location_subtype":"","month":"2026-01"},{"category":"other-theft","location_type":"Force","location":{"latitude":"52.408941","street":{"id":1647122,"name":"On or near George Hodgkinson Close"},"longitude":"-1.577200"},"context":"","outcome_status":{"category":"Investigation complete; no suspect identified","date":"2026-01"},"persistent_id":"81060e2c8eb1c9e25b91cc7a569a594ac7ee4eba47003281fd20e1e0f1cba37f","id":133309737,"location_subtype":"","month":"2026-01"},{"category":"other-theft","location_type":"Force","location":{"latitude":"52.408941","street":{"id":1647122,"name":"On or near George Hodgkinson Close"},"longitude":"-1.577200"},"context":"","outcome_status":{"category":"Under investigation","date":"2026-01"},"persistent_id":"f85e4f62eaadf832a654971bec2b97657ea69d9c1675597c95c8f7ad42ee4c15","id":133472673,"location_subtype":"","month":"2026-01"},{"category":"other-theft","location_type":"Force","location":{"latitude":"52.393731","street":{"id":1647308,"name":"On or near John Rous Avenue"},"longitude":"-1.565016"},"context":"","outcome_status":{"category":"Investigation complete; no suspect identified","date":"2026-01"},"persistent_id":"82f82b88679be596d98bbef9385b64603ba0695edb51b2085805e3a12792fe27","id":133481886,"location_subtype":"","month":"2026-01"},{"category":"other-theft","location_type":"Force","location":{"latitude":"52.396775","street":{"id":1647479,"name":"On or near Fletchworth Gate"},"longitude":"-1.552126"},"context":"","outcome_status":{"category":"Investigation complete; no suspect identified","date":"2026-01"},"persistent_id":"6a433cde2e299322f5b568a7a6fca25220c8efe0ae1c359ab4915e032a91e02f","id":133484321,"location_subtype":"","month":"2026-01"},{"category":"other-theft","location_type":"Force","location":{"latitude":"52.405712","street":{"id":1647443,"name":"On or near Broadlands Close"},"longitude":"-1.557137"},"context":"","outcome_status":{"category":"Investigation complete; no suspect identified","date":"2026-01"},"persistent_id":"2332b61688cfd14c7727c5a51965bdb9201f66bca495f71da6587e48e7a1b805","id":133484454,"location_subtype":"","month":"2026-01"},{"category":"other-theft","location_type":"Force","location":{"latitude":"52.393314","street":{"id":1647295,"name":"On or near Walsall Street"},"longitude":"-1.566475"},"context":"","outcome_status":{"category":"Investigation complete; no suspect identified","date":"2026-01"},"persistent_id":"3d0d63d6ed84dc468351d69086a53c04a19dc1112c04fb6566c465b23c931652","id":133474825,"location_subtype":"","month":"2026-01"},{"category":"other-theft","location_type":"Force","location":{"latitude":"52.385576","street":{"id":1647229,"name":"On or near Further/higher Educational Building"},"longitude":"-1.564787"},"context":"","outcome_status":{"category":"Under investigation","date":"2026-01"},"persistent_id":"79ad76853955d6082557dd2d7b0e3bd4fec02270f3f62bc102f2ec00a9f6de05","id":133475564,"location_subtype":"","month":"2026-01"},{"category":"other-theft","location_type":"Force","location":{"latitude":"52.385576","street":{"id":1647229,"name":"On or near Further/higher Educational Building"},"longitude":"-1.564787"},"context":"","outcome_status":{"category":"Under investigation","date":"2026-01"},"persistent_id":"98147bc0ce4befbcc564e7e20ab11946808a755e683fcece2e45a1cd1cb3cae2","id":133477932,"location_subtype":"","month":"2026-01"},{"category":"other-theft","location_type":"Force","location":{"latitude":"52.395252","street":{"id":1647465,"name":"On or near Downey Birch"},"longitude":"-1.555904"},"context":"","outcome_status":{"category":"Investigation complete; no suspect identified","date":"2026-01"},"persistent_id":"875928345425b721dcdb0ec7d19a6a3034d30595bcd865728ac4b42a6c8017f8","id":133486200,"location_subtype":"","month":"2026-01"},{"category":"other-theft","location_type":"Force","location":{"latitude":"52.394234","street":{"id":1647444,"name":"On or near Turnstone View"},"longitude":"-1.557560"},"context":"","outcome_status":{"category":"Unable to prosecute suspect","date":"2026-01"},"persistent_id":"b023aef92d9f0738d846eeec9a5f08d31c5be31f4e55dae0d9c26c834f2f016b","id":133489996,"location_subtype":"","month":"2026-01"},{"category":"other-theft","location_type":"Force","location":{"latitude":"52.401651","street":{"id":1647382,"name":"On or near Sports/recreation Area"},"longitude":"-1.561713"},"context":"","outcome_status":{"category":"Investigation complete; no suspect identified","date":"2026-01"},"persistent_id":"7dc2fa09423fbded6e20c0386b739ec917a057cd45cf907f6cbb01d48516475f","id":133490527,"location_subtype":"","month":"2026-01"},{"category":"other-theft","location_type":"Force","location":{"latitude":"52.385576","street":{"id":1647229,"name":"On or near Further/higher Educational Building"},"longitude":"-1.564787"},"context":"","outcome_status":{"category":"Investigation complete; no suspect identified","date":"2026-01"},"persistent_id":"add58624b45111cec3cdd5bd23d83ecc667a80619787a115703d2c7bc76718a6","id":133488014,"location_subtype":"","month":"2026-01"},{"category":"other-theft","location_type":"Force","location":{"latitude":"52.388677","street":{"id":1647405,"name":"On or near Parking Area"},"longitude":"-1.559923"},"context":"","outcome_status":{"category":"Unable to prosecute suspect","date":"2026-01"},"persistent_id":"98131f71921fa098a4a9045aa7149e341c1e44c5f39380175436bee598802f3a","id":133477548,"location_subtype":"","month":"2026-01"},{"category":"other-theft","location_type":"Force","location":{"latitude":"52.394287","street":{"id":1647071,"name":"On or near Warren Green"},"longitude":"-1.582101"},"context":"","outcome_status":{"category":"Under investigation","date":"2026-01"},"persistent_id":"e67f1dbe2298d1dc4b0beb6c7d381f123e898f4d5509b37021b5449f704a68fe","id":133487563,"location_subtype":"","month":"2026-01"},{"category":"other-theft","location_type":"Force","location":{"latitude":"52.392764","street":{"id":1647421,"name":"On or near Bonneville Road"},"longitude":"-1.558941"},"context":"","outcome_status":{"category":"Under investigation","date":"2026-01"},"persistent_id":"6c6cd773a1cb6787cd33fa3b89bff84a852b77dabf18aec22e5c9724d2fcac85","id":133472535,"location_subtype":"","month":"2026-01"},{"category":"other-theft","location_type":"Force","location":{"latitude":"52.401396","street":{"id":1647132,"name":"On or near Blanchfort Close"},"longitude":"-1.576434"},"context":"","outcome_status":{"category":"Under investigation","date":"2026-01"},"persistent_id":"9dddf779136cb00af0499ac5a43676e1c541571563ae53a56a16c0c550bc4a3b","id":133472727,"location_subtype":"","month":"2026-01"},{"category":"possession-of-weapons","location_type":"Force","location":{"latitude":"52.409915","street":{"id":1647092,"name":"On or near Loder Close"},"longitude":"-1.580410"},"context":"","outcome_status":{"category":"Under investigation","date":"2026-01"},"persistent_id":"05b247f94b2a131b949c13c53ffc263c5b365ba79ceecce8c36a5ad5ad26f14f","id":133488858,"location_subtype":"","month":"2026-01"},{"category":"possession-of-weapons","location_type":"Force","location":{"latitude":"52.398768","street":{"id":1647190,"name":"On or near William Lewis Walk"},"longitude":"-1.573285"},"context":"","outcome_status":{"category":"Awaiting court outcome","date":"2026-01"},"persistent_id":"18f1e85b6b913aa7afa421de8be57e609361fa7bc80074593d37e80108362944","id":133491880,"location_subtype":"","month":"2026-01"},{"category":"public-order","location_type":"Force","location":{"latitude":"52.391555","street":{"id":1647314,"name":"On or near Hunt Terrace"},"longitude":"-1.564978"},"context":"","outcome_status":{"category":"Under investigation","date":"2026-01"},"persistent_id":"a393edcf47076cbe28ab7019c815544a1c43c6701e75ea794648b0f7e18c6716","id":133473307,"location_subtype":"","month":"2026-01"},{"category":"public-order","location_type":"Force","location":{"latitude":"52.394292","street":{"id":1647245,"name":"On or near Hemsby Close"},"longitude":"-1.568625"},"context":"","outcome_status":{"category":"Awaiting court outcome","date":"2026-01"},"persistent_id":"850b65b5bd4287aeea3b649780dadb1baaf04ef931874718792c2d532932e1fb","id":133477877,"location_subtype":"","month":"2026-01"},{"category":"public-order","location_type":"Force","location":{"latitude":"52.399011","street":{"id":1647262,"name":"On or near Defenda Close"},"longitude":"-1.568388"},"context":"","outcome_status":{"category":"Under investigation","date":"2026-01"},"persistent_id":"921a28e0756de81938ed22b6cd168df1879edd21d8141cbe78921c9a9c7ca7a8","id":133475997,"location_subtype":"","month":"2026-01"},{"category":"public-order","location_type":"Force","location":{"latitude":"52.394352","street":{"id":1647158,"name":"On or near Kele Road"},"longitude":"-1.575253"},"context":"","outcome_status":{"category":"Under investigation","date":"2026-01"},"persistent_id":"8b02912f473ffba6f340aba65befa9a8b79519c4925004cfc56294a8e064f5ff","id":133478540,"location_subtype":"","month":"2026-01"},{"category":"public-order","location_type":"Force","location":{"latitude":"52.393851","street":{"id":1647031,"name":"On or near Wedon Close"},"longitude":"-1.586029"},"context":"","outcome_status":{"category":"Under investigation","date":"2026-01"},"persistent_id":"d2ed03fadeded8162edd78385cc8dc39c11b06bfba44e883d41059116b2ea49d","id":133488167,"location_subtype":"","month":"2026-01"},{"category":"public-order","location_type":"Force","location":{"latitude":"52.410435","street":{"id":1647098,"name":"On or near Bush Close"},"longitude":"-1.580008"},"context":"","outcome_status":{"category":"Under investigation","date":"2026-01"},"persistent_id":"f4e3c71efe0efdc87ac036e28ef8af3a905aadd31917f42f8000b7db00238198","id":133478029,"location_subtype":"","month":"2026-01"},{"category":"public-order","location_type":"Force","location":{"latitude":"52.393503","street":{"id":1647211,"name":"On or near Wansfell Close"},"longitude":"-1.571675"},"context":"","outcome_status":{"category":"Under investigation","date":"2026-01"},"persistent_id":"887c037758c304f18cb9f99a58ad5b5a0a01c304dd31ecc485e540ac29ce1391","id":133473272,"location_subtype":"","month":"2026-01"},{"category":"public-order","location_type":"Force","location":{"latitude":"52.395854","street":{"id":1647365,"name":"On or near Queen Margaret's Road"},"longitude":"-1.560542"},"context":"","outcome_status":{"category":"Under investigation","date":"2026-01"},"persistent_id":"0f19889b233e1901a29783d5f10bb95c659d372281d8596d9afc5b54acff41c7","id":133479826,"location_subtype":"","month":"2026-01"},{"category":"public-order","location_type":"Force","location":{"latitude":"52.400880","street":{"id":1647166,"name":"On or near Montbard Close"},"longitude":"-1.575410"},"context":"","outcome_status":{"category":"Investigation complete; no suspect identified","date":"2026-01"},"persistent_id":"6e0bbde081ff4fcbea16ff12db53e4f2051a26c314d1a2314ac1c2642904844c","id":133489827,"location_subtype":"","month":"2026-01"},{"category":"public-order","location_type":"Force","location":{"latitude":"52.404105","street":{"id":1647015,"name":"On or near Nutbrook Avenue"},"longitude":"-1.587374"},"context":"","outcome_status":{"category":"Unable to prosecute suspect","date":"2026-01"},"persistent_id":"b1ec76ef618f094b94eed6a3fec47c1909d04f764135dd1c6492c00597764b95","id":133491211,"location_subtype":"","month":"2026-01"},{"category":"public-order","location_type":"Force","location":{"latitude":"52.393214","street":{"id":1647325,"name":"On or near Henry Boteler Road"},"longitude":"-1.563933"},"context":"","outcome_status":{"category":"Under investigation","date":"2026-01"},"persistent_id":"519141ebe2e637669229eb6998f7b3025123a4af371df76c25c2a3a0e87f49a4","id":133474621,"location_subtype":"","month":"2026-01"},{"category":"robbery","location_type":"Force","location":{"latitude":"52.408855","street":{"id":1647110,"name":"On or near Thomas Naul Croft"},"longitude":"-1.578230"},"context":"","outcome_status":{"category":"Under investigation","date":"2026-01"},"persistent_id":"8560281199524c1e494b44be015dc1fe0a02824a897260a6858f98f175be07d1","id":133473395,"location_subtype":"","month":"2026-01"},{"category":"robbery","location_type":"Force","location":{"latitude":"52.396153","street":{"id":1647526,"name":"On or near Burnsall Road"},"longitude":"-1.551530"},"context":"","outcome_status":{"category":"Under investigation","date":"2026-01"},"persistent_id":"e487773673f53b7c8d49621e5c843ef45f248f4968694354e1279e94b0d7e1a9","id":133473388,"location_subtype":"","month":"2026-01"},{"category":"shoplifting","location_type":"Force","location":{"latitude":"52.394378","street":{"id":1647404,"name":"On or near Prior Deram Walk"},"longitude":"-1.560013"},"context":"","outcome_status":{"category":"Under investigation","date":"2026-01"},"persistent_id":"bd43b6dbaef929b585f288c56e54b9c1247d15d82c6ac3b08fe70fae6197740f","id":133491756,"location_subtype":"","month":"2026-01"},{"category":"shoplifting","location_type":"Force","location":{"latitude":"52.403756","street":{"id":1647343,"name":"On or near Supermarket"},"longitude":"-1.562815"},"context":"","outcome_status":{"category":"Under investigation","date":"2026-01"},"persistent_id":"76092e7e8fe8fc31dbca509e5902f4345bc4a5748ff91c7364ee498e6c0a5759","id":133476228,"location_subtype":"","month":"2026-01"},{"category":"shoplifting","location_type":"Force","location":{"latitude":"52.403756","street":{"id":1647343,"name":"On or near Supermarket"},"longitude":"-1.562815"},"context":"","outcome_status":{"category":"Under investigation","date":"2026-01"},"persistent_id":"7c977e3c08af53a1eae0579651c5ba62aa6f976898b1cb3ad4400137e5907eb6","id":133476235,"location_subtype":"","month":"2026-01"},{"category":"shoplifting","location_type":"Force","location":{"latitude":"52.400582","street":{"id":1646972,"name":"On or near Petrol Station"},"longitude":"-1.594973"},"context":"","outcome_status":{"category":"Under investigation","date":"2026-01"},"persistent_id":"f473ff0b9636bf39ba196382d150fca98c6d56cd2957e3ca8449275ff1689f13","id":133492105,"location_subtype":"","month":"2026-01"},{"category":"shoplifting","location_type":"Force","location":{"latitude":"52.400582","street":{"id":1646972,"name":"On or near Petrol Station"},"longitude":"-1.594973"},"context":"","outcome_status":{"category":"Under investigation","date":"2026-01"},"persistent_id":"1475493fe8f5bbc9ed43b9008c02b884780e575c3334428965134962ce115684","id":133492107,"location_subtype":"","month":"2026-01"},{"category":"shoplifting","location_type":"Force","location":{"latitude":"52.401551","street":{"id":1647475,"name":"On or near Supermarket"},"longitude":"-1.554988"},"context":"","outcome_status":{"category":"Under investigation","date":"2026-01"},"persistent_id":"274bd8d167aaaff1514bc372a5776b0113c0da2bff667441cdb505912cdb1ac9","id":133488386,"location_subtype":"","month":"2026-01"},{"category":"shoplifting","location_type":"Force","location":{"latitude":"52.407785","street":{"id":1647111,"name":"On or near Ferrers Close"},"longitude":"-1.578093"},"context":"","outcome_status":{"category":"Investigation complete; no suspect identified","date":"2026-01"},"persistent_id":"0266ab3cd8178b25256877b19ca56c0e9de0aff2095043b23526447f955a91bf","id":133482501,"location_subtype":"","month":"2026-01"},{"category":"theft-from-the-person","location_type":"Force","location":{"latitude":"52.398666","street":{"id":1647123,"name":"On or near Meadowcroft Close"},"longitude":"-1.577416"},"context":"","outcome_status":{"category":"Investigation complete; no suspect identified","date":"2026-01"},"persistent_id":"8644b7caf5b15c274cd844525d7b583c85c78d31251e5879624edf1b3df9b006","id":133494276,"location_subtype":"","month":"2026-01"},{"category":"vehicle-crime","location_type":"Force","location":{"latitude":"52.390748","street":{"id":1647360,"name":"On or near Norfolk Terrace"},"longitude":"-1.560593"},"context":"","outcome_status":{"category":"Investigation complete; no suspect identified","date":"2026-01"},"persistent_id":"a27bee229a58a84d1e4afa27d6ccc00567817ec9b8942b2ae2a941c3d0e651fd","id":133473312,"location_subtype":"","month":"2026-01"},{"category":"vehicle-crime","location_type":"Force","location":{"latitude":"52.401458","street":{"id":1647315,"name":"On or near Middlecotes"},"longitude":"-1.563852"},"context":"","outcome_status":{"category":"Under investigation","date":"2026-01"},"persistent_id":"2d24a2d273c1405cb50b3ed708bbb37a2aef52d8eefe238a8ac36a91402300da","id":133478034,"location_subtype":"","month":"2026-01"},{"category":"vehicle-crime","location_type":"Force","location":{"latitude":"52.388185","street":{"id":1647476,"name":"On or near Shopping Area"},"longitude":"-1.555578"},"context":"","outcome_status":{"category":"Investigation complete; no suspect identified","date":"2026-01"},"persistent_id":"3868a9af45c1e983305ee42015d630acd47bba178abeddcf08ed99109c2ac045","id":133491353,"location_subtype":"","month":"2026-01"},{"category":"vehicle-crime","location_type":"Force","location":{"latitude":"52.405252","street":{"id":1647177,"name":"On or near Woodcraft Close"},"longitude":"-1.573707"},"context":"","outcome_status":{"category":"Under investigation","date":"2026-01"},"persistent_id":"29afa26a0fbd83268b2df41d8b04c8615ccbe731fd1cb99d308494c33c44b03a","id":133483219,"location_subtype":"","month":"2026-01"},{"category":"violent-crime","location_type":"Force","location":{"latitude":"52.394076","street":{"id":1647062,"name":"On or near Page Road"},"longitude":"-1.583499"},"context":"","outcome_status":{"category":"Under investigation","date":"2026-01"},"persistent_id":"b1812d791603a51a5861b67bfa98c6b4066ddeda128db930154a8e06a891d32c","id":133473407,"location_subtype":"","month":"2026-01"},{"category":"violent-crime","location_type":"Force","location":{"latitude":"52.396729","street":{"id":1647337,"name":"On or near Consort Close"},"longitude":"-1.563869"},"context":"","outcome_status":{"category":"Unable to prosecute suspect","date":"2026-01"},"persistent_id":"cff4e0f8b9a7378d919e1669fd66cedc03de73ee69ede05ce43683186a29c534","id":133491385,"location_subtype":"","month":"2026-01"},{"category":"violent-crime","location_type":"Force","location":{"latitude":"52.401160","street":{"id":1647184,"name":"On or near Monks Field Close"},"longitude":"-1.573262"},"context":"","outcome_status":{"category":"Under investigation","date":"2026-01"},"persistent_id":"ed25bf3343d46264e8ba4e2ec27aaa59e20cdea56d98133f0be8908e2b4ad413","id":133486026,"location_subtype":"","month":"2026-01"},{"category":"violent-crime","location_type":"Force","location":{"latitude":"52.409151","street":{"id":1647099,"name":"On or near Jardine Crescent"},"longitude":"-1.580462"},"context":"","outcome_status":{"category":"Investigation complete; no suspect identified","date":"2026-01"},"persistent_id":"000f195e402737fc9de5e73d1091b458b85beccc6d55e409218969d74531386d","id":133487639,"location_subtype":"","month":"2026-01"},{"category":"violent-crime","location_type":"Force","location":{"latitude":"52.395854","street":{"id":1647365,"name":"On or near Queen Margaret's Road"},"longitude":"-1.560542"},"context":"","outcome_status":{"category":"Unable to prosecute suspect","date":"2026-01"},"persistent_id":"ab1f98a5957f545c1864060ccfe788d3c575291b81a61883b4e753933e54dcda","id":133493639,"location_subtype":"","month":"2026-01"},{"category":"violent-crime","location_type":"Force","location":{"latitude":"52.398666","street":{"id":1647123,"name":"On or near Meadowcroft Close"},"longitude":"-1.577416"},"context":"","outcome_status":{"category":"Under investigation","date":"2026-01"},"persistent_id":"493cd0f717eef5159cde04eeffced2c3f3d74de13938115da7e063078265da79","id":133471889,"location_subtype":"","month":"2026-01"},{"category":"violent-crime","location_type":"Force","location":{"latitude":"52.391555","street":{"id":1647314,"name":"On or near Hunt Terrace"},"longitude":"-1.564978"},"context":"","outcome_status":{"category":"Under investigation","date":"2026-01"},"persistent_id":"b482eae638227809ee1855742a05d7a379bda9f4eee4142b71b3bd8d9be5c1d1","id":133471916,"location_subtype":"","month":"2026-01"},{"category":"violent-crime","location_type":"Force","location":{"latitude":"52.406952","street":{"id":1647050,"name":"On or near Empire Road"},"longitude":"-1.584231"},"context":"","outcome_status":{"category":"Under investigation","date":"2026-01"},"persistent_id":"2adaaaff61f36866d1bdd2637fc9e605976c6069d60704fa5702a02c3882cae2","id":133472240,"location_subtype":"","month":"2026-01"},{"category":"violent-crime","location_type":"Force","location":{"latitude":"52.400522","street":{"id":1647217,"name":"On or near Templar Avenue"},"longitude":"-1.570946"},"context":"","outcome_status":{"category":"Under investigation","date":"2026-01"},"persistent_id":"2faaa55aeb1368417cd78c34a83bfc4c533085097097649b352be6f54ab6527d","id":133478322,"location_subtype":"","month":"2026-01"},{"category":"violent-crime","location_type":"Force","location":{"latitude":"52.393503","street":{"id":1647211,"name":"On or near Wansfell Close"},"longitude":"-1.571675"},"context":"","outcome_status":{"category":"Under investigation","date":"2026-01"},"persistent_id":"0314f7fc1af4c05a9a1e33303cec9a26bb2471a4e617a557765ff359ceb1b2c1","id":133478691,"location_subtype":"","month":"2026-01"},{"category":"violent-crime","location_type":"Force","location":{"latitude":"52.394292","street":{"id":1647245,"name":"On or near Hemsby Close"},"longitude":"-1.568625"},"context":"","outcome_status":{"category":"Awaiting court outcome","date":"2026-01"},"persistent_id":"ac281c058f93a1277973bd2782b37614f21a5ecd5d3e7ff1a46ee0ebfd860057","id":133478862,"location_subtype":"","month":"2026-01"},{"category":"violent-crime","location_type":"Force","location":{"latitude":"52.393770","street":{"id":1647218,"name":"On or near Penrose Close"},"longitude":"-1.570805"},"context":"","outcome_status":{"category":"Awaiting court outcome","date":"2026-01"},"persistent_id":"8fd47213225526a459f7ffcfe9dc6798d67da8e8c5fdf7ed17b13561ea826e87","id":133478870,"location_subtype":"","month":"2026-01"},{"category":"violent-crime","location_type":"Force","location":{"latitude":"52.394600","street":{"id":1647219,"name":"On or near Donegal Close"},"longitude":"-1.571547"},"context":"","outcome_status":{"category":"Under investigation","date":"2026-01"},"persistent_id":"f88d78ebd9023dde228adb1cbc1a7da3bae74889098c3c90cc0c757e7af3ce7b","id":133479257,"location_subtype":"","month":"2026-01"},{"category":"violent-crime","location_type":"Force","location":{"latitude":"52.395537","street":{"id":1647131,"name":"On or near Hancock Green"},"longitude":"-1.577255"},"context":"","outcome_status":{"category":"Investigation complete; no suspect identified","date":"2026-01"},"persistent_id":"11c4c21227db1d89ad7e04435018b3499b48719fccc428cbfbe45350bdc744fa","id":133484925,"location_subtype":"","month":"2026-01"},{"category":"violent-crime","location_type":"Force","location":{"latitude":"52.393770","street":{"id":1647218,"name":"On or near Penrose Close"},"longitude":"-1.570805"},"context":"","outcome_status":{"category":"Investigation complete; no suspect identified","date":"2026-01"},"persistent_id":"6443413fb54f4afd9b000c79d2f22017e96a053251ea3b237c2171f4e911fc43","id":133485833,"location_subtype":"","month":"2026-01"},{"category":"violent-crime","location_type":"Force","location":{"latitude":"52.404105","street":{"id":1647015,"name":"On or near Nutbrook Avenue"},"longitude":"-1.587374"},"context":"","outcome_status":{"category":"Under investigation","date":"2026-01"},"persistent_id":"b8b8667dda9627d7c4534f8ed62d9d15531273d1bd0b6f876cd3878b6e34a0b9","id":133485878,"location_subtype":"","month":"2026-01"},{"category":"violent-crime","location_type":"Force","location":{"latitude":"52.404694","street":{"id":1647054,"name":"On or near Frisby Road"},"longitude":"-1.583605"},"context":"","outcome_status":{"category":"Under investigation","date":"2026-01"},"persistent_id":"7fe7f1d697284f8ca9225b6353e2369f6af60d46fec06139e2dbacfa1e01e386","id":133486086,"location_subtype":"","month":"2026-01"},{"category":"violent-crime","location_type":"Force","location":{"latitude":"52.401041","street":{"id":1647303,"name":"On or near Westcotes"},"longitude":"-1.565223"},"context":"","outcome_status":{"category":"Unable to prosecute suspect","date":"2026-01"},"persistent_id":"81936f81101be66601b168fb98e012a1230126de02db45874cf847f7abcd40fc","id":133486261,"location_subtype":"","month":"2026-01"},{"category":"violent-crime","location_type":"Force","location":{"latitude":"52.400047","street":{"id":1647088,"name":"On or near Dormer Harris Avenue"},"longitude":"-1.581268"},"context":"","outcome_status":{"category":"Unable to prosecute suspect","date":"2026-01"},"persistent_id":"51a68582a4bfcdda02048dbf978d78af95e970672ba73b925b011c958dce5215","id":133486307,"location_subtype":"","month":"2026-01"},{"category":"violent-crime","location_type":"Force","location":{"latitude":"52.408941","street":{"id":1647122,"name":"On or near George Hodgkinson Close"},"longitude":"-1.577200"},"context":"","outcome_status":{"category":"Under investigation","date":"2026-01"},"persistent_id":"7a314e281f84ff897afeac327eea46c1c69c79136f3799fa4a6f7d8f5aa83f2d","id":133486357,"location_subtype":"","month":"2026-01"},{"category":"violent-crime","location_type":"Force","location":{"latitude":"52.402064","street":{"id":1647440,"name":"On or near Petrol Station"},"longitude":"-1.557452"},"context":"","outcome_status":{"category":"Unable to prosecute suspect","date":"2026-01"},"persistent_id":"8cc4ee85460bcb52696ade8ab83a3c91185c849fd1d646afa95d4170186efcdc","id":133484140,"location_subtype":"","month":"2026-01"},{"category":"violent-crime","location_type":"Force","location":{"latitude":"52.394766","street":{"id":1647113,"name":"On or near Whitchurch Way"},"longitude":"-1.577703"},"context":"","outcome_status":{"category":"Under investigation","date":"2026-01"},"persistent_id":"c88ecac56c1f108ac02809edbd9fa88a52172dc5650357eb1f855b025cc9716c","id":133070649,"location_subtype":"","month":"2026-01"},{"category":"violent-crime","location_type":"Force","location":{"latitude":"52.408245","street":{"id":1647130,"name":"On or near Goode Croft"},"longitude":"-1.575987"},"context":"","outcome_status":{"category":"Unable to prosecute suspect","date":"2026-01"},"persistent_id":"11f429a9dd29b762863eb42223da1ef4cdf7e4dc3f70d9ff33b88d4f70ce0f38","id":133487788,"location_subtype":"","month":"2026-01"},{"category":"violent-crime","location_type":"Force","location":{"latitude":"52.408178","street":{"id":1647412,"name":"On or near Harewood Road"},"longitude":"-1.557626"},"context":"","outcome_status":{"category":"Under investigation","date":"2026-01"},"persistent_id":"f7c07d3be40aae3c2fe6be980d110e5485ff90d36f9abd1286ed1a28e095f6f7","id":133487859,"location_subtype":"","month":"2026-01"},{"category":"violent-crime","location_type":"Force","location":{"latitude":"52.393851","street":{"id":1647031,"name":"On or near Wedon Close"},"longitude":"-1.586029"},"context":"","outcome_status":{"category":"Investigation complete; no suspect identified","date":"2026-01"},"persistent_id":"ffa2a7d159673059f58577dc6a45f46c172e099912f8c9b896019bcc0258b2ba","id":133487983,"location_subtype":"","month":"2026-01"},{"category":"violent-crime","location_type":"Force","location":{"latitude":"52.395457","street":{"id":1647363,"name":"On or near Gerard Avenue"},"longitude":"-1.562677"},"context":"","outcome_status":{"category":"Local resolution","date":"2026-01"},"persistent_id":"0032e232c11dadd87f32dbc75fbbde7267e34f80e775d1ae7eb3aa0152c99c0c","id":133488200,"location_subtype":"","month":"2026-01"},{"category":"violent-crime","location_type":"Force","location":{"latitude":"52.393851","street":{"id":1647031,"name":"On or near Wedon Close"},"longitude":"-1.586029"},"context":"","outcome_status":{"category":"Unable to prosecute suspect","date":"2026-01"},"persistent_id":"59b09d581a0f6bc6ffe20d3f9b662da3f2cdf5592545a55161c4fb3e4ff6a652","id":133488229,"location_subtype":"","month":"2026-01"},{"category":"violent-crime","location_type":"Force","location":{"latitude":"52.400015","street":{"id":1647036,"name":"On or near Nickson Road"},"longitude":"-1.585090"},"context":"","outcome_status":{"category":"Under investigation","date":"2026-01"},"persistent_id":"a6301381a9eb12987e55b9cd3807f6c5ea863e49b00dd4c1143d89b62f930479","id":133472307,"location_subtype":"","month":"2026-01"},{"category":"violent-crime","location_type":"Force","location":{"latitude":"52.400522","street":{"id":1647217,"name":"On or near Templar Avenue"},"longitude":"-1.570946"},"context":"","outcome_status":{"category":"Under investigation","date":"2026-01"},"persistent_id":"e2ef7828600b0ad609c891eb49427691a1c43a896b8af2b8788a084c1a9ccfbc","id":133472358,"location_subtype":"","month":"2026-01"},{"category":"violent-crime","location_type":"Force","location":{"latitude":"52.400582","street":{"id":1646972,"name":"On or near Petrol Station"},"longitude":"-1.594973"},"context":"","outcome_status":{"category":"Under investigation","date":"2026-01"},"persistent_id":"0eb6c9c77a229f235d340acc6898703835fb62a66ff9d23aa89800f38186355b","id":133481600,"location_subtype":"","month":"2026-01"},{"category":"violent-crime","location_type":"Force","location":{"latitude":"52.399350","street":{"id":1647023,"name":"On or near Sorrel Close"},"longitude":"-1.587609"},"context":"","outcome_status":{"category":"Unable to prosecute suspect","date":"2026-01"},"persistent_id":"8476390fde495cae71e08e15b7c04d268ec1acc860ded46862ec739f4895a1fa","id":133477278,"location_subtype":"","month":"2026-01"},{"category":"violent-crime","location_type":"Force","location":{"latitude":"52.394600","street":{"id":1647219,"name":"On or near Donegal Close"},"longitude":"-1.571547"},"context":"","outcome_status":{"category":"Under investigation","date":"2026-01"},"persistent_id":"80756e833cbeefabeb5c27882db69dc846d6710f229e0b23892777ef7de7b0d5","id":133494923,"location_subtype":"","month":"2026-01"},{"category":"violent-crime","location_type":"Force","location":{"latitude":"52.400015","street":{"id":1647036,"name":"On or near Nickson Road"},"longitude":"-1.585090"},"context":"","outcome_status":{"category":"Unable to prosecute suspect","date":"2026-01"},"persistent_id":"6138aefe9b65bcb20dd353f055d868df830a63dcdde539918335771b4627517e","id":133479017,"location_subtype":"","month":"2026-01"},{"category":"violent-crime","location_type":"Force","location":{"latitude":"52.406952","street":{"id":1647050,"name":"On or near Empire Road"},"longitude":"-1.584231"},"context":"","outcome_status":{"category":"Under investigation","date":"2026-01"},"persistent_id":"8cd51090825f6ca20497a0b8cf0d185d34c165c1b2e6ba00012e1a4197a4d8be","id":133493007,"location_subtype":"","month":"2026-01"},{"category":"violent-crime","location_type":"Force","location":{"latitude":"52.396153","street":{"id":1647526,"name":"On or near Burnsall Road"},"longitude":"-1.551530"},"context":"","outcome_status":{"category":"Unable to prosecute suspect","date":"2026-01"},"persistent_id":"5b94cd16e46416a006a1b2ce445dc4e24204e26148394266ae5b30b44bbd9ebd","id":133486354,"location_subtype":"","month":"2026-01"},{"category":"violent-crime","location_type":"Force","location":{"latitude":"52.395457","street":{"id":1647363,"name":"On or near Gerard Avenue"},"longitude":"-1.562677"},"context":"","outcome_status":{"category":"Unable to prosecute suspect","date":"2026-01"},"persistent_id":"36580e8b05272645654aa92973237bdab8eb4cb090777d99067901f1d72989ac","id":133488201,"location_subtype":"","month":"2026-01"},{"category":"violent-crime","location_type":"Force","location":{"latitude":"52.393503","street":{"id":1647211,"name":"On or near Wansfell Close"},"longitude":"-1.571675"},"context":"","outcome_status":{"category":"Under investigation","date":"2026-01"},"persistent_id":"e2a585d2f3b20be251d7f8c51687daa47708d18338332193f396f7898f45339a","id":133485087,"location_subtype":"","month":"2026-01"},{"category":"violent-crime","location_type":"Force","location":{"latitude":"52.408163","street":{"id":1647061,"name":"On or near Cavendish Road"},"longitude":"-1.583367"},"context":"","outcome_status":{"category":"Under investigation","date":"2026-01"},"persistent_id":"91dee5a458ed202425f8d5ee09df79c72745d56cb3cb1eeeb8e04ffa43db6d12","id":133486115,"location_subtype":"","month":"2026-01"},{"category":"violent-crime","location_type":"Force","location":{"latitude":"52.395457","street":{"id":1647363,"name":"On or near Gerard Avenue"},"longitude":"-1.562677"},"context":"","outcome_status":{"category":"Investigation complete; no suspect identified","date":"2026-01"},"persistent_id":"9b411a004f3037863a324d4da3bc4d2203b77edf37fa51746bc8e45b8dc55980","id":133488131,"location_subtype":"","month":"2026-01"},{"category":"violent-crime","location_type":"Force","location":{"latitude":"52.393503","street":{"id":1647211,"name":"On or near Wansfell Close"},"longitude":"-1.571675"},"context":"","outcome_status":{"category":"Under investigation","date":"2026-01"},"persistent_id":"e04ae2778d7766a5a5320226e234350b189225370f17bcfba183b29e1876d4bd","id":133476673,"location_subtype":"","month":"2026-01"},{"category":"violent-crime","location_type":"Force","location":{"latitude":"52.404001","street":{"id":1647199,"name":"On or near Lawley Close"},"longitude":"-1.573264"},"context":"","outcome_status":{"category":"Unable to prosecute suspect","date":"2026-01"},"persistent_id":"333388a2110b22cff82fb8bc2cd51ec6055ac10db162c3a8b1ed14cf6bfaef13","id":133488927,"location_subtype":"","month":"2026-01"},{"category":"violent-crime","location_type":"Force","location":{"latitude":"52.407401","street":{"id":1647182,"name":"On or near The Oaklands"},"longitude":"-1.573775"},"context":"","outcome_status":{"category":"Unable to prosecute suspect","date":"2026-01"},"persistent_id":"ccb0a9a9bc27941a12448af18f8bf7cdedf28927c9ed0fd3d78be546c309e3cb","id":133478049,"location_subtype":"","month":"2026-01"},{"category":"violent-crime","location_type":"Force","location":{"latitude":"52.394038","street":{"id":1647039,"name":"On or near Bradney Green"},"longitude":"-1.585366"},"context":"","outcome_status":{"category":"Unable to prosecute suspect","date":"2026-01"},"persistent_id":"bf3ea3e85b465277b1f6be38025ca8107fff946826acfee72fdafad99c3b6883","id":133489389,"location_subtype":"","month":"2026-01"},{"category":"violent-crime","location_type":"Force","location":{"latitude":"52.390449","street":{"id":1647000,"name":"On or near Bronze View"},"longitude":"-1.592762"},"context":"","outcome_status":{"category":"Under investigation","date":"2026-01"},"persistent_id":"6b9f320e387611028b3186ee2fe9fba011780cf0182fb276ee6d8e329ae646b8","id":133492237,"location_subtype":"","month":"2026-01"},{"category":"violent-crime","location_type":"Force","location":{"latitude":"52.410435","street":{"id":1647098,"name":"On or near Bush Close"},"longitude":"-1.580008"},"context":"","outcome_status":{"category":"Under investigation","date":"2026-01"},"persistent_id":"e7247555700fdd8a0118a0598ef234e88efbb776c9ca40bed551ca9686e607a9","id":133494329,"location_subtype":"","month":"2026-01"},{"category":"violent-crime","location_type":"Force","location":{"latitude":"52.407115","street":{"id":1647133,"name":"On or near Joshua Close"},"longitude":"-1.574307"},"context":"","outcome_status":{"category":"Unable to prosecute suspect","date":"2026-01"},"persistent_id":"23a95ba764fb21004d5f8a1fc4367833b9ea313a7212122aafe5ab54a6e69783","id":133494365,"location_subtype":"","month":"2026-01"},{"category":"violent-crime","location_type":"Force","location":{"latitude":"52.391571","street":{"id":1647226,"name":"On or near Mitchell Avenue"},"longitude":"-1.569431"},"context":"","outcome_status":{"category":"Under investigation","date":"2026-01"},"persistent_id":"bee7eabb93651573ce10914aa161ac09e2c5d7973937b9166e9001e9ce36c2dc","id":133488514,"location_subtype":"","month":"2026-01"},{"category":"violent-crime","location_type":"Force","location":{"latitude":"52.393770","street":{"id":1647218,"name":"On or near Penrose Close"},"longitude":"-1.570805"},"context":"","outcome_status":{"category":"Under investigation","date":"2026-01"},"persistent_id":"6eaadc6b66f6c5d1b0d959ac0787f975209a4943fae03f7afee57b9b4bd312c9","id":133489374,"location_subtype":"","month":"2026-01"},{"category":"violent-crime","location_type":"Force","location":{"latitude":"52.394076","street":{"id":1647062,"name":"On or near Page Road"},"longitude":"-1.583499"},"context":"","outcome_status":{"category":"Awaiting court outcome","date":"2026-01"},"persistent_id":"2cce24e95cb46c3d7035009d8b33abafbdb03226152cb042dab968b4edcd0e86","id":133489385,"location_subtype":"","month":"2026-01"},{"category":"violent-crime","location_type":"Force","location":{"latitude":"52.398666","street":{"id":1647123,"name":"On or near Meadowcroft Close"},"longitude":"-1.577416"},"context":"","outcome_status":{"category":"Unable to prosecute suspect","date":"2026-01"},"persistent_id":"3c6a2a7df963b6a0305fa67fa6daeb2f5fe4a363b673c75c70b695277777fef0","id":133490410,"location_subtype":"","month":"2026-01"},{"category":"violent-crime","location_type":"Force","location":{"latitude":"52.408163","street":{"id":1647061,"name":"On or near Cavendish Road"},"longitude":"-1.583367"},"context":"","outcome_status":{"category":"Under investigation","date":"2026-01"},"persistent_id":"ffa878bf219be88817b01e7af26c8129c11ccedea0415447a8665e6375c6f79d","id":133491316,"location_subtype":"","month":"2026-01"},{"category":"violent-crime","location_type":"Force","location":{"latitude":"52.386286","street":{"id":1647082,"name":"On or near Heath Green Way"},"longitude":"-1.582133"},"context":"","outcome_status":{"category":"Under investigation","date":"2026-01"},"persistent_id":"eb5f38d7ce3c020f3625a886ea10a9ee0e8074119052a762ded5fa624f2a69aa","id":133478210,"location_subtype":"","month":"2026-01"},{"category":"violent-crime","location_type":"Force","location":{"latitude":"52.402930","street":{"id":1647079,"name":"On or near Pinnock Place"},"longitude":"-1.580726"},"context":"","outcome_status":{"category":"Under investigation","date":"2026-01"},"persistent_id":"33e58715bcd66ebfeb703d1053c4b5e50b5c741f82491726ee0426c27edeef29","id":133477280,"location_subtype":"","month":"2026-01"},{"category":"violent-crime","location_type":"Force","location":{"latitude":"52.393672","street":{"id":1647162,"name":"On or near Glebe Close"},"longitude":"-1.573466"},"context":"","outcome_status":{"category":"Under investigation","date":"2026-01"},"persistent_id":"8febfe53501bb874399ab296b107594a6cd071e9c235033fd95ed71e380f382c","id":133480851,"location_subtype":"","month":"2026-01"},{"category":"violent-crime","location_type":"Force","location":{"latitude":"52.390449","street":{"id":1647000,"name":"On or near Bronze View"},"longitude":"-1.592762"},"context":"","outcome_status":{"category":"Unable to prosecute suspect","date":"2026-01"},"persistent_id":"4760773fc75582030f01a4a8b156dce9ffb506478d2db1f153384dbf83ed1532","id":133492219,"location_subtype":"","month":"2026-01"},{"category":"violent-crime","location_type":"Force","location":{"latitude":"52.409299","street":{"id":1647064,"name":"On or near Coleman Street"},"longitude":"-1.581666"},"context":"","outcome_status":{"category":"Under investigation","date":"2026-01"},"persistent_id":"003bf4e031407312d9860595f156bb6e3932ee347b7bcab99bd2c283c303194d","id":133480503,"location_subtype":"","month":"2026-01"},{"category":"violent-crime","location_type":"Force","location":{"latitude":"52.395110","street":{"id":1647302,"name":"On or near Ryton Close"},"longitude":"-1.565928"},"context":"","outcome_status":{"category":"Unable to prosecute suspect","date":"2026-01"},"persistent_id":"cdacf4eefc2991a977bb62ff8cc192b6ddf7bda6f4e9ec8a12d5053c66d3a3db","id":133493107,"location_subtype":"","month":"2026-01"},{"category":"violent-crime","location_type":"Force","location":{"latitude":"52.400582","street":{"id":1646972,"name":"On or near Petrol Station"},"longitude":"-1.594973"},"context":"","outcome_status":{"category":"Unable to prosecute suspect","date":"2026-01"},"persistent_id":"4601c8a1d2ff47aa7e3c64dbcbfc55c7482cb4f4e2464657ccbbd255f48b449f","id":133493693,"location_subtype":"","month":"2026-01"},{"category":"violent-crime","location_type":"Force","location":{"latitude":"52.400582","street":{"id":1646972,"name":"On or near Petrol Station"},"longitude":"-1.594973"},"context":"","outcome_status":{"category":"Unable to prosecute suspect","date":"2026-01"},"persistent_id":"afd654f5b5b02c52a1a685d90002e36272bd5e67d123591ca6f510172ea8f7e9","id":133493696,"location_subtype":"","month":"2026-01"},{"category":"violent-crime","location_type":"Force","location":{"latitude":"52.396970","street":{"id":1647432,"name":"On or near Excelsior Road"},"longitude":"-1.558562"},"context":"","outcome_status":{"category":"Under investigation","date":"2026-01"},"persistent_id":"e854db3a374d59467a33a3a0430890934d2a48fa07427eea6bad1a6d0259d140","id":133493801,"location_subtype":"","month":"2026-01"},{"category":"violent-crime","location_type":"Force","location":{"latitude":"52.396970","street":{"id":1647432,"name":"On or near Excelsior Road"},"longitude":"-1.558562"},"context":"","outcome_status":{"category":"Under investigation","date":"2026-01"},"persistent_id":"b3b178b5755f32a71e936ef2b5ce2c14e1a5e62a6ef9eddc10c09b6735846ebd","id":133493811,"location_subtype":"","month":"2026-01"},{"category":"violent-crime","location_type":"Force","location":{"latitude":"52.410435","street":{"id":1647098,"name":"On or near Bush Close"},"longitude":"-1.580008"},"context":"","outcome_status":{"category":"Under investigation","date":"2026-01"},"persistent_id":"483f47c516b41db4a6573474df91db079306ad077c6901db624fdece6b1d5649","id":133494322,"location_subtype":"","month":"2026-01"},{"category":"violent-crime","location_type":"Force","location":{"latitude":"52.396052","street":{"id":1647338,"name":"On or near Rose Gardens"},"longitude":"-1.562965"},"context":"","outcome_status":{"category":"Investigation complete; no suspect identified","date":"2026-01"},"persistent_id":"77a315c18b691599fda6304f59cd1f3ba2d8ef51f90c7b49e43b3dca8dcde084","id":133494639,"location_subtype":"","month":"2026-01"},{"category":"violent-crime","location_type":"Force","location":{"latitude":"52.408124","street":{"id":1647047,"name":"On or near Aldrich Avenue"},"longitude":"-1.584984"},"context":"","outcome_status":{"category":"Under investigation","date":"2026-01"},"persistent_id":"20e9b144af30c88bbee61c336edeec45e9093d61aa9d5c43fea2ae765ab04671","id":133475152,"location_subtype":"","month":"2026-01"},{"category":"violent-crime","location_type":"Force","location":{"latitude":"52.394766","street":{"id":1647113,"name":"On or near Whitchurch Way"},"longitude":"-1.577703"},"context":"","outcome_status":{"category":"Under investigation","date":"2026-01"},"persistent_id":"bba4a43ecd263db270a28fb3a2cb7ef54be550ce1fc246cb9f930915a405e6df","id":133473738,"location_subtype":"","month":"2026-01"},{"category":"violent-crime","location_type":"Force","location":{"latitude":"52.392452","street":{"id":1647413,"name":"On or near Thimbler Road"},"longitude":"-1.559665"},"context":"","outcome_status":{"category":"Unable to prosecute suspect","date":"2026-01"},"persistent_id":"e2f005709add3813675425c27743b0fb0e74eebc3541146b1380e81ab1951fce","id":133474615,"location_subtype":"","month":"2026-01"},{"category":"violent-crime","location_type":"Force","location":{"latitude":"52.408124","street":{"id":1647047,"name":"On or near Aldrich Avenue"},"longitude":"-1.584984"},"context":"","outcome_status":{"category":"Under investigation","date":"2026-01"},"persistent_id":"5f437fb6b85345fd83a13ad2027a8659ef7b75655b8655719e44ec9a4ae3e3fb","id":133475045,"location_subtype":"","month":"2026-01"},{"category":"violent-crime","location_type":"Force","location":{"latitude":"52.399091","street":{"id":1647161,"name":"On or near Gilbert Horal Close"},"longitude":"-1.575545"},"context":"","outcome_status":{"category":"Under investigation","date":"2026-01"},"persistent_id":"e895c3f945423e2647708ade95ecfcd88fd82170932f8acfc7c017832ba9a8f9","id":133473440,"location_subtype":"","month":"2026-01"},{"category":"violent-crime","location_type":"Force","location":{"latitude":"52.394076","street":{"id":1647062,"name":"On or near Page Road"},"longitude":"-1.583499"},"context":"","outcome_status":{"category":"Under investigation","date":"2026-01"},"persistent_id":"55b791f6d85c5265968f378626d95745d723424fc9c5bc6335b684481d4d162e","id":133473467,"location_subtype":"","month":"2026-01"},{"category":"other-crime","location_type":"Force","location":{"latitude":"52.393656","street":{"id":1647220,"name":"On or near Thomas Sharp Street"},"longitude":"-1.571541"},"context":"","outcome_status":{"category":"Under investigation","date":"2026-01"},"persistent_id":"61002c3162027a532e82f190593467efa88f7d71c8813947923d93c42f49446e","id":133072409,"location_subtype":"","month":"2026-01"},{"category":"other-crime","location_type":"Force","location":{"latitude":"52.404118","street":{"id":1647091,"name":"On or near Jeliff Street"},"longitude":"-1.580994"},"context":"","outcome_status":{"category":"Unable to prosecute suspect","date":"2026-01"},"persistent_id":"4c0a129c9a1c39eb378f13be6d297e034a9bf487bdf2e3bd62b5e588b97474a3","id":133491196,"location_subtype":"","month":"2026-01"},{"category":"other-crime","location_type":"Force","location":{"latitude":"52.394292","street":{"id":1647245,"name":"On or near Hemsby Close"},"longitude":"-1.568625"},"context":"","outcome_status":{"category":"Unable to prosecute suspect","date":"2026-01"},"persistent_id":"5a11819570307b5b02b6219cf3b0c7b315630c4e620ceff26a3ef0795c6f914d","id":133479401,"location_subtype":"","month":"2026-01"}]