[{"category":"anti-social-behaviour","location_type":"Force","location":{"latitude":"51.441904","street":{"id":1705920,"name":"On or near Crofton Avenue"},"longitude":"0.123950"},"context":"","outcome_status":null,"persistent_id":"","id":126353407,"location_subtype":"","month":"2025-02"},{"category":"anti-social-behaviour","location_type":"Force","location":{"latitude":"51.441904","street":{"id":1705920,"name":"On or near Crofton Avenue"},"longitude":"0.123950"},"context":"","outcome_status":null,"persistent_id":"","id":126355770,"location_subtype":"","month":"2025-02"},{"category":"anti-social-behaviour","location_type":"Force","location":{"latitude":"51.444985","street":{"id":1706598,"name":"On or near The Ridge"},"longitude":"0.139477"},"context":"","outcome_status":null,"persistent_id":"","id":126346568,"location_subtype":"","month":"2025-02"},{"category":"anti-social-behaviour","location_type":"Force","location":{"latitude":"51.452759","street":{"id":1707319,"name":"On or near Halcot Avenue"},"longitude":"0.156911"},"context":"","outcome_status":null,"persistent_id":"","id":126345295,"location_subtype":"","month":"2025-02"},{"category":"anti-social-behaviour","location_type":"Force","location":{"latitude":"51.444198","street":{"id":1705952,"name":"On or near Bladindon Drive"},"longitude":"0.124445"},"context":"","outcome_status":null,"persistent_id":"","id":126356975,"location_subtype":"","month":"2025-02"},{"category":"anti-social-behaviour","location_type":"Force","location":{"latitude":"51.452759","street":{"id":1707319,"name":"On or near Halcot Avenue"},"longitude":"0.156911"},"context":"","outcome_status":null,"persistent_id":"","id":126358607,"location_subtype":"","month":"2025-02"},{"category":"burglary","location_type":"Force","location":{"latitude":"51.442746","street":{"id":1706723,"name":"On or near Balmoral Gardens"},"longitude":"0.141920"},"context":"","outcome_status":{"category":"Investigation complete; no suspect identified","date":"2025-03"},"persistent_id":"e4f0f20e97af816d182c08becd98cd2a5c322d1a194d4aa44a8ee51d9e70fcb7","id":126378117,"location_subtype":"","month":"2025-02"},{"category":"burglary","location_type":"Force","location":{"latitude":"51.440617","street":{"id":1707624,"name":"On or near Ashdown Close"},"longitude":"0.162383"},"context":"","outcome_status":{"category":"Investigation complete; no suspect identified","date":"2025-06"},"persistent_id":"34f88f80cd8f60d4b021b9a807b7e1d0703d83f5d1f06098bb7f7d015d157721","id":126378895,"location_subtype":"","month":"2025-02"},{"category":"burglary","location_type":"Force","location":{"latitude":"51.449058","street":{"id":1706616,"name":"On or near Upton Close"},"longitude":"0.139538"},"context":"","outcome_status":{"category":"Investigation complete; no suspect identified","date":"2025-02"},"persistent_id":"07981f3e790f4f83f4062f1a33e312083ca99493095568bfbcec5029413d5ead","id":126379474,"location_subtype":"","month":"2025-02"},{"category":"criminal-damage-arson","location_type":"Force","location":{"latitude":"51.454385","street":{"id":1707022,"name":"On or near Highland Road"},"longitude":"0.148726"},"context":"","outcome_status":{"category":"Local resolution","date":"2025-03"},"persistent_id":"47151c31ee5e5a27005be66ba88a82867712862162c8825031c3fdb8070ed57d","id":126372810,"location_subtype":"","month":"2025-02"},{"category":"criminal-damage-arson","location_type":"Force","location":{"latitude":"51.431314","street":{"id":1706634,"name":"On or near Sports/recreation Area"},"longitude":"0.139601"},"context":"","outcome_status":{"category":"Investigation complete; no suspect identified","date":"2025-03"},"persistent_id":"7b9a5d0bab3e68338272b8067ec4021e57ed5e062fa30e7bc0f379bd5c1f4dd5","id":126374707,"location_subtype":"","month":"2025-02"},{"category":"criminal-damage-arson","location_type":"Force","location":{"latitude":"51.448312","street":{"id":1707209,"name":"On or near Rye Close"},"longitude":"0.153737"},"context":"","outcome_status":{"category":"Unable to prosecute suspect","date":"2025-09"},"persistent_id":"2dba4758357d2dec18bfd16835871b46d6ac4d1af1367953744a4a5a61413be4","id":126372434,"location_subtype":"","month":"2025-02"},{"category":"criminal-damage-arson","location_type":"Force","location":{"latitude":"51.437531","street":{"id":1707521,"name":"On or near St Mary's Road"},"longitude":"0.161489"},"context":"","outcome_status":{"category":"Investigation complete; no suspect identified","date":"2025-02"},"persistent_id":"fcfa46087316a96fd663e58e8ce20c2b680dca2af17af97c7b4f658129e9e885","id":126374593,"location_subtype":"","month":"2025-02"},{"category":"criminal-damage-arson","location_type":"Force","location":{"latitude":"51.441288","street":{"id":1706445,"name":"On or near Camden Road"},"longitude":"0.136585"},"context":"","outcome_status":{"category":"Investigation complete; no suspect identified","date":"2025-02"},"persistent_id":"85621a4897c4651407dbfded2d4f8caad011bf1d97576a6cb4d2a161b4c68625","id":126371758,"location_subtype":"","month":"2025-02"},{"category":"criminal-damage-arson","location_type":"Force","location":{"latitude":"51.441288","street":{"id":1706445,"name":"On or near Camden Road"},"longitude":"0.136585"},"context":"","outcome_status":{"category":"Investigation complete; no suspect identified","date":"2025-02"},"persistent_id":"821b09d238375a2ae2d907afd51ba41e4548b431351be2adbc5d3d7583f5ee98","id":126371649,"location_subtype":"","month":"2025-02"},{"category":"criminal-damage-arson","location_type":"Force","location":{"latitude":"51.453990","street":{"id":1706589,"name":"On or near Freta Road"},"longitude":"0.138315"},"context":"","outcome_status":{"category":"Unable to prosecute suspect","date":"2025-04"},"persistent_id":"ba9039fc01153b4a0a03468de99551930b652b74c392d083567c8c33d3571e73","id":126372122,"location_subtype":"","month":"2025-02"},{"category":"criminal-damage-arson","location_type":"Force","location":{"latitude":"51.446989","street":{"id":1707199,"name":"On or near Farm Vale"},"longitude":"0.152365"},"context":"","outcome_status":{"category":"Investigation complete; no suspect identified","date":"2025-03"},"persistent_id":"58269470d43b8a510a7ee56a3214a20b55e9407237fb13cf60fa4a024052f797","id":126373756,"location_subtype":"","month":"2025-02"},{"category":"drugs","location_type":"Force","location":{"latitude":"51.438449","street":{"id":1707229,"name":"On or near A2018"},"longitude":"0.153604"},"context":"","outcome_status":{"category":"Local resolution","date":"2025-02"},"persistent_id":"771be142abc038b4b99bffc2a1bda9133fec62670a5b9d1776654cd32ac94f5a","id":126426990,"location_subtype":"","month":"2025-02"},{"category":"drugs","location_type":"Force","location":{"latitude":"51.444928","street":{"id":1706357,"name":"On or near B2210"},"longitude":"0.134222"},"context":"","outcome_status":{"category":"Unable to prosecute suspect","date":"2025-09"},"persistent_id":"6b596387a8b04e62036a9086d196a63dee58f3c023ebe5b67231d9ef4c07bcb1","id":126428350,"location_subtype":"","month":"2025-02"},{"category":"other-theft","location_type":"Force","location":{"latitude":"51.452759","street":{"id":1707319,"name":"On or near Halcot Avenue"},"longitude":"0.156911"},"context":"","outcome_status":{"category":"Unable to prosecute suspect","date":"2025-03"},"persistent_id":"da447e4748b08573c797677831fee5dce6d30cc20e3469137e52622afb96ac6b","id":126411529,"location_subtype":"","month":"2025-02"},{"category":"other-theft","location_type":"Force","location":{"latitude":"51.439112","street":{"id":1707068,"name":"On or near North Cray Road"},"longitude":"0.152786"},"context":"","outcome_status":{"category":"Investigation complete; no suspect identified","date":"2025-02"},"persistent_id":"e9ac1d211bbbaa21d5e25f40f741943816fb6b0a263caeae5c62e9a23ac2af12","id":126413029,"location_subtype":"","month":"2025-02"},{"category":"other-theft","location_type":"Force","location":{"latitude":"51.439616","street":{"id":1706340,"name":"On or near Ravenswood"},"longitude":"0.131614"},"context":"","outcome_status":{"category":"Unable to prosecute suspect","date":"2025-04"},"persistent_id":"9999ac305754c467914ba34306f90ffb1bf348c364fe1e7722ea1ce4da4a5c6d","id":126394086,"location_subtype":"","month":"2025-02"},{"category":"other-theft","location_type":"Force","location":{"latitude":"51.449890","street":{"id":1707285,"name":"On or near Gravel Hill Close"},"longitude":"0.155495"},"context":"","outcome_status":{"category":"Investigation complete; no suspect identified","date":"2025-02"},"persistent_id":"263b842685263e06c8ee702ea256154e626f054e5845432df7c63f03af0c3aae","id":126384840,"location_subtype":"","month":"2025-02"},{"category":"other-theft","location_type":"Force","location":{"latitude":"51.439112","street":{"id":1707068,"name":"On or near North Cray Road"},"longitude":"0.152786"},"context":"","outcome_status":{"category":"Investigation complete; no suspect identified","date":"2025-02"},"persistent_id":"c4a4037da4e6586aa78ab1e69c6c2b2f265dedbb3cf5efc81398725b26a72aa4","id":126414176,"location_subtype":"","month":"2025-02"},{"category":"other-theft","location_type":"Force","location":{"latitude":"51.428695","street":{"id":1706514,"name":"On or near North Cray Road"},"longitude":"0.137723"},"context":"","outcome_status":{"category":"Investigation complete; no suspect identified","date":"2025-02"},"persistent_id":"805eff285caec45cd2041959ed0af131b291bf015f203d842b7372912458e0da","id":126414175,"location_subtype":"","month":"2025-02"},{"category":"other-theft","location_type":"Force","location":{"latitude":"51.447902","street":{"id":1707485,"name":"On or near Parking Area"},"longitude":"0.162857"},"context":"","outcome_status":{"category":"Status update unavailable","date":"2025-06"},"persistent_id":"d28ce6aafbcd0a0c178f3dffc6dcfaad8b8f77bcd3c6a4c8954eae32fa12ddfc","id":126413267,"location_subtype":"","month":"2025-02"},{"category":"other-theft","location_type":"Force","location":{"latitude":"51.453610","street":{"id":1707087,"name":"On or near Lynsted Close"},"longitude":"0.150777"},"context":"","outcome_status":{"category":"Investigation complete; no suspect identified","date":"2025-03"},"persistent_id":"de24f51f3271a2b23d5968b6f4a1c41c45f326e4b38d909fcd17fa181abd1793","id":126412165,"location_subtype":"","month":"2025-02"},{"category":"public-order","location_type":"Force","location":{"latitude":"51.439928","street":{"id":1707225,"name":"On or near Manor Road"},"longitude":"0.153889"},"context":"","outcome_status":{"category":"Investigation complete; no suspect identified","date":"2025-03"},"persistent_id":"ed5cd759304ea4bfbe1df0a6e5c5908e912175170b16fd04b3a539356ce1caff","id":126367464,"location_subtype":"","month":"2025-02"},{"category":"public-order","location_type":"Force","location":{"latitude":"51.446756","street":{"id":1706471,"name":"On or near Meadowview Road"},"longitude":"0.135559"},"context":"","outcome_status":{"category":"Unable to prosecute suspect","date":"2025-02"},"persistent_id":"5e19da8da2760664b586e6b667e068230569801dfbe8d06bd018fe4ee85f208e","id":126415560,"location_subtype":"","month":"2025-02"},{"category":"public-order","location_type":"Force","location":{"latitude":"51.444154","street":{"id":1707100,"name":"On or near Albert Road"},"longitude":"0.150016"},"context":"","outcome_status":{"category":"Investigation complete; no suspect identified","date":"2025-03"},"persistent_id":"0e9030a13bb74041a0aac97d29b83c94e82d82df5bf9d12985201a65d480bdde","id":126369652,"location_subtype":"","month":"2025-02"},{"category":"public-order","location_type":"Force","location":{"latitude":"51.441892","street":{"id":1706046,"name":"On or near Dorchester Avenue"},"longitude":"0.126626"},"context":"","outcome_status":{"category":"Investigation complete; no suspect identified","date":"2025-03"},"persistent_id":"73312ac0d46d3711204a111e2311be4480cdfbb7923d9a9bffb4f8b216421da4","id":126368969,"location_subtype":"","month":"2025-02"},{"category":"public-order","location_type":"Force","location":{"latitude":"51.437995","street":{"id":1705861,"name":"On or near Stansted Crescent"},"longitude":"0.124316"},"context":"","outcome_status":{"category":"Unable to prosecute suspect","date":"2025-02"},"persistent_id":"b37b8c09935f4a3d129d8b91ffa510cfafca9a0d0e23bf42ab79cbf7aa92b767","id":126367329,"location_subtype":"","month":"2025-02"},{"category":"robbery","location_type":"Force","location":{"latitude":"51.437311","street":{"id":1705954,"name":"On or near Carisbrooke Avenue"},"longitude":"0.124341"},"context":"","outcome_status":{"category":"Investigation complete; no suspect identified","date":"2025-06"},"persistent_id":"0a1af457164900165ab8efe2321f0e393cd4e9a4f65b84551beed10371dc63da","id":126383739,"location_subtype":"","month":"2025-02"},{"category":"vehicle-crime","location_type":"Force","location":{"latitude":"51.437311","street":{"id":1705954,"name":"On or near Carisbrooke Avenue"},"longitude":"0.124341"},"context":"","outcome_status":{"category":"Investigation complete; no suspect identified","date":"2025-02"},"persistent_id":"f4053b0e586b939e63d215e6dd5818c693fa3f3a5aa8ed017af571facd3eacdf","id":126406045,"location_subtype":"","month":"2025-02"},{"category":"vehicle-crime","location_type":"Force","location":{"latitude":"51.449135","street":{"id":1706476,"name":"On or near Arbuthnot Lane"},"longitude":"0.137282"},"context":"","outcome_status":{"category":"Investigation complete; no suspect identified","date":"2025-02"},"persistent_id":"d9943069b53dabecd89cb59f965a9b999aa79f6b11c7f8a2ed74a6e2b22b66ce","id":126406071,"location_subtype":"","month":"2025-02"},{"category":"vehicle-crime","location_type":"Force","location":{"latitude":"51.446661","street":{"id":1706293,"name":"On or near Arcadian Avenue"},"longitude":"0.130906"},"context":"","outcome_status":{"category":"Investigation complete; no suspect identified","date":"2025-02"},"persistent_id":"eb1c8b8cec24ebf40f4e6b7d0c3834a92e75c5bb8e6705f70104720be4690771","id":126407062,"location_subtype":"","month":"2025-02"},{"category":"vehicle-crime","location_type":"Force","location":{"latitude":"51.437311","street":{"id":1705954,"name":"On or near Carisbrooke Avenue"},"longitude":"0.124341"},"context":"","outcome_status":{"category":"Investigation complete; no suspect identified","date":"2025-02"},"persistent_id":"bde02a3b691597ab73fc6038c54e8b238bf3644040b8bb0357e6d06f341ac777","id":126370176,"location_subtype":"","month":"2025-02"},{"category":"vehicle-crime","location_type":"Force","location":{"latitude":"51.444928","street":{"id":1706357,"name":"On or near B2210"},"longitude":"0.134222"},"context":"","outcome_status":{"category":"Investigation complete; no suspect identified","date":"2025-02"},"persistent_id":"628a69421c9db4de071392aee090a842ce6f3c12f2d13088daad42c31fd62103","id":126370165,"location_subtype":"","month":"2025-02"},{"category":"vehicle-crime","location_type":"Force","location":{"latitude":"51.446256","street":{"id":1706029,"name":"On or near Blendon Drive"},"longitude":"0.127477"},"context":"","outcome_status":{"category":"Unable to prosecute suspect","date":"2025-04"},"persistent_id":"ba9a8ea6750a823269aa148e7e69b25fab5cf16e6d81cb16bd6911b8078bbab7","id":126407960,"location_subtype":"","month":"2025-02"},{"category":"vehicle-crime","location_type":"Force","location":{"latitude":"51.445640","street":{"id":1706468,"name":"On or near Riverdale Road"},"longitude":"0.137119"},"context":"","outcome_status":{"category":"Investigation complete; no suspect identified","date":"2025-02"},"persistent_id":"dfd440cfbb9263474b668f1e38931cc05ea6d5d06a77d11b0bcab318fa4d7e15","id":126406879,"location_subtype":"","month":"2025-02"},{"category":"vehicle-crime","location_type":"Force","location":{"latitude":"51.449135","street":{"id":1706476,"name":"On or near Arbuthnot Lane"},"longitude":"0.137282"},"context":"","outcome_status":{"category":"Investigation complete; no suspect identified","date":"2025-02"},"persistent_id":"f420d88263c43c00b9e2a109660e80c0f7f520f93779c40d20a0ee1446aa3b02","id":126397292,"location_subtype":"","month":"2025-02"},{"category":"vehicle-crime","location_type":"Force","location":{"latitude":"51.452119","street":{"id":1706581,"name":"On or near Martin Dene"},"longitude":"0.138371"},"context":"","outcome_status":{"category":"Investigation complete; no suspect identified","date":"2025-03"},"persistent_id":"758d01732954e7e846d4081873fb276d33244528bb9296ea8273e761daad4330","id":126406584,"location_subtype":"","month":"2025-02"},{"category":"vehicle-crime","location_type":"Force","location":{"latitude":"51.445404","street":{"id":1707132,"name":"On or near Elmington Close"},"longitude":"0.152478"},"context":"","outcome_status":{"category":"Investigation complete; no suspect identified","date":"2025-02"},"persistent_id":"fab341e561c3f7c9bd5a8e1706e8a186e80d3fc2ab588a28e7bd1e6e9d5c3213","id":126407494,"location_subtype":"","month":"2025-02"},{"category":"vehicle-crime","location_type":"Force","location":{"latitude":"51.438949","street":{"id":1707728,"name":"On or near Heath Road"},"longitude":"0.163614"},"context":"","outcome_status":{"category":"Investigation complete; no suspect identified","date":"2025-02"},"persistent_id":"9ed713f06ce2267bc0e458b9b3f8e87378a38f2c340f400e2048e85282f4a122","id":126407755,"location_subtype":"","month":"2025-02"},{"category":"vehicle-crime","location_type":"Force","location":{"latitude":"51.447714","street":{"id":1706761,"name":"On or near Baynham Close"},"longitude":"0.142195"},"context":"","outcome_status":{"category":"Investigation complete; no suspect identified","date":"2025-02"},"persistent_id":"e587b35f991345e5c11eff81b4edcdfec2a7d08922ea5cab7f1552e0a61980d5","id":126406525,"location_subtype":"","month":"2025-02"},{"category":"vehicle-crime","location_type":"Force","location":{"latitude":"51.452759","street":{"id":1707319,"name":"On or near Halcot Avenue"},"longitude":"0.156911"},"context":"","outcome_status":{"category":"Investigation complete; no suspect identified","date":"2025-02"},"persistent_id":"62130caabce36fc6a8baca7a29dabc49d2abdf7260dc579e3e4901480dc6bd65","id":126370354,"location_subtype":"","month":"2025-02"},{"category":"vehicle-crime","location_type":"Force","location":{"latitude":"51.445738","street":{"id":1706659,"name":"On or near Upton Road South"},"longitude":"0.141095"},"context":"","outcome_status":{"category":"Investigation complete; no suspect identified","date":"2025-02"},"persistent_id":"1caafdeb609d8f747db248899099c399b5ef20049082b9ae986e434c40476dc0","id":126370365,"location_subtype":"","month":"2025-02"},{"category":"vehicle-crime","location_type":"Force","location":{"latitude":"51.444942","street":{"id":1706298,"name":"On or near Venture Close"},"longitude":"0.130999"},"context":"","outcome_status":{"category":"Investigation complete; no suspect identified","date":"2025-02"},"persistent_id":"6cf9550dfaa81c565ea2d41d2c79742090140cf01fab3065dbbf02a0e65b0cff","id":126405951,"location_subtype":"","month":"2025-02"},{"category":"vehicle-crime","location_type":"Force","location":{"latitude":"51.435359","street":{"id":1706059,"name":"On or near Albany Park"},"longitude":"0.126352"},"context":"","outcome_status":{"category":"Unable to prosecute suspect","date":"2025-02"},"persistent_id":"e4a761d69b1f6e6dc4a436eea2b2c917385e3443fcecf4968089fb39b372269a","id":126395477,"location_subtype":"","month":"2025-02"},{"category":"vehicle-crime","location_type":"Force","location":{"latitude":"51.449014","street":{"id":1707181,"name":"On or near Newick Close"},"longitude":"0.152259"},"context":"","outcome_status":{"category":"Investigation complete; no suspect identified","date":"2025-02"},"persistent_id":"19406cbffe4d109772496444342e358c80b3ce1a0bcfb478a38c9d3d128154c6","id":126395454,"location_subtype":"","month":"2025-02"},{"category":"violent-crime","location_type":"Force","location":{"latitude":"51.453610","street":{"id":1707087,"name":"On or near Lynsted Close"},"longitude":"0.150777"},"context":"","outcome_status":{"category":"Unable to prosecute suspect","date":"2025-09"},"persistent_id":"ad58674bcf9b75498ae40c0c527ae75b1926e94ee659cbe2494a95953946a5b3","id":126365521,"location_subtype":"","month":"2025-02"},{"category":"violent-crime","location_type":"Force","location":{"latitude":"51.441481","street":{"id":1706702,"name":"On or near Warwick Close"},"longitude":"0.142278"},"context":"","outcome_status":{"category":"Unable to prosecute suspect","date":"2025-03"},"persistent_id":"20184a4e3e3d7ce2f069fb2cfb058d6a0d1a174245af34173da5bac57caf23e6","id":126366649,"location_subtype":"","month":"2025-02"},{"category":"violent-crime","location_type":"Force","location":{"latitude":"51.446210","street":{"id":1706781,"name":"On or near Love Lane"},"longitude":"0.142816"},"context":"","outcome_status":{"category":"Unable to prosecute suspect","date":"2025-02"},"persistent_id":"06a17b3fe6706e12fe6fc6e39cfd9a966d56b444a98d418c7b7f1161d73e44a6","id":126421147,"location_subtype":"","month":"2025-02"},{"category":"violent-crime","location_type":"Force","location":{"latitude":"51.431314","street":{"id":1706634,"name":"On or near Sports/recreation Area"},"longitude":"0.139601"},"context":"","outcome_status":{"category":"Offender given a caution","date":"2025-03"},"persistent_id":"8a8210d96062fc8fd280f7adbaf704c9dcf23144f93d5543bba83e54097c3e3b","id":126364904,"location_subtype":"","month":"2025-02"},{"category":"violent-crime","location_type":"Force","location":{"latitude":"51.454726","street":{"id":1706851,"name":"On or near Victoria Road"},"longitude":"0.144798"},"context":"","outcome_status":{"category":"Unable to prosecute suspect","date":"2025-11"},"persistent_id":"0b049e627fbbddf6bf132d316184f9543c8ff5a47068591c62175b3fa46af73f","id":126380777,"location_subtype":"","month":"2025-02"},{"category":"violent-crime","location_type":"Force","location":{"latitude":"51.454374","street":{"id":1706985,"name":"On or near Pincott Road"},"longitude":"0.147329"},"context":"","outcome_status":{"category":"Unable to prosecute suspect","date":"2025-08"},"persistent_id":"f79fa44b81169072bbdc25e5d2471d56413adfdd39643e070f9bf7a758f50f14","id":126425175,"location_subtype":"","month":"2025-02"},{"category":"violent-crime","location_type":"Force","location":{"latitude":"51.450830","street":{"id":1707030,"name":"On or near Broomfield Road"},"longitude":"0.149365"},"context":"","outcome_status":{"category":"Unable to prosecute suspect","date":"2025-06"},"persistent_id":"07e93499d627aad2bc0aa64bdca21bb6791004a47a97b5f1c940992e05dfd711","id":126423256,"location_subtype":"","month":"2025-02"},{"category":"violent-crime","location_type":"Force","location":{"latitude":"51.445384","street":{"id":1706336,"name":"On or near Bridgen Road"},"longitude":"0.132401"},"context":"","outcome_status":{"category":"Status update unavailable","date":"2025-06"},"persistent_id":"8a912bb1767168217fb06e94fdeb479ec3f380f87e74bd561449e4a5d6958180","id":126416059,"location_subtype":"","month":"2025-02"},{"category":"violent-crime","location_type":"Force","location":{"latitude":"51.437995","street":{"id":1705861,"name":"On or near Stansted Crescent"},"longitude":"0.124316"},"context":"","outcome_status":{"category":"Unable to prosecute suspect","date":"2025-04"},"persistent_id":"3c89a6012e8221809d090d57425f8dbd431afbe55e7b94749bb641ad51a14770","id":126363677,"location_subtype":"","month":"2025-02"},{"category":"violent-crime","location_type":"Force","location":{"latitude":"51.445738","street":{"id":1706659,"name":"On or near Upton Road South"},"longitude":"0.141095"},"context":"","outcome_status":{"category":"Unable to prosecute suspect","date":"2025-02"},"persistent_id":"4dc0bb3af91dbd8b38d28ce9abd651466b06c484697ce7c9cc292bfc4cbb2d78","id":126365828,"location_subtype":"","month":"2025-02"}]