[{"category":"anti-social-behaviour","location_type":"Force","location":{"latitude":"51.473237","street":{"id":1707305,"name":"On or near Wheelock Close"},"longitude":"0.156380"},"context":"","outcome_status":null,"persistent_id":"","id":127082383,"location_subtype":"","month":"2025-03"},{"category":"anti-social-behaviour","location_type":"Force","location":{"latitude":"51.472837","street":{"id":1708736,"name":"On or near Garnet Road"},"longitude":"0.189596"},"context":"","outcome_status":null,"persistent_id":"","id":127079884,"location_subtype":"","month":"2025-03"},{"category":"anti-social-behaviour","location_type":"Force","location":{"latitude":"51.472082","street":{"id":1708031,"name":"On or near Birling Road"},"longitude":"0.171718"},"context":"","outcome_status":null,"persistent_id":"","id":127074319,"location_subtype":"","month":"2025-03"},{"category":"anti-social-behaviour","location_type":"Force","location":{"latitude":"51.466261","street":{"id":1708427,"name":"On or near Petrol Station"},"longitude":"0.181549"},"context":"","outcome_status":null,"persistent_id":"","id":127090023,"location_subtype":"","month":"2025-03"},{"category":"anti-social-behaviour","location_type":"Force","location":{"latitude":"51.481555","street":{"id":1708358,"name":"On or near Saltford Close"},"longitude":"0.179283"},"context":"","outcome_status":null,"persistent_id":"","id":127091455,"location_subtype":"","month":"2025-03"},{"category":"anti-social-behaviour","location_type":"Force","location":{"latitude":"51.475920","street":{"id":1707610,"name":"On or near Bexley Road"},"longitude":"0.163044"},"context":"","outcome_status":null,"persistent_id":"","id":127097774,"location_subtype":"","month":"2025-03"},{"category":"anti-social-behaviour","location_type":"Force","location":{"latitude":"51.476005","street":{"id":1707916,"name":"On or near Elm Grove"},"longitude":"0.169644"},"context":"","outcome_status":null,"persistent_id":"","id":127094096,"location_subtype":"","month":"2025-03"},{"category":"anti-social-behaviour","location_type":"Force","location":{"latitude":"51.484860","street":{"id":1707905,"name":"On or near Sandcliff Road"},"longitude":"0.168336"},"context":"","outcome_status":null,"persistent_id":"","id":127094329,"location_subtype":"","month":"2025-03"},{"category":"anti-social-behaviour","location_type":"Force","location":{"latitude":"51.478936","street":{"id":1708554,"name":"On or near Aveley Close"},"longitude":"0.184703"},"context":"","outcome_status":null,"persistent_id":"","id":127094651,"location_subtype":"","month":"2025-03"},{"category":"anti-social-behaviour","location_type":"Force","location":{"latitude":"51.480092","street":{"id":1708353,"name":"On or near Shopping Area"},"longitude":"0.180567"},"context":"","outcome_status":null,"persistent_id":"","id":127095911,"location_subtype":"","month":"2025-03"},{"category":"anti-social-behaviour","location_type":"Force","location":{"latitude":"51.470624","street":{"id":1708790,"name":"On or near Elm Road"},"longitude":"0.191549"},"context":"","outcome_status":null,"persistent_id":"","id":127096553,"location_subtype":"","month":"2025-03"},{"category":"anti-social-behaviour","location_type":"Force","location":{"latitude":"51.484681","street":{"id":1708128,"name":"On or near West Street"},"longitude":"0.174146"},"context":"","outcome_status":null,"persistent_id":"","id":127096846,"location_subtype":"","month":"2025-03"},{"category":"anti-social-behaviour","location_type":"Force","location":{"latitude":"51.470442","street":{"id":1708357,"name":"On or near Selkirk Drive"},"longitude":"0.179603"},"context":"","outcome_status":null,"persistent_id":"","id":127097051,"location_subtype":"","month":"2025-03"},{"category":"anti-social-behaviour","location_type":"Force","location":{"latitude":"51.474915","street":{"id":1707296,"name":"On or near Sussex Road"},"longitude":"0.155134"},"context":"","outcome_status":null,"persistent_id":"","id":127071387,"location_subtype":"","month":"2025-03"},{"category":"anti-social-behaviour","location_type":"Force","location":{"latitude":"51.474908","street":{"id":1708957,"name":"On or near Snipe Close"},"longitude":"0.196204"},"context":"","outcome_status":null,"persistent_id":"","id":127071427,"location_subtype":"","month":"2025-03"},{"category":"anti-social-behaviour","location_type":"Force","location":{"latitude":"51.470498","street":{"id":1708166,"name":"On or near Normandy Way"},"longitude":"0.175171"},"context":"","outcome_status":null,"persistent_id":"","id":127071497,"location_subtype":"","month":"2025-03"},{"category":"anti-social-behaviour","location_type":"Force","location":{"latitude":"51.480547","street":{"id":1708278,"name":"On or near Parking Area"},"longitude":"0.178832"},"context":"","outcome_status":null,"persistent_id":"","id":127072305,"location_subtype":"","month":"2025-03"},{"category":"anti-social-behaviour","location_type":"Force","location":{"latitude":"51.477631","street":{"id":1707363,"name":"On or near Collindale Avenue"},"longitude":"0.157537"},"context":"","outcome_status":null,"persistent_id":"","id":127072570,"location_subtype":"","month":"2025-03"},{"category":"anti-social-behaviour","location_type":"Force","location":{"latitude":"51.472071","street":{"id":1707487,"name":"On or near York Terrace"},"longitude":"0.159161"},"context":"","outcome_status":null,"persistent_id":"","id":127077025,"location_subtype":"","month":"2025-03"},{"category":"anti-social-behaviour","location_type":"Force","location":{"latitude":"51.474915","street":{"id":1707296,"name":"On or near Sussex Road"},"longitude":"0.155134"},"context":"","outcome_status":null,"persistent_id":"","id":127077633,"location_subtype":"","month":"2025-03"},{"category":"anti-social-behaviour","location_type":"Force","location":{"latitude":"51.486913","street":{"id":1708044,"name":"On or near Galleon Close"},"longitude":"0.171602"},"context":"","outcome_status":null,"persistent_id":"","id":127078435,"location_subtype":"","month":"2025-03"},{"category":"anti-social-behaviour","location_type":"Force","location":{"latitude":"51.468120","street":{"id":1708486,"name":"On or near Scott Crescent"},"longitude":"0.182646"},"context":"","outcome_status":null,"persistent_id":"","id":127079324,"location_subtype":"","month":"2025-03"},{"category":"anti-social-behaviour","location_type":"Force","location":{"latitude":"51.468413","street":{"id":1707490,"name":"On or near Homer Close"},"longitude":"0.159018"},"context":"","outcome_status":null,"persistent_id":"","id":127070174,"location_subtype":"","month":"2025-03"},{"category":"anti-social-behaviour","location_type":"Force","location":{"latitude":"51.476270","street":{"id":1708614,"name":"On or near Raleigh Close"},"longitude":"0.187326"},"context":"","outcome_status":null,"persistent_id":"","id":127077681,"location_subtype":"","month":"2025-03"},{"category":"anti-social-behaviour","location_type":"Force","location":{"latitude":"51.484684","street":{"id":1707375,"name":"On or near Holmhurst Road"},"longitude":"0.157914"},"context":"","outcome_status":null,"persistent_id":"","id":127088931,"location_subtype":"","month":"2025-03"},{"category":"anti-social-behaviour","location_type":"Force","location":{"latitude":"51.470442","street":{"id":1708357,"name":"On or near Selkirk Drive"},"longitude":"0.179603"},"context":"","outcome_status":null,"persistent_id":"","id":127079892,"location_subtype":"","month":"2025-03"},{"category":"anti-social-behaviour","location_type":"Force","location":{"latitude":"51.481517","street":{"id":1707349,"name":"On or near Stiles Close"},"longitude":"0.156986"},"context":"","outcome_status":null,"persistent_id":"","id":127079988,"location_subtype":"","month":"2025-03"},{"category":"anti-social-behaviour","location_type":"Force","location":{"latitude":"51.474003","street":{"id":1708976,"name":"On or near Webber Close"},"longitude":"0.196967"},"context":"","outcome_status":null,"persistent_id":"","id":127080783,"location_subtype":"","month":"2025-03"},{"category":"anti-social-behaviour","location_type":"Force","location":{"latitude":"51.473256","street":{"id":1707587,"name":"On or near Mill Road"},"longitude":"0.160701"},"context":"","outcome_status":null,"persistent_id":"","id":127080256,"location_subtype":"","month":"2025-03"},{"category":"anti-social-behaviour","location_type":"Force","location":{"latitude":"51.475709","street":{"id":1707551,"name":"On or near Hengist Road"},"longitude":"0.160341"},"context":"","outcome_status":null,"persistent_id":"","id":127080627,"location_subtype":"","month":"2025-03"},{"category":"anti-social-behaviour","location_type":"Force","location":{"latitude":"51.472172","street":{"id":1708380,"name":"On or near The Nursery"},"longitude":"0.181356"},"context":"","outcome_status":null,"persistent_id":"","id":127073915,"location_subtype":"","month":"2025-03"},{"category":"anti-social-behaviour","location_type":"Force","location":{"latitude":"51.478936","street":{"id":1708554,"name":"On or near Aveley Close"},"longitude":"0.184703"},"context":"","outcome_status":null,"persistent_id":"","id":127074560,"location_subtype":"","month":"2025-03"},{"category":"anti-social-behaviour","location_type":"Force","location":{"latitude":"51.484681","street":{"id":1708128,"name":"On or near West Street"},"longitude":"0.174146"},"context":"","outcome_status":null,"persistent_id":"","id":127075254,"location_subtype":"","month":"2025-03"},{"category":"anti-social-behaviour","location_type":"Force","location":{"latitude":"51.479305","street":{"id":1708470,"name":"On or near Petrol Station"},"longitude":"0.183238"},"context":"","outcome_status":null,"persistent_id":"","id":127075676,"location_subtype":"","month":"2025-03"},{"category":"anti-social-behaviour","location_type":"Force","location":{"latitude":"51.475920","street":{"id":1707610,"name":"On or near Bexley Road"},"longitude":"0.163044"},"context":"","outcome_status":null,"persistent_id":"","id":127086101,"location_subtype":"","month":"2025-03"},{"category":"anti-social-behaviour","location_type":"Force","location":{"latitude":"51.472899","street":{"id":1708493,"name":"On or near Arthur Street"},"longitude":"0.182888"},"context":"","outcome_status":null,"persistent_id":"","id":127085427,"location_subtype":"","month":"2025-03"},{"category":"anti-social-behaviour","location_type":"Force","location":{"latitude":"51.472172","street":{"id":1708380,"name":"On or near The Nursery"},"longitude":"0.181356"},"context":"","outcome_status":null,"persistent_id":"","id":127087892,"location_subtype":"","month":"2025-03"},{"category":"anti-social-behaviour","location_type":"Force","location":{"latitude":"51.483360","street":{"id":1708149,"name":"On or near Pleasant View"},"longitude":"0.176503"},"context":"","outcome_status":null,"persistent_id":"","id":127087458,"location_subtype":"","month":"2025-03"},{"category":"anti-social-behaviour","location_type":"Force","location":{"latitude":"51.477285","street":{"id":1708173,"name":"On or near Avenue Road"},"longitude":"0.176286"},"context":"","outcome_status":null,"persistent_id":"","id":127088430,"location_subtype":"","month":"2025-03"},{"category":"anti-social-behaviour","location_type":"Force","location":{"latitude":"51.477963","street":{"id":1707309,"name":"On or near Brook Street"},"longitude":"0.155652"},"context":"","outcome_status":null,"persistent_id":"","id":127082124,"location_subtype":"","month":"2025-03"},{"category":"anti-social-behaviour","location_type":"Force","location":{"latitude":"51.477285","street":{"id":1708173,"name":"On or near Avenue Road"},"longitude":"0.176286"},"context":"","outcome_status":null,"persistent_id":"","id":127085006,"location_subtype":"","month":"2025-03"},{"category":"anti-social-behaviour","location_type":"Force","location":{"latitude":"51.479485","street":{"id":1708372,"name":"On or near Elrick Close"},"longitude":"0.179847"},"context":"","outcome_status":null,"persistent_id":"","id":127092695,"location_subtype":"","month":"2025-03"},{"category":"anti-social-behaviour","location_type":"Force","location":{"latitude":"51.474307","street":{"id":1708820,"name":"On or near Rainbow Road"},"longitude":"0.192273"},"context":"","outcome_status":null,"persistent_id":"","id":127088876,"location_subtype":"","month":"2025-03"},{"category":"anti-social-behaviour","location_type":"Force","location":{"latitude":"51.486913","street":{"id":1708044,"name":"On or near Galleon Close"},"longitude":"0.171602"},"context":"","outcome_status":null,"persistent_id":"","id":127090666,"location_subtype":"","month":"2025-03"},{"category":"anti-social-behaviour","location_type":"Force","location":{"latitude":"51.468763","street":{"id":1708139,"name":"On or near Mendip Road"},"longitude":"0.174642"},"context":"","outcome_status":null,"persistent_id":"","id":127091951,"location_subtype":"","month":"2025-03"},{"category":"anti-social-behaviour","location_type":"Force","location":{"latitude":"51.486913","street":{"id":1708044,"name":"On or near Galleon Close"},"longitude":"0.171602"},"context":"","outcome_status":null,"persistent_id":"","id":127097677,"location_subtype":"","month":"2025-03"},{"category":"anti-social-behaviour","location_type":"Force","location":{"latitude":"51.465665","street":{"id":1707626,"name":"On or near Merewood Road"},"longitude":"0.162242"},"context":"","outcome_status":null,"persistent_id":"","id":127094113,"location_subtype":"","month":"2025-03"},{"category":"anti-social-behaviour","location_type":"Force","location":{"latitude":"51.475173","street":{"id":1708378,"name":"On or near Thanet Road"},"longitude":"0.180074"},"context":"","outcome_status":null,"persistent_id":"","id":127094180,"location_subtype":"","month":"2025-03"},{"category":"anti-social-behaviour","location_type":"Force","location":{"latitude":"51.483360","street":{"id":1708149,"name":"On or near Pleasant View"},"longitude":"0.176503"},"context":"","outcome_status":null,"persistent_id":"","id":127094582,"location_subtype":"","month":"2025-03"},{"category":"anti-social-behaviour","location_type":"Force","location":{"latitude":"51.475920","street":{"id":1707610,"name":"On or near Bexley Road"},"longitude":"0.163044"},"context":"","outcome_status":null,"persistent_id":"","id":127095755,"location_subtype":"","month":"2025-03"},{"category":"anti-social-behaviour","location_type":"Force","location":{"latitude":"51.467073","street":{"id":1707528,"name":"On or near Grasmere Road"},"longitude":"0.161474"},"context":"","outcome_status":null,"persistent_id":"","id":127094835,"location_subtype":"","month":"2025-03"},{"category":"anti-social-behaviour","location_type":"Force","location":{"latitude":"51.468763","street":{"id":1708139,"name":"On or near Mendip Road"},"longitude":"0.174642"},"context":"","outcome_status":null,"persistent_id":"","id":127096441,"location_subtype":"","month":"2025-03"},{"category":"anti-social-behaviour","location_type":"Force","location":{"latitude":"51.473256","street":{"id":1707587,"name":"On or near Mill Road"},"longitude":"0.160701"},"context":"","outcome_status":null,"persistent_id":"","id":127072208,"location_subtype":"","month":"2025-03"},{"category":"anti-social-behaviour","location_type":"Force","location":{"latitude":"51.486913","street":{"id":1708044,"name":"On or near Galleon Close"},"longitude":"0.171602"},"context":"","outcome_status":null,"persistent_id":"","id":127079721,"location_subtype":"","month":"2025-03"},{"category":"bicycle-theft","location_type":"Force","location":{"latitude":"51.465582","street":{"id":1708351,"name":"On or near Old Haven Close"},"longitude":"0.179832"},"context":"","outcome_status":{"category":"Unable to prosecute suspect","date":"2025-04"},"persistent_id":"2312a1d3a0b82920c65a0ed9b9dbc5ecd676425df130499b72b12ea1fad8e085","id":127166912,"location_subtype":"","month":"2025-03"},{"category":"burglary","location_type":"Force","location":{"latitude":"51.478815","street":{"id":1707503,"name":"On or near Carlton Road"},"longitude":"0.159682"},"context":"","outcome_status":{"category":"Investigation complete; no suspect identified","date":"2025-03"},"persistent_id":"b249641505d8e1c7b7fbc2d4bb6c7845995457bdce4b41d21c59827d0c81eec2","id":127151520,"location_subtype":"","month":"2025-03"},{"category":"burglary","location_type":"Force","location":{"latitude":"51.468857","street":{"id":1708766,"name":"On or near Forest Road"},"longitude":"0.190356"},"context":"","outcome_status":{"category":"Investigation complete; no suspect identified","date":"2025-03"},"persistent_id":"03813eab59d7fe3bac23d239db43d18d7add0ef0d01349180f9b266d427d8e8e","id":127144289,"location_subtype":"","month":"2025-03"},{"category":"burglary","location_type":"Force","location":{"latitude":"51.474648","street":{"id":1708520,"name":"On or near Festival Close"},"longitude":"0.183649"},"context":"","outcome_status":{"category":"Unable to prosecute suspect","date":"2025-05"},"persistent_id":"4890a254b8733cc8e50be565fec9130f02e05be124067846cf7f06d3617936b3","id":127146582,"location_subtype":"","month":"2025-03"},{"category":"burglary","location_type":"Force","location":{"latitude":"51.480304","street":{"id":1707935,"name":"On or near Arran Close"},"longitude":"0.170122"},"context":"","outcome_status":{"category":"Investigation complete; no suspect identified","date":"2025-03"},"persistent_id":"c5bf8b0bfc1536f1a764791455767fbff1f42ceb7548a333efb68426968cc014","id":127147925,"location_subtype":"","month":"2025-03"},{"category":"burglary","location_type":"Force","location":{"latitude":"51.472678","street":{"id":1707965,"name":"On or near Stelling Road"},"longitude":"0.170580"},"context":"","outcome_status":{"category":"Investigation complete; no suspect identified","date":"2025-03"},"persistent_id":"6ed9c905aac532cf91fa1a3e860e5efc76d1e6720f3daf80dae87ba8b97a8459","id":127146753,"location_subtype":"","month":"2025-03"},{"category":"burglary","location_type":"Force","location":{"latitude":"51.477183","street":{"id":1708504,"name":"On or near Alexandra Road"},"longitude":"0.183208"},"context":"","outcome_status":{"category":"Unable to prosecute suspect","date":"2025-08"},"persistent_id":"d28a52e510fec293d8085da0025a3cacc8ccbeaa2a5d38d2ee48f0d665fde1ad","id":127146681,"location_subtype":"","month":"2025-03"},{"category":"burglary","location_type":"Force","location":{"latitude":"51.474655","street":{"id":1708433,"name":"On or near South Road"},"longitude":"0.181331"},"context":"","outcome_status":{"category":"Investigation complete; no suspect identified","date":"2025-03"},"persistent_id":"4c1d1839d01456df8941e1bf6a07d773999a20f9c17f48f1f47c2cbf42f1dd53","id":127146838,"location_subtype":"","month":"2025-03"},{"category":"burglary","location_type":"Force","location":{"latitude":"51.466524","street":{"id":1707908,"name":"On or near Beechcroft Avenue"},"longitude":"0.168316"},"context":"","outcome_status":{"category":"Investigation complete; no suspect identified","date":"2025-05"},"persistent_id":"dbd928a0f50ad534b4d8b8d5cc09a078448ecead43307a8a5fe030212541562d","id":127143793,"location_subtype":"","month":"2025-03"},{"category":"burglary","location_type":"Force","location":{"latitude":"51.483985","street":{"id":1707744,"name":"On or near De Luci Road"},"longitude":"0.164607"},"context":"","outcome_status":{"category":"Investigation complete; no suspect identified","date":"2025-07"},"persistent_id":"72ad76fac41197ba636b1d2fc47d1a451e4470670d9919119c81f100a0f27f5d","id":127143045,"location_subtype":"","month":"2025-03"},{"category":"burglary","location_type":"Force","location":{"latitude":"51.473312","street":{"id":1708226,"name":"On or near Badlow Close"},"longitude":"0.176673"},"context":"","outcome_status":{"category":"Investigation complete; no suspect identified","date":"2025-04"},"persistent_id":"675ebc6a6571f4564da7d1248605c81fc748230e160c44708026c45e79408ebe","id":127144906,"location_subtype":"","month":"2025-03"},{"category":"burglary","location_type":"Force","location":{"latitude":"51.476407","street":{"id":1707737,"name":"On or near Emes Road"},"longitude":"0.164435"},"context":"","outcome_status":{"category":"Investigation complete; no suspect identified","date":"2025-03"},"persistent_id":"4cc33e96e6376822a0c363ece6c00a806b36e69b659ed89c67c23d80f739edd3","id":127145717,"location_subtype":"","month":"2025-03"},{"category":"burglary","location_type":"Force","location":{"latitude":"51.472129","street":{"id":1707629,"name":"On or near Northumberland Close"},"longitude":"0.162361"},"context":"","outcome_status":{"category":"Investigation complete; no suspect identified","date":"2025-10"},"persistent_id":"2170534e35b37221cd63fe2a07a0b5da429d60013d1d076c896d80ec3539ebbc","id":127152280,"location_subtype":"","month":"2025-03"},{"category":"criminal-damage-arson","location_type":"Force","location":{"latitude":"51.481555","street":{"id":1708358,"name":"On or near Saltford Close"},"longitude":"0.179283"},"context":"","outcome_status":{"category":"Investigation complete; no suspect identified","date":"2025-03"},"persistent_id":"f510003de4c3e9f76e3c525615845b6b5513ca13d169b9241a4bec21e50c980b","id":127132761,"location_subtype":"","month":"2025-03"},{"category":"criminal-damage-arson","location_type":"Force","location":{"latitude":"51.472067","street":{"id":1708162,"name":"On or near Highstead Crescent"},"longitude":"0.174915"},"context":"","outcome_status":{"category":"Investigation complete; no suspect identified","date":"2025-03"},"persistent_id":"1a73e41e6f6c1bd4ae69845ec1fc6ad1f2ebe782055b0e76d96db9641e9088e1","id":127188546,"location_subtype":"","month":"2025-03"},{"category":"criminal-damage-arson","location_type":"Force","location":{"latitude":"51.484391","street":{"id":1708057,"name":"On or near Mildred Road"},"longitude":"0.173758"},"context":"","outcome_status":{"category":"Status update unavailable","date":"2025-07"},"persistent_id":"6c61b61c70dccb9d1e5b7bb98735d41d6c5a4e58839ede6901dc03a3b0411c2b","id":127133209,"location_subtype":"","month":"2025-03"},{"category":"criminal-damage-arson","location_type":"Force","location":{"latitude":"51.473288","street":{"id":1708583,"name":"On or near Collins Way"},"longitude":"0.186190"},"context":"","outcome_status":{"category":"Investigation complete; no suspect identified","date":"2025-03"},"persistent_id":"f5798101f79e6e6fa832d3542485862c89e7fb1dd332ed4be871b72dbf0d969a","id":127134260,"location_subtype":"","month":"2025-03"},{"category":"criminal-damage-arson","location_type":"Force","location":{"latitude":"51.468857","street":{"id":1708766,"name":"On or near Forest Road"},"longitude":"0.190356"},"context":"","outcome_status":{"category":"Unable to prosecute suspect","date":"2025-04"},"persistent_id":"5c433a79571653d1613672050a6c687ee67e0ef4d43a429f494bdb952b72293a","id":127130233,"location_subtype":"","month":"2025-03"},{"category":"criminal-damage-arson","location_type":"Force","location":{"latitude":"51.478547","street":{"id":1707597,"name":"On or near Thwaite Close"},"longitude":"0.162016"},"context":"","outcome_status":{"category":"Unable to prosecute suspect","date":"2025-04"},"persistent_id":"72888547a2e28aaeb83b83137b55b265a604e731c03be98666def610787874d6","id":127130870,"location_subtype":"","month":"2025-03"},{"category":"criminal-damage-arson","location_type":"Force","location":{"latitude":"51.477800","street":{"id":1708741,"name":"On or near Manor Road"},"longitude":"0.190654"},"context":"","outcome_status":{"category":"Unable to prosecute suspect","date":"2025-03"},"persistent_id":"999ad33fc6e8e69af02f15bc2ffe474616f660f630deb9e43b9c1b9315f019b8","id":127130969,"location_subtype":"","month":"2025-03"},{"category":"criminal-damage-arson","location_type":"Force","location":{"latitude":"51.470523","street":{"id":1708217,"name":"On or near Hurstwood Avenue"},"longitude":"0.176713"},"context":"","outcome_status":{"category":"Unable to prosecute suspect","date":"2025-04"},"persistent_id":"9111c13683627159cd8355307c37999fa7353419b5495ebed56c5d463a60f2b4","id":127128312,"location_subtype":"","month":"2025-03"},{"category":"criminal-damage-arson","location_type":"Force","location":{"latitude":"51.480092","street":{"id":1708353,"name":"On or near Shopping Area"},"longitude":"0.180567"},"context":"","outcome_status":{"category":"Unable to prosecute suspect","date":"2025-04"},"persistent_id":"9009af6ba53ff1e222ef0f0fb21b19b9e7a43d9ae3133b1eaa6a92bd85cbc799","id":127127875,"location_subtype":"","month":"2025-03"},{"category":"criminal-damage-arson","location_type":"Force","location":{"latitude":"51.472395","street":{"id":1707243,"name":"On or near Bronte Close"},"longitude":"0.154266"},"context":"","outcome_status":{"category":"Investigation complete; no suspect identified","date":"2025-03"},"persistent_id":"d41c668fd608a5842bd52e9c8401457adb793d64e63475a47db04b786556480e","id":127131908,"location_subtype":"","month":"2025-03"},{"category":"criminal-damage-arson","location_type":"Force","location":{"latitude":"51.484723","street":{"id":1708001,"name":"On or near St John's Road"},"longitude":"0.170389"},"context":"","outcome_status":{"category":"Investigation complete; no suspect identified","date":"2025-03"},"persistent_id":"07b2847c71b35acf49fd3f2b73eb66bda8f84f8b63f100781145da982ad28200","id":127131472,"location_subtype":"","month":"2025-03"},{"category":"criminal-damage-arson","location_type":"Force","location":{"latitude":"51.474655","street":{"id":1708433,"name":"On or near South Road"},"longitude":"0.181331"},"context":"","outcome_status":{"category":"Investigation complete; no suspect identified","date":"2025-05"},"persistent_id":"5711a0fa046cca0fe5b7361f0c247c188c1ca0cfe77adce723629916fe277bb9","id":127135273,"location_subtype":"","month":"2025-03"},{"category":"criminal-damage-arson","location_type":"Force","location":{"latitude":"51.474535","street":{"id":1708272,"name":"On or near Larner Road"},"longitude":"0.178099"},"context":"","outcome_status":{"category":"Investigation complete; no suspect identified","date":"2025-05"},"persistent_id":"bee03d920fdb1a6352dab084cda4bfff1ae3f764194d0b9ddd132538ee9240bc","id":127135275,"location_subtype":"","month":"2025-03"},{"category":"criminal-damage-arson","location_type":"Force","location":{"latitude":"51.466967","street":{"id":1708791,"name":"On or near Oak Road"},"longitude":"0.191878"},"context":"","outcome_status":{"category":"Unable to prosecute suspect","date":"2025-06"},"persistent_id":"94068a9cbaf282ba623ca299cb8231eff9686ac1dd1c11a51ff36836982f5d54","id":127130958,"location_subtype":"","month":"2025-03"},{"category":"criminal-damage-arson","location_type":"Force","location":{"latitude":"51.486913","street":{"id":1708044,"name":"On or near Galleon Close"},"longitude":"0.171602"},"context":"","outcome_status":{"category":"Unable to prosecute suspect","date":"2025-04"},"persistent_id":"37e29c1b98f8883f790bbf149dabfa5e7630830378e9d9192cc84cf4b32990cc","id":127126466,"location_subtype":"","month":"2025-03"},{"category":"criminal-damage-arson","location_type":"Force","location":{"latitude":"51.471369","street":{"id":1708991,"name":"On or near Watermeadow Close"},"longitude":"0.196956"},"context":"","outcome_status":{"category":"Investigation complete; no suspect identified","date":"2025-03"},"persistent_id":"1b8d2e7ac12ea4a702949222f644d96e8b8909ba47297b7858dc4241e38f71ef","id":127132211,"location_subtype":"","month":"2025-03"},{"category":"criminal-damage-arson","location_type":"Force","location":{"latitude":"51.479305","street":{"id":1708470,"name":"On or near Petrol Station"},"longitude":"0.183238"},"context":"","outcome_status":{"category":"Investigation complete; no suspect identified","date":"2025-03"},"persistent_id":"5717c9674691e672adb97efd0736476c349c9224bf6d9eb3239ca95e5108b5fb","id":127134477,"location_subtype":"","month":"2025-03"},{"category":"criminal-damage-arson","location_type":"Force","location":{"latitude":"51.475761","street":{"id":1708458,"name":"On or near Shermanbury Close"},"longitude":"0.182319"},"context":"","outcome_status":{"category":"Investigation complete; no suspect identified","date":"2025-05"},"persistent_id":"bcedafc4fa7f513836565b690e3daad61062049cd3e05e933d8f19ae06cdbfc3","id":127135271,"location_subtype":"","month":"2025-03"},{"category":"criminal-damage-arson","location_type":"Force","location":{"latitude":"51.474655","street":{"id":1708433,"name":"On or near South Road"},"longitude":"0.181331"},"context":"","outcome_status":{"category":"Investigation complete; no suspect identified","date":"2025-03"},"persistent_id":"f8b49ea7effdcf7fb1162f5dddbca89e34811eed72500ec8519d77922fdd0dd5","id":127133631,"location_subtype":"","month":"2025-03"},{"category":"criminal-damage-arson","location_type":"Force","location":{"latitude":"51.477483","street":{"id":1708630,"name":"On or near Cornwallis Close"},"longitude":"0.187385"},"context":"","outcome_status":{"category":"Investigation complete; no suspect identified","date":"2025-03"},"persistent_id":"febd31b268214ba38ed3e6d68977dfdbf3fa7accb2815acb35b1c2b05956eef2","id":127127838,"location_subtype":"","month":"2025-03"},{"category":"criminal-damage-arson","location_type":"Force","location":{"latitude":"51.484079","street":{"id":1707542,"name":"On or near Holly Hill Road"},"longitude":"0.160982"},"context":"","outcome_status":{"category":"Unable to prosecute suspect","date":"2025-09"},"persistent_id":"7d68bc1da0fd2c095255bd65f7d7e2e0f08c5b9ef2252fb98b8ef32322a8b32b","id":127188284,"location_subtype":"","month":"2025-03"},{"category":"drugs","location_type":"Force","location":{"latitude":"51.481517","street":{"id":1707349,"name":"On or near Stiles Close"},"longitude":"0.156986"},"context":"","outcome_status":{"category":"Unable to prosecute suspect","date":"2025-03"},"persistent_id":"0d00cf3dc9d5f5b2ff2bf0cb21e5e1dc3b376ca7d4185661f87ed3a825491c2a","id":127205275,"location_subtype":"","month":"2025-03"},{"category":"drugs","location_type":"Force","location":{"latitude":"51.483985","street":{"id":1707744,"name":"On or near De Luci Road"},"longitude":"0.164607"},"context":"","outcome_status":{"category":"Unable to prosecute suspect","date":"2025-03"},"persistent_id":"7abb072dcbdd32a7260ae63d30de41313fe079a2e8df17de7ff5f036432022ca","id":127206562,"location_subtype":"","month":"2025-03"},{"category":"drugs","location_type":"Force","location":{"latitude":"51.484508","street":{"id":1707868,"name":"On or near Crusoe Road"},"longitude":"0.167426"},"context":"","outcome_status":{"category":"Unable to prosecute suspect","date":"2025-03"},"persistent_id":"9afc23c5e762fb6271b2c9b43de7f8a220cc36c1af6a111b383bee60dce08df0","id":127206677,"location_subtype":"","month":"2025-03"},{"category":"drugs","location_type":"Force","location":{"latitude":"51.472569","street":{"id":1708170,"name":"On or near Filby Close"},"longitude":"0.175025"},"context":"","outcome_status":{"category":"Unable to prosecute suspect","date":"2025-03"},"persistent_id":"35c6eef462547f70c7eef45cf7c04eebabaaf7fad91a1b46e54905dcad741a7a","id":127205623,"location_subtype":"","month":"2025-03"},{"category":"drugs","location_type":"Force","location":{"latitude":"51.485334","street":{"id":1708085,"name":"On or near Maxim Road"},"longitude":"0.173356"},"context":"","outcome_status":{"category":"Unable to prosecute suspect","date":"2025-03"},"persistent_id":"022630658435db6afbd4fa056d66a0f438c108d26ee7110e09d854c335db509a","id":127206165,"location_subtype":"","month":"2025-03"},{"category":"drugs","location_type":"Force","location":{"latitude":"51.464045","street":{"id":1707847,"name":"On or near Old Manor Way"},"longitude":"0.167190"},"context":"","outcome_status":{"category":"Local resolution","date":"2025-11"},"persistent_id":"309bb32ce7c3eb8ad01d438cf14839f5feaee141e6646f558697495e7631b803","id":127210643,"location_subtype":"","month":"2025-03"},{"category":"drugs","location_type":"Force","location":{"latitude":"51.481517","street":{"id":1707349,"name":"On or near Stiles Close"},"longitude":"0.156986"},"context":"","outcome_status":{"category":"Unable to prosecute suspect","date":"2025-03"},"persistent_id":"13a9d1b47f0b5578138278260d5d58c80c84bbe962f112eb70f78624414b6333","id":127206240,"location_subtype":"","month":"2025-03"},{"category":"drugs","location_type":"Force","location":{"latitude":"51.472808","street":{"id":1708312,"name":"On or near Downton Mews"},"longitude":"0.179111"},"context":"","outcome_status":{"category":"Investigation complete; no suspect identified","date":"2025-03"},"persistent_id":"1d3dad553f234b6f7c569ee3e3b455d848ddd77311896fe40def7c234e485af2","id":127207201,"location_subtype":"","month":"2025-03"},{"category":"drugs","location_type":"Force","location":{"latitude":"51.476639","street":{"id":1707286,"name":"On or near The Drive"},"longitude":"0.155273"},"context":"","outcome_status":{"category":"Unable to prosecute suspect","date":"2025-03"},"persistent_id":"08ce0f8de6e4f151fc25fc7138ee1faea26df6e8697af37731134866c45c8ea7","id":127204503,"location_subtype":"","month":"2025-03"},{"category":"drugs","location_type":"Force","location":{"latitude":"51.472883","street":{"id":1707469,"name":"On or near Petrol Station"},"longitude":"0.158537"},"context":"","outcome_status":{"category":"Local resolution","date":"2025-03"},"persistent_id":"70c122e2a0dda129f34d604b240149cabf859210098390853fd54336dac29442","id":127211619,"location_subtype":"","month":"2025-03"},{"category":"drugs","location_type":"Force","location":{"latitude":"51.471281","street":{"id":1708171,"name":"On or near Halstead Road"},"longitude":"0.176115"},"context":"","outcome_status":{"category":"Court result unavailable","date":"2025-09"},"persistent_id":"fd5cb2efbc46636006647ce5b9a4ff5aa253616f7093f5ca9d9eaa69afb43ddc","id":127208145,"location_subtype":"","month":"2025-03"},{"category":"drugs","location_type":"Force","location":{"latitude":"51.482214","street":{"id":1707809,"name":"On or near Shopping Area"},"longitude":"0.167317"},"context":"","outcome_status":{"category":"Unable to prosecute suspect","date":"2025-03"},"persistent_id":"1d1a97074e263f420b7fe999c8a6596af25793c34d2d2241c49c930a3c8f03d2","id":127205046,"location_subtype":"","month":"2025-03"},{"category":"drugs","location_type":"Force","location":{"latitude":"51.483098","street":{"id":1708222,"name":"On or near Tranquil Rise"},"longitude":"0.176563"},"context":"","outcome_status":{"category":"Unable to prosecute suspect","date":"2025-03"},"persistent_id":"60adcabf8df887344af049558860cc0fa48b435ee1b4558e3d0e82250598fc34","id":127204688,"location_subtype":"","month":"2025-03"},{"category":"drugs","location_type":"Force","location":{"latitude":"51.474754","street":{"id":1707909,"name":"On or near Avenue Road"},"longitude":"0.167770"},"context":"","outcome_status":{"category":"Unable to prosecute suspect","date":"2025-03"},"persistent_id":"6081ef55acf91c803ea41627fe1e5a42644479a0e3cfe0cd710e8b1af9ceaf93","id":127205149,"location_subtype":"","month":"2025-03"},{"category":"drugs","location_type":"Force","location":{"latitude":"51.466446","street":{"id":1708609,"name":"On or near Dale View"},"longitude":"0.186540"},"context":"","outcome_status":{"category":"Unable to prosecute suspect","date":"2025-03"},"persistent_id":"eed2db0553f76558fdb179093394bd0d1429bb893b2759ab4cce81330bac4f78","id":127206524,"location_subtype":"","month":"2025-03"},{"category":"drugs","location_type":"Force","location":{"latitude":"51.475020","street":{"id":1709000,"name":"On or near Lapwing Close"},"longitude":"0.197448"},"context":"","outcome_status":{"category":"Unable to prosecute suspect","date":"2025-03"},"persistent_id":"413802ee007606d798ae39c616d42158ee41366ea2794d7ec6f8459de516c678","id":127205255,"location_subtype":"","month":"2025-03"},{"category":"drugs","location_type":"Force","location":{"latitude":"51.482384","street":{"id":1708152,"name":"On or near Cricketers Close"},"longitude":"0.175765"},"context":"","outcome_status":{"category":"Local resolution","date":"2025-04"},"persistent_id":"448fa49acd15cec4bb4d6fb77ba4d8eb7ea88fd2ba95d83f6b7caec007b0058a","id":127208041,"location_subtype":"","month":"2025-03"},{"category":"other-theft","location_type":"Force","location":{"latitude":"51.486913","street":{"id":1708044,"name":"On or near Galleon Close"},"longitude":"0.171602"},"context":"","outcome_status":{"category":"Unable to prosecute suspect","date":"2025-04"},"persistent_id":"621ef16f8fd2c4d0e2c42a988452e0f936bc34a0fe718a98d62dd923749c359b","id":127157178,"location_subtype":"","month":"2025-03"},{"category":"other-theft","location_type":"Force","location":{"latitude":"51.481517","street":{"id":1707349,"name":"On or near Stiles Close"},"longitude":"0.156986"},"context":"","outcome_status":{"category":"Investigation complete; no suspect identified","date":"2025-03"},"persistent_id":"2ef1ddcd0785bb7a3f4d4dd4daacb5c01e27619d7363b3479f62aa282cd9d1aa","id":127186915,"location_subtype":"","month":"2025-03"},{"category":"other-theft","location_type":"Force","location":{"latitude":"51.475709","street":{"id":1707551,"name":"On or near Hengist Road"},"longitude":"0.160341"},"context":"","outcome_status":{"category":"Investigation complete; no suspect identified","date":"2025-03"},"persistent_id":"90d7dfdbc94aa08f7a25b37fc6b3d8420cd6d0ab349aa30626a61b391e58e192","id":127186272,"location_subtype":"","month":"2025-03"},{"category":"other-theft","location_type":"Force","location":{"latitude":"51.479954","street":{"id":1708533,"name":"On or near Supermarket"},"longitude":"0.184118"},"context":"","outcome_status":{"category":"Investigation complete; no suspect identified","date":"2025-04"},"persistent_id":"ef17eeecaab0bd454a7153c10a509c465fb58a26f88f1cf9baf41e9b18b02f1f","id":127185890,"location_subtype":"","month":"2025-03"},{"category":"other-theft","location_type":"Force","location":{"latitude":"51.462953","street":{"id":1707938,"name":"On or near Taunton Close"},"longitude":"0.171299"},"context":"","outcome_status":{"category":"Investigation complete; no suspect identified","date":"2025-03"},"persistent_id":"09f9ec15171e6963977afef114d33f06e2f89f70ab705e2c8bd2949ca90834e3","id":127186634,"location_subtype":"","month":"2025-03"},{"category":"other-theft","location_type":"Force","location":{"latitude":"51.479954","street":{"id":1708533,"name":"On or near Supermarket"},"longitude":"0.184118"},"context":"","outcome_status":{"category":"Investigation complete; no suspect identified","date":"2025-03"},"persistent_id":"2b30bafa7755f799241bd08eee4572dcf0a39b799f0c7be1e71321039644e74f","id":127186397,"location_subtype":"","month":"2025-03"},{"category":"other-theft","location_type":"Force","location":{"latitude":"51.472519","street":{"id":1708762,"name":"On or near Quartz Close"},"longitude":"0.189797"},"context":"","outcome_status":{"category":"Investigation complete; no suspect identified","date":"2025-04"},"persistent_id":"a83f7e129714d2c783eda7e96890a983f72d70b0a1b314c3b3cfa68c4fa619c6","id":127184543,"location_subtype":"","month":"2025-03"},{"category":"other-theft","location_type":"Force","location":{"latitude":"51.474359","street":{"id":1707683,"name":"On or near Limewood Road"},"longitude":"0.163316"},"context":"","outcome_status":{"category":"Investigation complete; no suspect identified","date":"2025-03"},"persistent_id":"9e4ba6988ef48d5961ddd9b2b09e106ebb65d8ca55f1eaf889f225ff2c98b2ab","id":127183865,"location_subtype":"","month":"2025-03"},{"category":"other-theft","location_type":"Force","location":{"latitude":"51.469946","street":{"id":1708610,"name":"On or near Craydene Road"},"longitude":"0.186477"},"context":"","outcome_status":{"category":"Investigation complete; no suspect identified","date":"2025-03"},"persistent_id":"f0261e52abd411d768b4e1cd82d9bf0ea6684c4410481b30ad1708385d727f34","id":127166686,"location_subtype":"","month":"2025-03"},{"category":"other-theft","location_type":"Force","location":{"latitude":"51.483278","street":{"id":1707642,"name":"On or near Athol Road"},"longitude":"0.163436"},"context":"","outcome_status":{"category":"Investigation complete; no suspect identified","date":"2025-03"},"persistent_id":"3038b6d5ba9a741e7933e6db513fcc04b207cba565aea3a8a0effa4952d81e1c","id":127181329,"location_subtype":"","month":"2025-03"},{"category":"other-theft","location_type":"Force","location":{"latitude":"51.465264","street":{"id":1708594,"name":"On or near Sun Court"},"longitude":"0.186296"},"context":"","outcome_status":{"category":"Investigation complete; no suspect identified","date":"2025-03"},"persistent_id":"39dc2be2482a1eb091370caa2f98342f983d57f4bc76d7693fe2c1a834ad88b1","id":127181250,"location_subtype":"","month":"2025-03"},{"category":"other-theft","location_type":"Force","location":{"latitude":"51.479954","street":{"id":1708533,"name":"On or near Supermarket"},"longitude":"0.184118"},"context":"","outcome_status":{"category":"Investigation complete; no suspect identified","date":"2025-04"},"persistent_id":"74216a98e9c0910c09b0bc4b69ac50f243f41f23b95324f01bc7f447ee40e104","id":127181587,"location_subtype":"","month":"2025-03"},{"category":"other-theft","location_type":"Force","location":{"latitude":"51.469597","street":{"id":1708230,"name":"On or near Doyle Close"},"longitude":"0.178181"},"context":"","outcome_status":{"category":"Status update unavailable","date":"2025-07"},"persistent_id":"641177898dcb896f8f8158ab3f1bfd8054f68d90c9d65997e657a7d84006f381","id":127157016,"location_subtype":"","month":"2025-03"},{"category":"other-theft","location_type":"Force","location":{"latitude":"51.476639","street":{"id":1707286,"name":"On or near The Drive"},"longitude":"0.155273"},"context":"","outcome_status":{"category":"Unable to prosecute suspect","date":"2025-08"},"persistent_id":"9f48c4c98f9e73a181f353cb94a34b70a38b75fdc0bd404c0c3f7f6aa4e633a8","id":127182144,"location_subtype":"","month":"2025-03"},{"category":"other-theft","location_type":"Force","location":{"latitude":"51.475208","street":{"id":1708412,"name":"On or near Thanet Road"},"longitude":"0.181098"},"context":"","outcome_status":{"category":"Unable to prosecute suspect","date":"2025-09"},"persistent_id":"22c8084448745c32649ed582169653f3aa6e804bdd228007e27f63edeb847545","id":127184932,"location_subtype":"","month":"2025-03"},{"category":"other-theft","location_type":"Force","location":{"latitude":"51.467584","street":{"id":1708773,"name":"On or near Parking Area"},"longitude":"0.190655"},"context":"","outcome_status":{"category":"Court result unavailable","date":"2026-01"},"persistent_id":"9f180ae163044e458edd5a18de714c4efaa6c77fadc6b513657512e9a7543d45","id":127185079,"location_subtype":"","month":"2025-03"},{"category":"other-theft","location_type":"Force","location":{"latitude":"51.479954","street":{"id":1708533,"name":"On or near Supermarket"},"longitude":"0.184118"},"context":"","outcome_status":{"category":"Investigation complete; no suspect identified","date":"2025-07"},"persistent_id":"8c05250665f5851273d994b557bb1e26c1171ddf8b2c36814bd22b81e1cdb492","id":127188159,"location_subtype":"","month":"2025-03"},{"category":"other-theft","location_type":"Force","location":{"latitude":"51.481350","street":{"id":1707766,"name":"On or near Loampit Road"},"longitude":"0.165562"},"context":"","outcome_status":{"category":"Unable to prosecute suspect","date":"2025-06"},"persistent_id":"b397c1c440d29bef5311c284253374ad23da976b046c5a685ebd43fadddbbfdc","id":127166373,"location_subtype":"","month":"2025-03"},{"category":"possession-of-weapons","location_type":"Force","location":{"latitude":"51.469478","street":{"id":1708911,"name":"On or near Leycroft Gardens"},"longitude":"0.195151"},"context":"","outcome_status":{"category":"Investigation complete; no suspect identified","date":"2025-03"},"persistent_id":"286c4e81ec32cf8e57f1f1b8ac8490f81964b667b5327b6c3302c6b602ce07b5","id":127202375,"location_subtype":"","month":"2025-03"},{"category":"public-order","location_type":"Force","location":{"latitude":"51.486913","street":{"id":1708044,"name":"On or near Galleon Close"},"longitude":"0.171602"},"context":"","outcome_status":{"category":"Investigation complete; no suspect identified","date":"2025-04"},"persistent_id":"5c983ba41c7c1c32b77c86bfa4fb3c05a7e10b5c33fbaa2050bb6caa6308f9fd","id":127118060,"location_subtype":"","month":"2025-03"},{"category":"public-order","location_type":"Force","location":{"latitude":"51.478221","street":{"id":1708369,"name":"On or near Queens Road"},"longitude":"0.179629"},"context":"","outcome_status":{"category":"Investigation complete; no suspect identified","date":"2025-04"},"persistent_id":"ad90d7e57fee0caac0e623e0a10db6434be16f5191de0f5d00f611a340c0da06","id":127191515,"location_subtype":"","month":"2025-03"},{"category":"public-order","location_type":"Force","location":{"latitude":"51.486116","street":{"id":1708004,"name":"On or near St Francis' Road"},"longitude":"0.170945"},"context":"","outcome_status":{"category":"Investigation complete; no suspect identified","date":"2025-03"},"persistent_id":"c796557a93789512eabb38b5a031e918cf6f8b3032cfbf61807c6fce286c912f","id":127116584,"location_subtype":"","month":"2025-03"},{"category":"public-order","location_type":"Force","location":{"latitude":"51.476270","street":{"id":1708614,"name":"On or near Raleigh Close"},"longitude":"0.187326"},"context":"","outcome_status":{"category":"Unable to prosecute suspect","date":"2025-05"},"persistent_id":"b58dcff5b517f9138be4f1d709395a9c1de5f4b04196d32492a45105b9de4f63","id":127123337,"location_subtype":"","month":"2025-03"},{"category":"public-order","location_type":"Force","location":{"latitude":"51.471367","street":{"id":1708461,"name":"On or near Peareswood Road"},"longitude":"0.183550"},"context":"","outcome_status":{"category":"Unable to prosecute suspect","date":"2025-06"},"persistent_id":"d08a130d7d65a4e627eee312101bca536913aa89bcc89099cb63d51b81335485","id":127122980,"location_subtype":"","month":"2025-03"},{"category":"public-order","location_type":"Force","location":{"latitude":"51.471367","street":{"id":1708461,"name":"On or near Peareswood Road"},"longitude":"0.183550"},"context":"","outcome_status":{"category":"Investigation complete; no suspect identified","date":"2025-03"},"persistent_id":"a450f5b4b5e3dc6d9dc62cdf6f1f301bfe4f212bc1edbaea3edd670b5d92a639","id":127121700,"location_subtype":"","month":"2025-03"},{"category":"public-order","location_type":"Force","location":{"latitude":"51.473218","street":{"id":1707438,"name":"On or near Tyler Close"},"longitude":"0.157891"},"context":"","outcome_status":{"category":"Unable to prosecute suspect","date":"2025-04"},"persistent_id":"90604b13f67ddf92dd85fbc01a77a6737a5b56f8a4014d63e0db80932b7f4a83","id":127189351,"location_subtype":"","month":"2025-03"},{"category":"public-order","location_type":"Force","location":{"latitude":"51.477282","street":{"id":1708263,"name":"On or near Parking Area"},"longitude":"0.179325"},"context":"","outcome_status":{"category":"Investigation complete; no suspect identified","date":"2025-07"},"persistent_id":"e830718fa1b121082d0427d401bb0105ad57fd88dc154d1d0a478f6588da4874","id":127189013,"location_subtype":"","month":"2025-03"},{"category":"public-order","location_type":"Force","location":{"latitude":"51.480304","street":{"id":1707935,"name":"On or near Arran Close"},"longitude":"0.170122"},"context":"","outcome_status":{"category":"Unable to prosecute suspect","date":"2025-04"},"persistent_id":"f7fbda1126eac2c00ea828321cd1d4f60b5c08c3ed410c7c55d7090ab3b21902","id":127189107,"location_subtype":"","month":"2025-03"},{"category":"public-order","location_type":"Force","location":{"latitude":"51.473311","street":{"id":1708027,"name":"On or near Valence Road"},"longitude":"0.170913"},"context":"","outcome_status":{"category":"Investigation complete; no suspect identified","date":"2025-04"},"persistent_id":"ea7e1fd3063b4dd241eab0bb5399f46e776e781c1bf7018f58617c53929e84d0","id":127121809,"location_subtype":"","month":"2025-03"},{"category":"public-order","location_type":"Force","location":{"latitude":"51.464045","street":{"id":1707847,"name":"On or near Old Manor Way"},"longitude":"0.167190"},"context":"","outcome_status":{"category":"Investigation complete; no suspect identified","date":"2025-04"},"persistent_id":"a30f0b0325a7691fca253f058c406655b466dcbb29524de9b03012921d9b4b73","id":127121915,"location_subtype":"","month":"2025-03"},{"category":"public-order","location_type":"Force","location":{"latitude":"51.478221","street":{"id":1708369,"name":"On or near Queens Road"},"longitude":"0.179629"},"context":"","outcome_status":{"category":"Unable to prosecute suspect","date":"2025-03"},"persistent_id":"e115f7440eef44b7a18e2e51bec600ad60539fc0fade0e9195fd0a2d0f62913b","id":127121667,"location_subtype":"","month":"2025-03"},{"category":"public-order","location_type":"Force","location":{"latitude":"51.475239","street":{"id":1707253,"name":"On or near Parking Area"},"longitude":"0.155120"},"context":"","outcome_status":{"category":"Investigation complete; no suspect identified","date":"2025-03"},"persistent_id":"a3f8ff03285923a013062779b93f5c33a33155fa332349660ce29af54797ab50","id":127119456,"location_subtype":"","month":"2025-03"},{"category":"public-order","location_type":"Force","location":{"latitude":"51.470280","street":{"id":1708840,"name":"On or near Larkswood Close"},"longitude":"0.192656"},"context":"","outcome_status":{"category":"Investigation complete; no suspect identified","date":"2025-07"},"persistent_id":"d6ef6513ef75a7ba132a2cfc7297f27f5b4c0c00e7dc00543168cb38626c71fe","id":127188959,"location_subtype":"","month":"2025-03"},{"category":"public-order","location_type":"Force","location":{"latitude":"51.486116","street":{"id":1708004,"name":"On or near St Francis' Road"},"longitude":"0.170945"},"context":"","outcome_status":{"category":"Unable to prosecute suspect","date":"2025-05"},"persistent_id":"7fb865f0f340b4e6be7e20a7bbab566ac4fefda6ea96c7e0b855908965c02f02","id":127121092,"location_subtype":"","month":"2025-03"},{"category":"public-order","location_type":"Force","location":{"latitude":"51.484127","street":{"id":1708135,"name":"On or near Winifred Road"},"longitude":"0.174422"},"context":"","outcome_status":{"category":"Unable to prosecute suspect","date":"2025-04"},"persistent_id":"89961b2480c442652ce617e6ecd0f84ecaacee5f2bc579149781dd7f3b403d78","id":127119095,"location_subtype":"","month":"2025-03"},{"category":"public-order","location_type":"Force","location":{"latitude":"51.484127","street":{"id":1708135,"name":"On or near Winifred Road"},"longitude":"0.174422"},"context":"","outcome_status":{"category":"Investigation complete; no suspect identified","date":"2025-04"},"persistent_id":"1659fef683c0bb9d3f3695d6aeed4925487b7e4b26b14012ec5f4fdce2bd2b91","id":127117617,"location_subtype":"","month":"2025-03"},{"category":"public-order","location_type":"Force","location":{"latitude":"51.486116","street":{"id":1708004,"name":"On or near St Francis' Road"},"longitude":"0.170945"},"context":"","outcome_status":{"category":"Unable to prosecute suspect","date":"2025-04"},"persistent_id":"cf1fdbbbaa2cfb07b3db886f7461daa5cbe9b3565598ac7f52160084941f9d41","id":127119731,"location_subtype":"","month":"2025-03"},{"category":"public-order","location_type":"Force","location":{"latitude":"51.479178","street":{"id":1708384,"name":"On or near Queen Street"},"longitude":"0.179905"},"context":"","outcome_status":{"category":"Investigation complete; no suspect identified","date":"2025-06"},"persistent_id":"ad5f41f766c013150ef60d93e6618acd60ad7a1126281be8c8862c88416010d0","id":127189501,"location_subtype":"","month":"2025-03"},{"category":"public-order","location_type":"Force","location":{"latitude":"51.475530","street":{"id":1707866,"name":"On or near Buxton Road"},"longitude":"0.167605"},"context":"","outcome_status":{"category":"Unable to prosecute suspect","date":"2025-05"},"persistent_id":"5aa38952f23dc932cac37bbf7a8172da5d715f7fe8f898f234ee3650f2123c67","id":127189070,"location_subtype":"","month":"2025-03"},{"category":"robbery","location_type":"Force","location":{"latitude":"51.480094","street":{"id":1708391,"name":"On or near Shopping Area"},"longitude":"0.180611"},"context":"","outcome_status":{"category":"Investigation complete; no suspect identified","date":"2025-06"},"persistent_id":"afc3602aa5401f7e8231546b882708e8819c5cd23e9a01f53a81773573d67cc7","id":127154099,"location_subtype":"","month":"2025-03"},{"category":"robbery","location_type":"Force","location":{"latitude":"51.465157","street":{"id":1707491,"name":"On or near Hornbeam Lane"},"longitude":"0.160059"},"context":"","outcome_status":{"category":"Unable to prosecute suspect","date":"2025-04"},"persistent_id":"6eed6902031e09b5bda821f940a486b268ec1f26ecb9b6b38a0122ac066195e4","id":127156313,"location_subtype":"","month":"2025-03"},{"category":"robbery","location_type":"Force","location":{"latitude":"51.474320","street":{"id":1708308,"name":"On or near Furners Close"},"longitude":"0.180004"},"context":"","outcome_status":{"category":"Investigation complete; no suspect identified","date":"2025-03"},"persistent_id":"0712b8915e67dbf61b5b6ab56c75c99981b85235ca4eff36ebdd73c4eece585d","id":127156036,"location_subtype":"","month":"2025-03"},{"category":"shoplifting","location_type":"Force","location":{"latitude":"51.486116","street":{"id":1708004,"name":"On or near St Francis' Road"},"longitude":"0.170945"},"context":"","outcome_status":{"category":"Investigation complete; no suspect identified","date":"2025-04"},"persistent_id":"d5315daeb23c71088f1a28e1fa309a57e8b4ecac90a9d425c5f16c71f9060084","id":127175586,"location_subtype":"","month":"2025-03"},{"category":"shoplifting","location_type":"Force","location":{"latitude":"51.479954","street":{"id":1708533,"name":"On or near Supermarket"},"longitude":"0.184118"},"context":"","outcome_status":{"category":"Investigation complete; no suspect identified","date":"2025-03"},"persistent_id":"770d962603c56f8b5cc62aedd9ccb303b4a7a8ae551779aed94b4592a961a8e7","id":127176938,"location_subtype":"","month":"2025-03"},{"category":"shoplifting","location_type":"Force","location":{"latitude":"51.479954","street":{"id":1708533,"name":"On or near Supermarket"},"longitude":"0.184118"},"context":"","outcome_status":{"category":"Investigation complete; no suspect identified","date":"2025-03"},"persistent_id":"b1b3682588be726ffba5b5fa3d1272d3b81ae7aecefe01c8380e70a3508d54a0","id":127175721,"location_subtype":"","month":"2025-03"},{"category":"shoplifting","location_type":"Force","location":{"latitude":"51.479954","street":{"id":1708533,"name":"On or near Supermarket"},"longitude":"0.184118"},"context":"","outcome_status":{"category":"Investigation complete; no suspect identified","date":"2025-03"},"persistent_id":"34debc3a5c0b7a6c561a383ea96a1305b68e7e1ffb6abe2cb65dd6ca380da97a","id":127176352,"location_subtype":"","month":"2025-03"},{"category":"shoplifting","location_type":"Force","location":{"latitude":"51.479954","street":{"id":1708533,"name":"On or near Supermarket"},"longitude":"0.184118"},"context":"","outcome_status":{"category":"Investigation complete; no suspect identified","date":"2025-03"},"persistent_id":"30b7aeedc8edb27568936a7610cc41357142b2f55d82880f5401a23259c7d440","id":127174553,"location_subtype":"","month":"2025-03"},{"category":"shoplifting","location_type":"Force","location":{"latitude":"51.480092","street":{"id":1708353,"name":"On or near Shopping Area"},"longitude":"0.180567"},"context":"","outcome_status":{"category":"Investigation complete; no suspect identified","date":"2025-03"},"persistent_id":"d06d7a2b893cf489fb6d2e113685dae5676b8f862b744e9d26bf8fd52e377c85","id":127174905,"location_subtype":"","month":"2025-03"},{"category":"shoplifting","location_type":"Force","location":{"latitude":"51.479954","street":{"id":1708533,"name":"On or near Supermarket"},"longitude":"0.184118"},"context":"","outcome_status":{"category":"Investigation complete; no suspect identified","date":"2025-03"},"persistent_id":"ad7e42dca0912476c1676431c421024470d7ad702c412975d5c374294c2d6fe7","id":127178275,"location_subtype":"","month":"2025-03"},{"category":"shoplifting","location_type":"Force","location":{"latitude":"51.479132","street":{"id":1708558,"name":"On or near Crescent Road"},"longitude":"0.184813"},"context":"","outcome_status":{"category":"Investigation complete; no suspect identified","date":"2025-03"},"persistent_id":"5d63455a8eb53956fc7e603d761a3e9d86f719280bf187987216e8ed7977bc49","id":127174471,"location_subtype":"","month":"2025-03"},{"category":"shoplifting","location_type":"Force","location":{"latitude":"51.480547","street":{"id":1708278,"name":"On or near Parking Area"},"longitude":"0.178832"},"context":"","outcome_status":{"category":"Investigation complete; no suspect identified","date":"2025-03"},"persistent_id":"d9dceb30e8bac972f8aa1f4dd69a7fa154f3e5a3b7fb6fd321de6e7256236363","id":127175050,"location_subtype":"","month":"2025-03"},{"category":"shoplifting","location_type":"Force","location":{"latitude":"51.486116","street":{"id":1708004,"name":"On or near St Francis' Road"},"longitude":"0.170945"},"context":"","outcome_status":{"category":"Investigation complete; no suspect identified","date":"2025-03"},"persistent_id":"d6c78086ddb3405265a62593a948a9b074604ef1fd1b0136a3cbf49f6e3848ef","id":127176098,"location_subtype":"","month":"2025-03"},{"category":"shoplifting","location_type":"Force","location":{"latitude":"51.480092","street":{"id":1708353,"name":"On or near Shopping Area"},"longitude":"0.180567"},"context":"","outcome_status":{"category":"Investigation complete; no suspect identified","date":"2025-03"},"persistent_id":"70e7bb309868dbca9fff9baf577ffede23631c25664a1f8a1a4b44437167ed15","id":127174893,"location_subtype":"","month":"2025-03"},{"category":"shoplifting","location_type":"Force","location":{"latitude":"51.486116","street":{"id":1708004,"name":"On or near St Francis' Road"},"longitude":"0.170945"},"context":"","outcome_status":{"category":"Investigation complete; no suspect identified","date":"2025-03"},"persistent_id":"1c9fc0fb9d513d60953ec9d28970fdff79646c40be6565d12c43d5dc91076c75","id":127176379,"location_subtype":"","month":"2025-03"},{"category":"shoplifting","location_type":"Force","location":{"latitude":"51.479954","street":{"id":1708533,"name":"On or near Supermarket"},"longitude":"0.184118"},"context":"","outcome_status":{"category":"Investigation complete; no suspect identified","date":"2025-03"},"persistent_id":"b9248595deaea99fefb15c7bfe399fc1ddba9a5783d0590edc805a8c5326d6f2","id":127178110,"location_subtype":"","month":"2025-03"},{"category":"shoplifting","location_type":"Force","location":{"latitude":"51.479954","street":{"id":1708533,"name":"On or near Supermarket"},"longitude":"0.184118"},"context":"","outcome_status":{"category":"Investigation complete; no suspect identified","date":"2025-03"},"persistent_id":"2e76b9abe4706ccd85863c1c2f8d573c1c8dface38f41d966bf6cb95915057b5","id":127177857,"location_subtype":"","month":"2025-03"},{"category":"shoplifting","location_type":"Force","location":{"latitude":"51.486116","street":{"id":1708004,"name":"On or near St Francis' Road"},"longitude":"0.170945"},"context":"","outcome_status":{"category":"Investigation complete; no suspect identified","date":"2025-05"},"persistent_id":"a46a03eb5cc69c9bd5c96e7023b42b5cad5fa911f8bbdcb270062815c3b754e8","id":127174029,"location_subtype":"","month":"2025-03"},{"category":"shoplifting","location_type":"Force","location":{"latitude":"51.468130","street":{"id":1708758,"name":"On or near Slade Green"},"longitude":"0.189802"},"context":"","outcome_status":{"category":"Investigation complete; no suspect identified","date":"2025-04"},"persistent_id":"7a70157c36184daf703470825467dcb9da6440ae815548c3d4e62a51e6cb12b2","id":127176138,"location_subtype":"","month":"2025-03"},{"category":"shoplifting","location_type":"Force","location":{"latitude":"51.479954","street":{"id":1708533,"name":"On or near Supermarket"},"longitude":"0.184118"},"context":"","outcome_status":{"category":"Investigation complete; no suspect identified","date":"2025-03"},"persistent_id":"9aa9e52738648e60d02bdf0f87d9724fda9bb0c6a84dd01d9623d1256ed0a29a","id":127172745,"location_subtype":"","month":"2025-03"},{"category":"shoplifting","location_type":"Force","location":{"latitude":"51.481350","street":{"id":1707766,"name":"On or near Loampit Road"},"longitude":"0.165562"},"context":"","outcome_status":{"category":"Investigation complete; no suspect identified","date":"2025-03"},"persistent_id":"dd23ae0c312f21d878065c2a486fc9accb47f19223adb6f187bd02189d487d87","id":127172713,"location_subtype":"","month":"2025-03"},{"category":"shoplifting","location_type":"Force","location":{"latitude":"51.472067","street":{"id":1708162,"name":"On or near Highstead Crescent"},"longitude":"0.174915"},"context":"","outcome_status":{"category":"Investigation complete; no suspect identified","date":"2025-03"},"persistent_id":"0db1dbf3b515927057f60541e8cd40c1475b9ff63d6d0f1f55b600aee9ba0df2","id":127178069,"location_subtype":"","month":"2025-03"},{"category":"shoplifting","location_type":"Force","location":{"latitude":"51.486116","street":{"id":1708004,"name":"On or near St Francis' Road"},"longitude":"0.170945"},"context":"","outcome_status":{"category":"Investigation complete; no suspect identified","date":"2025-04"},"persistent_id":"badb0e34c9d8664007df886b7d8917fff81da54983a47a910c19701640464412","id":127173896,"location_subtype":"","month":"2025-03"},{"category":"shoplifting","location_type":"Force","location":{"latitude":"51.483278","street":{"id":1707642,"name":"On or near Athol Road"},"longitude":"0.163436"},"context":"","outcome_status":{"category":"Investigation complete; no suspect identified","date":"2025-05"},"persistent_id":"5121c05e2efc7d376ef8f37942f3a7c8fd476b4ca1bfbc5cc2d48f5c096da76d","id":127175837,"location_subtype":"","month":"2025-03"},{"category":"shoplifting","location_type":"Force","location":{"latitude":"51.479954","street":{"id":1708533,"name":"On or near Supermarket"},"longitude":"0.184118"},"context":"","outcome_status":{"category":"Investigation complete; no suspect identified","date":"2025-09"},"persistent_id":"cbceeae82f9aad63de6ac938c5acffeb474c58936063b2b1cc30d842a5792439","id":127175623,"location_subtype":"","month":"2025-03"},{"category":"shoplifting","location_type":"Force","location":{"latitude":"51.479954","street":{"id":1708533,"name":"On or near Supermarket"},"longitude":"0.184118"},"context":"","outcome_status":{"category":"Investigation complete; no suspect identified","date":"2025-03"},"persistent_id":"7fac5ca3af39c9a033a17026cf9f8c569502ea2b664ff3cb8fbcb9f906d004c8","id":127174600,"location_subtype":"","month":"2025-03"},{"category":"shoplifting","location_type":"Force","location":{"latitude":"51.468130","street":{"id":1708758,"name":"On or near Slade Green"},"longitude":"0.189802"},"context":"","outcome_status":{"category":"Investigation complete; no suspect identified","date":"2025-03"},"persistent_id":"37eac6ccabf532c267fcebc4785ecb05f56ff41f848c6f51640e72feb4493291","id":127177017,"location_subtype":"","month":"2025-03"},{"category":"shoplifting","location_type":"Force","location":{"latitude":"51.474359","street":{"id":1707683,"name":"On or near Limewood Road"},"longitude":"0.163316"},"context":"","outcome_status":{"category":"Investigation complete; no suspect identified","date":"2025-03"},"persistent_id":"43e84e0ff911c3e94b9f188032250588451d6d9cfa2a9fd618251289b99874cd","id":127175038,"location_subtype":"","month":"2025-03"},{"category":"shoplifting","location_type":"Force","location":{"latitude":"51.486116","street":{"id":1708004,"name":"On or near St Francis' Road"},"longitude":"0.170945"},"context":"","outcome_status":{"category":"Investigation complete; no suspect identified","date":"2025-05"},"persistent_id":"98f2b72aba0e0d190dbdd07c756cfcf32f681539c4a389ce14fdf262774e33b6","id":127177312,"location_subtype":"","month":"2025-03"},{"category":"shoplifting","location_type":"Force","location":{"latitude":"51.479954","street":{"id":1708533,"name":"On or near Supermarket"},"longitude":"0.184118"},"context":"","outcome_status":{"category":"Investigation complete; no suspect identified","date":"2025-03"},"persistent_id":"1815e78d2cc90ab0c9337a5b53fa2a98ed25dd02ddb3321a742399eba3e6d319","id":127177225,"location_subtype":"","month":"2025-03"},{"category":"theft-from-the-person","location_type":"Force","location":{"latitude":"51.479485","street":{"id":1708372,"name":"On or near Elrick Close"},"longitude":"0.179847"},"context":"","outcome_status":{"category":"Investigation complete; no suspect identified","date":"2025-03"},"persistent_id":"f10fcdbf74230b93023b87c277b687a1930ab85abc4b21377ff742bfde18ddbc","id":127160875,"location_subtype":"","month":"2025-03"},{"category":"theft-from-the-person","location_type":"Force","location":{"latitude":"51.473745","street":{"id":1708582,"name":"On or near Codd Way"},"longitude":"0.186255"},"context":"","outcome_status":{"category":"Investigation complete; no suspect identified","date":"2025-03"},"persistent_id":"85bd29c1849bc1eaf774e458b5aed1a2006700f2e5c448a86f267969c4476531","id":127164440,"location_subtype":"","month":"2025-03"},{"category":"vehicle-crime","location_type":"Force","location":{"latitude":"51.464297","street":{"id":1708248,"name":"On or near Eversley Cross"},"longitude":"0.177381"},"context":"","outcome_status":{"category":"Investigation complete; no suspect identified","date":"2025-03"},"persistent_id":"dec413e3cacfce7a592466d78d0f90e2c9d44626cd86a7ffd2d2d7ed38ea9e9a","id":127169705,"location_subtype":"","month":"2025-03"},{"category":"vehicle-crime","location_type":"Force","location":{"latitude":"51.473245","street":{"id":1708305,"name":"On or near Butler Drive"},"longitude":"0.178340"},"context":"","outcome_status":{"category":"Investigation complete; no suspect identified","date":"2025-03"},"persistent_id":"977fed8fec892bb944c79c907a3b7e812cb757d81cf1762125647c395de69441","id":127180862,"location_subtype":"","month":"2025-03"},{"category":"vehicle-crime","location_type":"Force","location":{"latitude":"51.486097","street":{"id":1708007,"name":"On or near Chandlers Drive"},"longitude":"0.173897"},"context":"","outcome_status":{"category":"Unable to prosecute suspect","date":"2025-04"},"persistent_id":"731580e166d47f53806d850adddda8b0e849932bc380fee7ab4af6bd3757ea85","id":127180618,"location_subtype":"","month":"2025-03"},{"category":"vehicle-crime","location_type":"Force","location":{"latitude":"51.468532","street":{"id":1708213,"name":"On or near Pennine Way"},"longitude":"0.175927"},"context":"","outcome_status":{"category":"Investigation complete; no suspect identified","date":"2026-01"},"persistent_id":"d41273b6326575c5f27e24848ec6615fcbe57fac69b64f7493492629f9953af3","id":127180474,"location_subtype":"","month":"2025-03"},{"category":"vehicle-crime","location_type":"Force","location":{"latitude":"51.472481","street":{"id":1708855,"name":"On or near Alderney Road"},"longitude":"0.194216"},"context":"","outcome_status":{"category":"Investigation complete; no suspect identified","date":"2025-05"},"persistent_id":"2f42d2d1589ee60452a4ff78d3513c30f74dfb4883d3d0c90ee9707e6ec7ee1e","id":127180295,"location_subtype":"","month":"2025-03"},{"category":"vehicle-crime","location_type":"Force","location":{"latitude":"51.485936","street":{"id":1707893,"name":"On or near Lowry Close"},"longitude":"0.168516"},"context":"","outcome_status":{"category":"Investigation complete; no suspect identified","date":"2025-03"},"persistent_id":"281976678bf8b462e1f8dd6315c2a2c2e96daa143a8cb6572515b4aadf1b039b","id":127179792,"location_subtype":"","month":"2025-03"},{"category":"vehicle-crime","location_type":"Force","location":{"latitude":"51.486097","street":{"id":1708007,"name":"On or near Chandlers Drive"},"longitude":"0.173897"},"context":"","outcome_status":{"category":"Investigation complete; no suspect identified","date":"2025-03"},"persistent_id":"1bda86e84631491a396b636f63d7a78e2c83e6c16eb6dcafa4927a1009ceaf7c","id":127169084,"location_subtype":"","month":"2025-03"},{"category":"vehicle-crime","location_type":"Force","location":{"latitude":"51.477993","street":{"id":1708573,"name":"On or near Aperfield Road"},"longitude":"0.185566"},"context":"","outcome_status":{"category":"Investigation complete; no suspect identified","date":"2025-03"},"persistent_id":"d45a9df5926a64eedd5cc4d66a49f06f8fded727a3d10dbfd1f748a5d17fb814","id":127168883,"location_subtype":"","month":"2025-03"},{"category":"vehicle-crime","location_type":"Force","location":{"latitude":"51.484681","street":{"id":1708128,"name":"On or near West Street"},"longitude":"0.174146"},"context":"","outcome_status":{"category":"Investigation complete; no suspect identified","date":"2025-03"},"persistent_id":"47ea789b47df544527cfbd30410e7c1037f88f5de776bad55a49264856b08e5a","id":127180714,"location_subtype":"","month":"2025-03"},{"category":"vehicle-crime","location_type":"Force","location":{"latitude":"51.479178","street":{"id":1708384,"name":"On or near Queen Street"},"longitude":"0.179905"},"context":"","outcome_status":{"category":"Investigation complete; no suspect identified","date":"2025-03"},"persistent_id":"4829261d24b1c96ba53b355ffa81b3d75e31d8599868864691102af2906750f2","id":127169603,"location_subtype":"","month":"2025-03"},{"category":"vehicle-crime","location_type":"Force","location":{"latitude":"51.485710","street":{"id":1707850,"name":"On or near Pembroke Road"},"longitude":"0.166633"},"context":"","outcome_status":{"category":"Investigation complete; no suspect identified","date":"2025-03"},"persistent_id":"cef682b06a05b528c7848c309fb4ee62f0a2302df3d245ce048f4fa753bdb57b","id":127179514,"location_subtype":"","month":"2025-03"},{"category":"vehicle-crime","location_type":"Force","location":{"latitude":"51.483691","street":{"id":1708143,"name":"On or near Chichester Wharf"},"longitude":"0.177066"},"context":"","outcome_status":{"category":"Investigation complete; no suspect identified","date":"2025-05"},"persistent_id":"80635b1af98a68bd205a85f34a97e758aba8d2743ad79958931c44bea9b1f574","id":127180499,"location_subtype":"","month":"2025-03"},{"category":"vehicle-crime","location_type":"Force","location":{"latitude":"51.464297","street":{"id":1708248,"name":"On or near Eversley Cross"},"longitude":"0.177381"},"context":"","outcome_status":{"category":"Investigation complete; no suspect identified","date":"2025-03"},"persistent_id":"e28dfee5f3e135444a122d474c12d08b00afd2aff7a43c1ee2cd75b4e60cfe97","id":127124192,"location_subtype":"","month":"2025-03"},{"category":"vehicle-crime","location_type":"Force","location":{"latitude":"51.469419","street":{"id":1708396,"name":"On or near Northend Road"},"longitude":"0.180951"},"context":"","outcome_status":{"category":"Investigation complete; no suspect identified","date":"2025-04"},"persistent_id":"41a31492765a5766e432fce8e51a29d4250330ce4d0fefe65ee28d723debcd23","id":127179734,"location_subtype":"","month":"2025-03"},{"category":"vehicle-crime","location_type":"Force","location":{"latitude":"51.468247","street":{"id":1708593,"name":"On or near Masefield Close"},"longitude":"0.185935"},"context":"","outcome_status":{"category":"Investigation complete; no suspect identified","date":"2025-03"},"persistent_id":"9f1bf32ef6f5d2607066c466ccd89b9a0625946bf18debcc684e1830327112bd","id":127168510,"location_subtype":"","month":"2025-03"},{"category":"violent-crime","location_type":"Force","location":{"latitude":"51.469597","street":{"id":1708230,"name":"On or near Doyle Close"},"longitude":"0.178181"},"context":"","outcome_status":{"category":"Unable to prosecute suspect","date":"2025-09"},"persistent_id":"28737f351973f979086c4b83d806eb55336e0cbc9d22c141ed342f3e04a774ad","id":127139216,"location_subtype":"","month":"2025-03"},{"category":"violent-crime","location_type":"Force","location":{"latitude":"51.465201","street":{"id":1708637,"name":"On or near Howbury Lane"},"longitude":"0.189187"},"context":"","outcome_status":{"category":"Unable to prosecute suspect","date":"2025-11"},"persistent_id":"502cb6060cdbac23af5ac44631836e9e04cb7b63a1dc2f192daa72b5e9c3b687","id":127138216,"location_subtype":"","month":"2025-03"},{"category":"violent-crime","location_type":"Force","location":{"latitude":"51.482384","street":{"id":1708152,"name":"On or near Cricketers Close"},"longitude":"0.175765"},"context":"","outcome_status":{"category":"Unable to prosecute suspect","date":"2025-12"},"persistent_id":"3a11a4e64c5151fbc8b509994926af21d80d1041f7be9908834276d3afcbdf92","id":127137600,"location_subtype":"","month":"2025-03"},{"category":"violent-crime","location_type":"Force","location":{"latitude":"51.480094","street":{"id":1708391,"name":"On or near Shopping Area"},"longitude":"0.180611"},"context":"","outcome_status":{"category":"Unable to prosecute suspect","date":"2025-04"},"persistent_id":"bedb9568e30cf090b800d150aed31e7b8983473aeb2c96b5d22764eae1458e99","id":127198793,"location_subtype":"","month":"2025-03"},{"category":"violent-crime","location_type":"Force","location":{"latitude":"51.478899","street":{"id":1708541,"name":"On or near Appold Street"},"longitude":"0.186185"},"context":"","outcome_status":{"category":"Action to be taken by another organisation","date":"2025-07"},"persistent_id":"f8f3a8ee6f54f96f8fb757a6fc2320499caeb156bc7b6e50f313fe84d15b1065","id":127136064,"location_subtype":"","month":"2025-03"},{"category":"violent-crime","location_type":"Force","location":{"latitude":"51.466967","street":{"id":1708791,"name":"On or near Oak Road"},"longitude":"0.191878"},"context":"","outcome_status":{"category":"Unable to prosecute suspect","date":"2025-11"},"persistent_id":"8c824124b4bd46e9a627ae23b99cddf9059d1f5932ac595061985f75dc4c4eda","id":127140289,"location_subtype":"","month":"2025-03"},{"category":"violent-crime","location_type":"Force","location":{"latitude":"51.480094","street":{"id":1708391,"name":"On or near Shopping Area"},"longitude":"0.180611"},"context":"","outcome_status":{"category":"Status update unavailable","date":"2025-07"},"persistent_id":"2fbe0877662131313fe5994dfc68fbb6862373975b748b1a5594f3eb3a582e1c","id":127136438,"location_subtype":"","month":"2025-03"},{"category":"violent-crime","location_type":"Force","location":{"latitude":"51.486538","street":{"id":1707595,"name":"On or near Avenue Road"},"longitude":"0.161746"},"context":"","outcome_status":{"category":"Status update unavailable","date":"2025-07"},"persistent_id":"58da661d49a922a2dc28143b2f4a48e37e7b1bbaea744928d1535e35ed7bd446","id":127136108,"location_subtype":"","month":"2025-03"},{"category":"violent-crime","location_type":"Force","location":{"latitude":"51.477540","street":{"id":1707800,"name":"On or near Park Crescent"},"longitude":"0.165929"},"context":"","outcome_status":{"category":"Unable to prosecute suspect","date":"2025-04"},"persistent_id":"21301dbf80645fefa77e65f9b61c393528890059e8403097090383e819cf360c","id":127112292,"location_subtype":"","month":"2025-03"},{"category":"violent-crime","location_type":"Force","location":{"latitude":"51.464175","street":{"id":1707727,"name":"On or near Northall Road"},"longitude":"0.164519"},"context":"","outcome_status":{"category":"Investigation complete; no suspect identified","date":"2025-11"},"persistent_id":"e5838c1e29ba6b82e85b85103f954fa42675a8a76dd3f1f0df93f50faff1cde4","id":127110763,"location_subtype":"","month":"2025-03"},{"category":"violent-crime","location_type":"Force","location":{"latitude":"51.470523","street":{"id":1708217,"name":"On or near Hurstwood Avenue"},"longitude":"0.176713"},"context":"","outcome_status":{"category":"Unable to prosecute suspect","date":"2025-04"},"persistent_id":"a7df0d46372c0cd3d4fc6d8166f35de581759fc426ef3625c59bff3e57530ff4","id":127108041,"location_subtype":"","month":"2025-03"},{"category":"violent-crime","location_type":"Force","location":{"latitude":"51.473584","street":{"id":1708455,"name":"On or near Boundary Street"},"longitude":"0.182360"},"context":"","outcome_status":{"category":"Unable to prosecute suspect","date":"2025-11"},"persistent_id":"bcdc03b3001a86ee8b396d789fcdf99f87ae08d47d60dfcee8c08b45e5794c9c","id":127105638,"location_subtype":"","month":"2025-03"},{"category":"violent-crime","location_type":"Force","location":{"latitude":"51.466967","street":{"id":1708791,"name":"On or near Oak Road"},"longitude":"0.191878"},"context":"","outcome_status":{"category":"Unable to prosecute suspect","date":"2025-10"},"persistent_id":"50241ed817d5b742ebd958566a6d279d17b3b4fa47686e5dbe82bc063f9c15a5","id":127105577,"location_subtype":"","month":"2025-03"},{"category":"violent-crime","location_type":"Force","location":{"latitude":"51.472899","street":{"id":1708493,"name":"On or near Arthur Street"},"longitude":"0.182888"},"context":"","outcome_status":{"category":"Unable to prosecute suspect","date":"2025-03"},"persistent_id":"b1aac88e2f02bfd9cabe8535caad26e2ff9a22d8e6661c3d3b9c39e239415de9","id":127193011,"location_subtype":"","month":"2025-03"},{"category":"violent-crime","location_type":"Force","location":{"latitude":"51.483691","street":{"id":1708143,"name":"On or near Chichester Wharf"},"longitude":"0.177066"},"context":"","outcome_status":{"category":"Unable to prosecute suspect","date":"2025-03"},"persistent_id":"88d6634f3cbf65a240504a4e68f6355dc2da5547024d37ef2ae70f275605894d","id":127193115,"location_subtype":"","month":"2025-03"},{"category":"violent-crime","location_type":"Force","location":{"latitude":"51.484391","street":{"id":1708057,"name":"On or near Mildred Road"},"longitude":"0.173758"},"context":"","outcome_status":{"category":"Unable to prosecute suspect","date":"2025-03"},"persistent_id":"13ac7ab4927f9d8eb7b592d506d1f7bce06d8cef6f0686f7afdba4d299563865","id":127193164,"location_subtype":"","month":"2025-03"},{"category":"violent-crime","location_type":"Force","location":{"latitude":"51.467967","street":{"id":1708178,"name":"On or near Chiltern Close"},"longitude":"0.175843"},"context":"","outcome_status":{"category":"Unable to prosecute suspect","date":"2025-03"},"persistent_id":"59f975a1a959c4a770e7612e196b69e7f3a85b78be6b7d20df3e6e66a183f4d4","id":127193872,"location_subtype":"","month":"2025-03"},{"category":"violent-crime","location_type":"Force","location":{"latitude":"51.472858","street":{"id":1708089,"name":"On or near Stuart Mantle Way"},"longitude":"0.173023"},"context":"","outcome_status":{"category":"Unable to prosecute suspect","date":"2025-03"},"persistent_id":"2b87d7788ec9608a256119c308be03b90f4bbd9a77268a348e5aeabc7fbd1e69","id":127197626,"location_subtype":"","month":"2025-03"},{"category":"violent-crime","location_type":"Force","location":{"latitude":"51.482138","street":{"id":1708242,"name":"On or near Stonewood Road"},"longitude":"0.176906"},"context":"","outcome_status":{"category":"Action to be taken by another organisation","date":"2025-08"},"persistent_id":"42cb86e2d9dc52104ad62270d67d36c30cc8acebe7eddaff5eb5c52c1181cbf5","id":127102565,"location_subtype":"","month":"2025-03"},{"category":"violent-crime","location_type":"Force","location":{"latitude":"51.480046","street":{"id":1707184,"name":"On or near Brook Street"},"longitude":"0.153878"},"context":"","outcome_status":{"category":"Status update unavailable","date":"2025-07"},"persistent_id":"02c6cc3f0ecaf34b1da39bde6bd89fdfc4df3a00ca1826a6b2e6e96b90cf0bcc","id":127115479,"location_subtype":"","month":"2025-03"},{"category":"violent-crime","location_type":"Force","location":{"latitude":"51.473312","street":{"id":1708226,"name":"On or near Badlow Close"},"longitude":"0.176673"},"context":"","outcome_status":{"category":"Unable to prosecute suspect","date":"2025-04"},"persistent_id":"07612c7314b1d3452b5d0e7b5b0833ff5f4e8c3ae47d44bf9f3de39108b2dcf5","id":127102507,"location_subtype":"","month":"2025-03"},{"category":"violent-crime","location_type":"Force","location":{"latitude":"51.472678","street":{"id":1707965,"name":"On or near Stelling Road"},"longitude":"0.170580"},"context":"","outcome_status":{"category":"Unable to prosecute suspect","date":"2025-04"},"persistent_id":"93ecc96f2d5f3c6d6f1b35aa067a3be82a22f76eaacb5b1ad19b13d6f50d5f94","id":127098903,"location_subtype":"","month":"2025-03"},{"category":"violent-crime","location_type":"Force","location":{"latitude":"51.471621","street":{"id":1708776,"name":"On or near Slade Green Road"},"longitude":"0.190171"},"context":"","outcome_status":{"category":"Investigation complete; no suspect identified","date":"2025-12"},"persistent_id":"585615975ed0ed881761dbef36735768adf1afcc620e7f505e804ff7578216e8","id":127157447,"location_subtype":"","month":"2025-03"},{"category":"violent-crime","location_type":"Force","location":{"latitude":"51.470398","street":{"id":1708943,"name":"On or near Hazel Drive"},"longitude":"0.195455"},"context":"","outcome_status":{"category":"Unable to prosecute suspect","date":"2025-10"},"persistent_id":"6637f3aa08ca21f045b742af8da5f1234e667b499cb20f071b10aad67105abe4","id":127100628,"location_subtype":"","month":"2025-03"},{"category":"violent-crime","location_type":"Force","location":{"latitude":"51.471695","street":{"id":1707460,"name":"On or near Becton Place"},"longitude":"0.158568"},"context":"","outcome_status":{"category":"Awaiting court outcome","date":"2025-10"},"persistent_id":"3a5580fc4ca5d68e9a173803191b017746cfc1321b45ebd46a1cf0e8edfb33f7","id":127137332,"location_subtype":"","month":"2025-03"},{"category":"violent-crime","location_type":"Force","location":{"latitude":"51.477404","street":{"id":1708471,"name":"On or near Britannia Close"},"longitude":"0.182427"},"context":"","outcome_status":{"category":"Unable to prosecute suspect","date":"2025-04"},"persistent_id":"89180d63d141b4ee9fbb721fa874ba5ed4d910326656ba68bc27998f2495526c","id":127199498,"location_subtype":"","month":"2025-03"},{"category":"violent-crime","location_type":"Force","location":{"latitude":"51.469546","street":{"id":1708084,"name":"On or near Swallow Close"},"longitude":"0.174132"},"context":"","outcome_status":{"category":"Unable to prosecute suspect","date":"2025-10"},"persistent_id":"9c931ecc415bcf6fd28ef8ed4848ddd092c3e6437b4bf7330924aa08abf6261d","id":127098684,"location_subtype":"","month":"2025-03"},{"category":"violent-crime","location_type":"Force","location":{"latitude":"51.484684","street":{"id":1707375,"name":"On or near Holmhurst Road"},"longitude":"0.157914"},"context":"","outcome_status":{"category":"Unable to prosecute suspect","date":"2025-04"},"persistent_id":"e37f83dfe6f783ba9f0e703c3b21aaea8bfdeb053c43f762c08c76ea758f177c","id":127194206,"location_subtype":"","month":"2025-03"},{"category":"violent-crime","location_type":"Force","location":{"latitude":"51.476639","street":{"id":1707286,"name":"On or near The Drive"},"longitude":"0.155273"},"context":"","outcome_status":{"category":"Unable to prosecute suspect","date":"2025-04"},"persistent_id":"bb1b3c756812d905152c40fa63d382d36840577c0e0ba1b240c07709b101644d","id":127196436,"location_subtype":"","month":"2025-03"},{"category":"violent-crime","location_type":"Force","location":{"latitude":"51.475173","street":{"id":1708378,"name":"On or near Thanet Road"},"longitude":"0.180074"},"context":"","outcome_status":{"category":"Unable to prosecute suspect","date":"2025-04"},"persistent_id":"2673ef69b604ddc4da3871f4901c25340d3b30d068595424cfc162d78cd44743","id":127203562,"location_subtype":"","month":"2025-03"},{"category":"violent-crime","location_type":"Force","location":{"latitude":"51.474648","street":{"id":1708520,"name":"On or near Festival Close"},"longitude":"0.183649"},"context":"","outcome_status":{"category":"Unable to prosecute suspect","date":"2025-12"},"persistent_id":"0d1ca205014e8234cc8f4c01ce86faf4e35f3963c8e7b43e06d0a1c1bd6a7060","id":127149517,"location_subtype":"","month":"2025-03"},{"category":"violent-crime","location_type":"Force","location":{"latitude":"51.474980","street":{"id":1708751,"name":"On or near Rainbow Road"},"longitude":"0.191369"},"context":"","outcome_status":{"category":"Investigation complete; no suspect identified","date":"2025-09"},"persistent_id":"b55836fcb718dcc46e01b92b6ad115ac0ad01dd3c2c007df89b6135e9819903f","id":127112146,"location_subtype":"","month":"2025-03"},{"category":"violent-crime","location_type":"Force","location":{"latitude":"51.469833","street":{"id":1707599,"name":"On or near Barnehurst Close"},"longitude":"0.161504"},"context":"","outcome_status":{"category":"Awaiting court outcome","date":"2025-08"},"persistent_id":"1deb787c47d5fefdf5eddd35ae541fa60fac4d86b012f9b77c47853e37e5d7ae","id":127195652,"location_subtype":"","month":"2025-03"},{"category":"violent-crime","location_type":"Force","location":{"latitude":"51.485936","street":{"id":1707893,"name":"On or near Lowry Close"},"longitude":"0.168516"},"context":"","outcome_status":{"category":"Awaiting court outcome","date":"2025-08"},"persistent_id":"ef46de885867a369779ac49e17e929dd7baf327a9af1119aea806fafa93d9c79","id":127199147,"location_subtype":"","month":"2025-03"},{"category":"violent-crime","location_type":"Force","location":{"latitude":"51.480547","street":{"id":1708278,"name":"On or near Parking Area"},"longitude":"0.178832"},"context":"","outcome_status":{"category":"Investigation complete; no suspect identified","date":"2025-08"},"persistent_id":"0a4389525d16563799b1d7857fa3c35a3bb5c1f4ca900c105769b1721fd6638c","id":127108461,"location_subtype":"","month":"2025-03"},{"category":"violent-crime","location_type":"Force","location":{"latitude":"51.465727","street":{"id":1708288,"name":"On or near Ranworth Close"},"longitude":"0.179278"},"context":"","outcome_status":{"category":"Unable to prosecute suspect","date":"2025-04"},"persistent_id":"284c5eaff67693eab23e7fd509e2f694f190ba385e0b220c2a9e36abba12e970","id":126836607,"location_subtype":"","month":"2025-03"},{"category":"violent-crime","location_type":"Force","location":{"latitude":"51.478221","street":{"id":1708369,"name":"On or near Queens Road"},"longitude":"0.179629"},"context":"","outcome_status":{"category":"Awaiting court outcome","date":"2025-09"},"persistent_id":"e535ca28e6d597f421df9dd8d1b8f58006e67bcf94d68352080d2e58440ca5f7","id":127194111,"location_subtype":"","month":"2025-03"},{"category":"violent-crime","location_type":"Force","location":{"latitude":"51.473090","street":{"id":1709002,"name":"On or near Beacon Road"},"longitude":"0.197211"},"context":"","outcome_status":{"category":"Unable to prosecute suspect","date":"2025-09"},"persistent_id":"106d2e8aad10530b5daa77c5e8636814063e21277bffa7110c7241177eef1c11","id":127107135,"location_subtype":"","month":"2025-03"},{"category":"violent-crime","location_type":"Force","location":{"latitude":"51.486538","street":{"id":1707595,"name":"On or near Avenue Road"},"longitude":"0.161746"},"context":"","outcome_status":{"category":"Action to be taken by another organisation","date":"2025-09"},"persistent_id":"70d5fdd0b1b632b35155c69dc5cc48604f63c84f54e2e903bfb452cc1392916c","id":127141584,"location_subtype":"","month":"2025-03"},{"category":"violent-crime","location_type":"Force","location":{"latitude":"51.472808","street":{"id":1708312,"name":"On or near Downton Mews"},"longitude":"0.179111"},"context":"","outcome_status":{"category":"Unable to prosecute suspect","date":"2025-09"},"persistent_id":"92858b2d976e0349d8acb5c21b7dbb3a3c1aaa0ad0486fc8ee329dba35320b82","id":127104799,"location_subtype":"","month":"2025-03"},{"category":"violent-crime","location_type":"Force","location":{"latitude":"51.474535","street":{"id":1708272,"name":"On or near Larner Road"},"longitude":"0.178099"},"context":"","outcome_status":{"category":"Investigation complete; no suspect identified","date":"2025-09"},"persistent_id":"50c8925713f66222e84dad24d63edc8b32d5445398724fd1a612f32807bd735c","id":127193145,"location_subtype":"","month":"2025-03"},{"category":"violent-crime","location_type":"Force","location":{"latitude":"51.470398","street":{"id":1708943,"name":"On or near Hazel Drive"},"longitude":"0.195455"},"context":"","outcome_status":{"category":"Unable to prosecute suspect","date":"2025-05"},"persistent_id":"3184e935feef626bf3e1ea73742de5e4753a9de7d5995cd4a8d0a224ca42c995","id":127193995,"location_subtype":"","month":"2025-03"},{"category":"violent-crime","location_type":"Force","location":{"latitude":"51.475040","street":{"id":1708040,"name":"On or near Broadoak Road"},"longitude":"0.171715"},"context":"","outcome_status":{"category":"Unable to prosecute suspect","date":"2025-05"},"persistent_id":"b7b6d5452ae7a3dc3954b2e6b4d6417fe6610ecdfb5fc3eb496a34cd0707377c","id":127196473,"location_subtype":"","month":"2025-03"},{"category":"violent-crime","location_type":"Force","location":{"latitude":"51.471902","street":{"id":1708968,"name":"On or near Hilden Drive"},"longitude":"0.196305"},"context":"","outcome_status":{"category":"Unable to prosecute suspect","date":"2025-05"},"persistent_id":"1308492afcd949d4b61c477df5bfe4c64b223239c5ef7aec1e529517732499eb","id":127139868,"location_subtype":"","month":"2025-03"},{"category":"violent-crime","location_type":"Force","location":{"latitude":"51.484684","street":{"id":1707375,"name":"On or near Holmhurst Road"},"longitude":"0.157914"},"context":"","outcome_status":{"category":"Unable to prosecute suspect","date":"2025-05"},"persistent_id":"adf0c5e17a2eeb30d8802417b82a00f630b6e1e279cdb9a6e9e0c76046c4f0de","id":127194295,"location_subtype":"","month":"2025-03"},{"category":"violent-crime","location_type":"Force","location":{"latitude":"51.483691","street":{"id":1708143,"name":"On or near Chichester Wharf"},"longitude":"0.177066"},"context":"","outcome_status":{"category":"Investigation complete; no suspect identified","date":"2025-05"},"persistent_id":"cf88999d48e599e6196bd9691a5a3dfea42386c84aa0a05a707c56430587a493","id":127193117,"location_subtype":"","month":"2025-03"},{"category":"violent-crime","location_type":"Force","location":{"latitude":"51.465201","street":{"id":1708637,"name":"On or near Howbury Lane"},"longitude":"0.189187"},"context":"","outcome_status":{"category":"Court result unavailable","date":"2025-09"},"persistent_id":"90f1f37ca076d66cc5d232d7baa0b89991196a2aaf40441fd0622115665a54da","id":126865243,"location_subtype":"","month":"2025-03"},{"category":"violent-crime","location_type":"Force","location":{"latitude":"51.480151","street":{"id":1707434,"name":"On or near Silver Spring Close"},"longitude":"0.157959"},"context":"","outcome_status":{"category":"Unable to prosecute suspect","date":"2025-03"},"persistent_id":"66a41101705ed41e80b8c185912e2b81bf9977b7b395d532e05b1d439b34b45f","id":127194782,"location_subtype":"","month":"2025-03"},{"category":"violent-crime","location_type":"Force","location":{"latitude":"51.473090","street":{"id":1709002,"name":"On or near Beacon Road"},"longitude":"0.197211"},"context":"","outcome_status":{"category":"Unable to prosecute suspect","date":"2025-03"},"persistent_id":"1fb05b3854b7135c8cd346b092ee7e0d218d86731f803e239ec36ebfed7add9d","id":127201307,"location_subtype":"","month":"2025-03"},{"category":"violent-crime","location_type":"Force","location":{"latitude":"51.473377","street":{"id":1708156,"name":"On or near Twigg Close"},"longitude":"0.175078"},"context":"","outcome_status":{"category":"Unable to prosecute suspect","date":"2025-03"},"persistent_id":"10b0ca1d8924697dca34f5bacd53def5366b2047f6fb7921cbd3894e2c10dbea","id":127190270,"location_subtype":"","month":"2025-03"},{"category":"violent-crime","location_type":"Force","location":{"latitude":"51.474648","street":{"id":1708520,"name":"On or near Festival Close"},"longitude":"0.183649"},"context":"","outcome_status":{"category":"Unable to prosecute suspect","date":"2025-05"},"persistent_id":"3e951c59f0ea1e42258b8ab9e53b80e1d26cbbb0c91dc44210b5781893e13edb","id":127193526,"location_subtype":"","month":"2025-03"},{"category":"violent-crime","location_type":"Force","location":{"latitude":"51.472351","street":{"id":1708208,"name":"On or near Brasted Road"},"longitude":"0.176109"},"context":"","outcome_status":{"category":"Unable to prosecute suspect","date":"2025-11"},"persistent_id":"e8c677268e63a0ed309b39c66e1fb094aa0b997b52d1ee288fb1e689aa20a0df","id":127192527,"location_subtype":"","month":"2025-03"},{"category":"violent-crime","location_type":"Force","location":{"latitude":"51.484508","street":{"id":1707868,"name":"On or near Crusoe Road"},"longitude":"0.167426"},"context":"","outcome_status":{"category":"Unable to prosecute suspect","date":"2025-11"},"persistent_id":"8a3d153854c101463d33f0493fa17a8b78409607ea88c5b0b19d070414e0d8b8","id":127191347,"location_subtype":"","month":"2025-03"},{"category":"violent-crime","location_type":"Force","location":{"latitude":"51.471621","street":{"id":1708776,"name":"On or near Slade Green Road"},"longitude":"0.190171"},"context":"","outcome_status":{"category":"Investigation complete; no suspect identified","date":"2025-04"},"persistent_id":"710bbd4cab9f52fa3578c9304b52594d627d70c3367d677f6d4ce71e5ea77aff","id":127190739,"location_subtype":"","month":"2025-03"},{"category":"violent-crime","location_type":"Force","location":{"latitude":"51.479178","street":{"id":1708384,"name":"On or near Queen Street"},"longitude":"0.179905"},"context":"","outcome_status":{"category":"Unable to prosecute suspect","date":"2025-04"},"persistent_id":"b84bb0465d1ccdaee8de5e831c9208787ce1f9aadbdeeb2b74687c2ae5e42a3d","id":127190559,"location_subtype":"","month":"2025-03"},{"category":"violent-crime","location_type":"Force","location":{"latitude":"51.483985","street":{"id":1707744,"name":"On or near De Luci Road"},"longitude":"0.164607"},"context":"","outcome_status":{"category":"Unable to prosecute suspect","date":"2025-06"},"persistent_id":"72655daf6b040da79aed5d2fb31c3732e432dfae5145b6ea8bcf6a427f131ca6","id":127190500,"location_subtype":"","month":"2025-03"},{"category":"violent-crime","location_type":"Force","location":{"latitude":"51.470280","street":{"id":1708840,"name":"On or near Larkswood Close"},"longitude":"0.192656"},"context":"","outcome_status":{"category":"Status update unavailable","date":"2025-07"},"persistent_id":"23b5c266b827192318446c1858387aff9ea27d9b2cf06a40e456df907ed34af0","id":127195705,"location_subtype":"","month":"2025-03"},{"category":"violent-crime","location_type":"Force","location":{"latitude":"51.473090","street":{"id":1709002,"name":"On or near Beacon Road"},"longitude":"0.197211"},"context":"","outcome_status":{"category":"Status update unavailable","date":"2025-07"},"persistent_id":"f4aa90c295987be28d210c871f8f025e7ae5521d9503ff6665b11de43f89412e","id":127187934,"location_subtype":"","month":"2025-03"},{"category":"violent-crime","location_type":"Force","location":{"latitude":"51.484391","street":{"id":1708057,"name":"On or near Mildred Road"},"longitude":"0.173758"},"context":"","outcome_status":{"category":"Unable to prosecute suspect","date":"2025-06"},"persistent_id":"f9bb39d6216b7a98e2ae943a07ee113c172d1895d95c641abd17c0a0d9a37c9a","id":127201753,"location_subtype":"","month":"2025-03"},{"category":"violent-crime","location_type":"Force","location":{"latitude":"51.477631","street":{"id":1707363,"name":"On or near Collindale Avenue"},"longitude":"0.157537"},"context":"","outcome_status":{"category":"Unable to prosecute suspect","date":"2025-07"},"persistent_id":"946732e2d20dd0c689d11f984c8e0bf75e445557b4562409679ce14f3cb2114a","id":127195926,"location_subtype":"","month":"2025-03"},{"category":"violent-crime","location_type":"Force","location":{"latitude":"51.474648","street":{"id":1708520,"name":"On or near Festival Close"},"longitude":"0.183649"},"context":"","outcome_status":{"category":"Unable to prosecute suspect","date":"2025-07"},"persistent_id":"ec9a71b56df4ac68ff0fb2fc225b8312d3608800933a30ccb8eae03b6b996197","id":127196319,"location_subtype":"","month":"2025-03"},{"category":"violent-crime","location_type":"Force","location":{"latitude":"51.469597","street":{"id":1708230,"name":"On or near Doyle Close"},"longitude":"0.178181"},"context":"","outcome_status":{"category":"Unable to prosecute suspect","date":"2025-09"},"persistent_id":"445d5159ec927a957462ae7091f8e48638b6072485b321f18a0f52a2f80eb9a4","id":127195728,"location_subtype":"","month":"2025-03"},{"category":"violent-crime","location_type":"Force","location":{"latitude":"51.471369","street":{"id":1708991,"name":"On or near Watermeadow Close"},"longitude":"0.196956"},"context":"","outcome_status":{"category":"Court result unavailable","date":"2025-12"},"persistent_id":"eaca83c7e042e2e1bc8b8ab346c199fd1b203aed4cc5db182bddea347ab69f31","id":127191153,"location_subtype":"","month":"2025-03"},{"category":"violent-crime","location_type":"Force","location":{"latitude":"51.477392","street":{"id":1708395,"name":"On or near Compton Place"},"longitude":"0.181648"},"context":"","outcome_status":{"category":"Court result unavailable","date":"2025-12"},"persistent_id":"6b154cc1cc472280e22503e9e6146a1dc95cd7d4e5df9e515205614072eb4c6f","id":127187871,"location_subtype":"","month":"2025-03"},{"category":"violent-crime","location_type":"Force","location":{"latitude":"51.484684","street":{"id":1707375,"name":"On or near Holmhurst Road"},"longitude":"0.157914"},"context":"","outcome_status":{"category":"Unable to prosecute suspect","date":"2025-04"},"persistent_id":"4b5b04bdf41c866002a634a3e14c9b65f811067c09d2b33558faef8ffc9218ab","id":127113139,"location_subtype":"","month":"2025-03"},{"category":"violent-crime","location_type":"Force","location":{"latitude":"51.484684","street":{"id":1707375,"name":"On or near Holmhurst Road"},"longitude":"0.157914"},"context":"","outcome_status":{"category":"Status update unavailable","date":"2025-07"},"persistent_id":"89d3860a9cfef0a6f08a5a92595e990e5760df60c36c054e0d0cd409f4408a9f","id":127195755,"location_subtype":"","month":"2025-03"},{"category":"violent-crime","location_type":"Force","location":{"latitude":"51.480151","street":{"id":1707434,"name":"On or near Silver Spring Close"},"longitude":"0.157959"},"context":"","outcome_status":{"category":"Unable to prosecute suspect","date":"2025-06"},"persistent_id":"1c641adff97852889b0565b64d73f535a129d257aa5b796d10c9cbfb2bdb2eb1","id":127192106,"location_subtype":"","month":"2025-03"},{"category":"violent-crime","location_type":"Force","location":{"latitude":"51.484508","street":{"id":1707868,"name":"On or near Crusoe Road"},"longitude":"0.167426"},"context":"","outcome_status":{"category":"Unable to prosecute suspect","date":"2025-05"},"persistent_id":"6c55e813da2ddd7d0be82a5e654d0bd6dc0e0a8b51031ea9c742ef51e3423345","id":127112611,"location_subtype":"","month":"2025-03"},{"category":"violent-crime","location_type":"Force","location":{"latitude":"51.484684","street":{"id":1707375,"name":"On or near Holmhurst Road"},"longitude":"0.157914"},"context":"","outcome_status":{"category":"Unable to prosecute suspect","date":"2025-04"},"persistent_id":"a78a4fe8a360ce94c089c3f0850b73fc6e13286f49226290faff47d1f77af996","id":127111924,"location_subtype":"","month":"2025-03"},{"category":"violent-crime","location_type":"Force","location":{"latitude":"51.483691","street":{"id":1708143,"name":"On or near Chichester Wharf"},"longitude":"0.177066"},"context":"","outcome_status":{"category":"Action to be taken by another organisation","date":"2025-09"},"persistent_id":"ed4d992a4597be568fe4806f5ec69afd92c91902e3eda2e23d406767764c5976","id":127109222,"location_subtype":"","month":"2025-03"},{"category":"violent-crime","location_type":"Force","location":{"latitude":"51.484656","street":{"id":1707843,"name":"On or near Church Road"},"longitude":"0.166713"},"context":"","outcome_status":{"category":"Unable to prosecute suspect","date":"2025-07"},"persistent_id":"381e07f60e3b2099b596ff3d86becf143ac90535166d77700dfec35950eab164","id":127110350,"location_subtype":"","month":"2025-03"},{"category":"violent-crime","location_type":"Force","location":{"latitude":"51.474359","street":{"id":1707683,"name":"On or near Limewood Road"},"longitude":"0.163316"},