[{"category":"anti-social-behaviour","location_type":"Force","location":{"latitude":"53.138648","street":{"id":2211663,"name":"On or near Nightclub"},"longitude":"-1.556246"},"context":"","outcome_status":null,"persistent_id":"","id":126190630,"location_subtype":"","month":"2025-02"},{"category":"anti-social-behaviour","location_type":"Force","location":{"latitude":"53.137675","street":{"id":2211570,"name":"On or near Matlock"},"longitude":"-1.558201"},"context":"","outcome_status":null,"persistent_id":"","id":126191658,"location_subtype":"","month":"2025-02"},{"category":"anti-social-behaviour","location_type":"Force","location":{"latitude":"53.135991","street":{"id":2211598,"name":"On or near Olde Englishe Road"},"longitude":"-1.554989"},"context":"","outcome_status":null,"persistent_id":"","id":126192166,"location_subtype":"","month":"2025-02"},{"category":"anti-social-behaviour","location_type":"Force","location":{"latitude":"53.137675","street":{"id":2211570,"name":"On or near Matlock"},"longitude":"-1.558201"},"context":"","outcome_status":null,"persistent_id":"","id":126190484,"location_subtype":"","month":"2025-02"},{"category":"anti-social-behaviour","location_type":"Force","location":{"latitude":"53.134854","street":{"id":2211743,"name":"On or near Knowleston Place"},"longitude":"-1.551279"},"context":"","outcome_status":null,"persistent_id":"","id":126193243,"location_subtype":"","month":"2025-02"},{"category":"anti-social-behaviour","location_type":"Force","location":{"latitude":"53.139139","street":{"id":2211745,"name":"On or near Lime Grove Walk"},"longitude":"-1.553058"},"context":"","outcome_status":null,"persistent_id":"","id":126193094,"location_subtype":"","month":"2025-02"},{"category":"anti-social-behaviour","location_type":"Force","location":{"latitude":"53.139139","street":{"id":2211745,"name":"On or near Lime Grove Walk"},"longitude":"-1.553058"},"context":"","outcome_status":null,"persistent_id":"","id":126193091,"location_subtype":"","month":"2025-02"},{"category":"anti-social-behaviour","location_type":"Force","location":{"latitude":"53.138648","street":{"id":2211663,"name":"On or near Nightclub"},"longitude":"-1.556246"},"context":"","outcome_status":null,"persistent_id":"","id":126193084,"location_subtype":"","month":"2025-02"},{"category":"anti-social-behaviour","location_type":"Force","location":{"latitude":"53.132993","street":{"id":2211718,"name":"On or near Pic Tor Lane"},"longitude":"-1.553570"},"context":"","outcome_status":null,"persistent_id":"","id":126191796,"location_subtype":"","month":"2025-02"},{"category":"criminal-damage-arson","location_type":"Force","location":{"latitude":"53.137675","street":{"id":2211570,"name":"On or near Matlock"},"longitude":"-1.558201"},"context":"","outcome_status":{"category":"Investigation complete; no suspect identified","date":"2025-03"},"persistent_id":"122e625a54a86d105a642b0f37c0b59c91cb75e1169c3b8e397102c17eccf248","id":126180216,"location_subtype":"","month":"2025-02"},{"category":"drugs","location_type":"Force","location":{"latitude":"53.139970","street":{"id":2211639,"name":"On or near Imperial Road"},"longitude":"-1.556338"},"context":"","outcome_status":{"category":"Court result unavailable","date":"2025-09"},"persistent_id":"23544944784ca28c9d5d07fd69e53bf15f929e9e7697dedb912bcf665b123831","id":126177078,"location_subtype":"","month":"2025-02"},{"category":"drugs","location_type":"Force","location":{"latitude":"53.127352","street":{"id":2211518,"name":"On or near Dale Road"},"longitude":"-1.559681"},"context":"","outcome_status":{"category":"Offender given a caution","date":"2025-04"},"persistent_id":"9854965032c17c7058ed2933f7c90fc7a1192bf6102cd6aa35807e97976229bf","id":126182160,"location_subtype":"","month":"2025-02"},{"category":"other-theft","location_type":"Force","location":{"latitude":"53.134600","street":{"id":2211878,"name":"On or near Matlock Green"},"longitude":"-1.548263"},"context":"","outcome_status":{"category":"Unable to prosecute suspect","date":"2025-05"},"persistent_id":"7e661ef2e0173b54da1bcd9b298aac11dceb17ccf318e0568372cb1c76cacba7","id":126187874,"location_subtype":"","month":"2025-02"},{"category":"public-order","location_type":"Force","location":{"latitude":"53.136511","street":{"id":2211670,"name":"On or near Parking Area"},"longitude":"-1.554655"},"context":"","outcome_status":{"category":"Investigation complete; no suspect identified","date":"2025-02"},"persistent_id":"f9c250dc0da9e12b3bcd15e13c030154833c567d74a683f6503443f9c0cc4e54","id":126180430,"location_subtype":"","month":"2025-02"},{"category":"shoplifting","location_type":"Force","location":{"latitude":"53.137675","street":{"id":2211570,"name":"On or near Matlock"},"longitude":"-1.558201"},"context":"","outcome_status":{"category":"Court result unavailable","date":"2025-11"},"persistent_id":"0d1fcc5ef3cbb111c88657512bcf87fee50f395460fe637f203c299c2cb65777","id":126186638,"location_subtype":"","month":"2025-02"},{"category":"shoplifting","location_type":"Force","location":{"latitude":"53.137675","street":{"id":2211570,"name":"On or near Matlock"},"longitude":"-1.558201"},"context":"","outcome_status":{"category":"Awaiting court outcome","date":"2025-10"},"persistent_id":"082b91c4a259fa5fc3a4b5d638706eb5cf958a234361b61c2b8edcf2800b3ba0","id":126179089,"location_subtype":"","month":"2025-02"},{"category":"shoplifting","location_type":"Force","location":{"latitude":"53.137675","street":{"id":2211570,"name":"On or near Matlock"},"longitude":"-1.558201"},"context":"","outcome_status":{"category":"Investigation complete; no suspect identified","date":"2025-02"},"persistent_id":"4fe15d0c7b20b4f5dc1a012a24ffbcaaea0e462ef3e646cee65b3d2e0aaa3cd1","id":126186345,"location_subtype":"","month":"2025-02"},{"category":"shoplifting","location_type":"Force","location":{"latitude":"53.137675","street":{"id":2211570,"name":"On or near Matlock"},"longitude":"-1.558201"},"context":"","outcome_status":{"category":"Court result unavailable","date":"2025-12"},"persistent_id":"595a23b14192cddbacc2154a73968d30bead61a3e5f5b8c5af3f7d87d65c2605","id":126176725,"location_subtype":"","month":"2025-02"},{"category":"shoplifting","location_type":"Force","location":{"latitude":"53.138648","street":{"id":2211663,"name":"On or near Nightclub"},"longitude":"-1.556246"},"context":"","outcome_status":{"category":"Investigation complete; no suspect identified","date":"2025-03"},"persistent_id":"bfaef0f818ef7659c84077576730e5ebcbc360acbf025157a47c27800666f971","id":126181229,"location_subtype":"","month":"2025-02"},{"category":"shoplifting","location_type":"Force","location":{"latitude":"53.138648","street":{"id":2211663,"name":"On or near Nightclub"},"longitude":"-1.556246"},"context":"","outcome_status":{"category":"Court result unavailable","date":"2025-10"},"persistent_id":"e036719e1b7c46542c904ca16b35618f7d6538ce2a3a3bec829b5d3db83e80f1","id":126182121,"location_subtype":"","month":"2025-02"},{"category":"shoplifting","location_type":"Force","location":{"latitude":"53.137675","street":{"id":2211570,"name":"On or near Matlock"},"longitude":"-1.558201"},"context":"","outcome_status":{"category":"Investigation complete; no suspect identified","date":"2025-02"},"persistent_id":"0200abe7c4b1b52e8605c2162b5030c7005ca6c76af81138827a8ad66f13d2fb","id":126182762,"location_subtype":"","month":"2025-02"},{"category":"shoplifting","location_type":"Force","location":{"latitude":"53.139312","street":{"id":2211676,"name":"On or near Police Station"},"longitude":"-1.553767"},"context":"","outcome_status":{"category":"Local resolution","date":"2025-02"},"persistent_id":"ab7afab4828cf576f55c1c259cf4a87e4c9fe15bebd447918a0ad7c4a3cd7d4c","id":126184233,"location_subtype":"","month":"2025-02"},{"category":"shoplifting","location_type":"Force","location":{"latitude":"53.139223","street":{"id":2211675,"name":"On or near Bus/coach Station"},"longitude":"-1.556286"},"context":"","outcome_status":{"category":"Investigation complete; no suspect identified","date":"2025-02"},"persistent_id":"a7833ddc54cc5e3be1191fa3cad379e56c2a8d62471d41b2cec346f5ca1da845","id":126180468,"location_subtype":"","month":"2025-02"},{"category":"shoplifting","location_type":"Force","location":{"latitude":"53.137675","street":{"id":2211570,"name":"On or near Matlock"},"longitude":"-1.558201"},"context":"","outcome_status":{"category":"Court result unavailable","date":"2025-08"},"persistent_id":"f165c8f733a81d774257bcee738ece07348fed719a7742c311b4c3dbc98cec89","id":126186307,"location_subtype":"","month":"2025-02"},{"category":"shoplifting","location_type":"Force","location":{"latitude":"53.139223","street":{"id":2211675,"name":"On or near Bus/coach Station"},"longitude":"-1.556286"},"context":"","outcome_status":{"category":"Court result unavailable","date":"2025-08"},"persistent_id":"fa910592173ed0bdbfef7df3f14e20681f7eba79bd7a597dbde5058773e8a08c","id":126186314,"location_subtype":"","month":"2025-02"},{"category":"shoplifting","location_type":"Force","location":{"latitude":"53.137675","street":{"id":2211570,"name":"On or near Matlock"},"longitude":"-1.558201"},"context":"","outcome_status":{"category":"Investigation complete; no suspect identified","date":"2025-02"},"persistent_id":"8e0df8d2131f44f82ddaa5d2a473ae3ae8df423a3677cb96ea66213e022354f2","id":126185540,"location_subtype":"","month":"2025-02"},{"category":"shoplifting","location_type":"Force","location":{"latitude":"53.137675","street":{"id":2211570,"name":"On or near Matlock"},"longitude":"-1.558201"},"context":"","outcome_status":{"category":"Awaiting court outcome","date":"2025-08"},"persistent_id":"61764afa4a200a95999998bd9c96c7eb630863df1cf83ec203224e101a7a4937","id":126181972,"location_subtype":"","month":"2025-02"},{"category":"shoplifting","location_type":"Force","location":{"latitude":"53.137675","street":{"id":2211570,"name":"On or near Matlock"},"longitude":"-1.558201"},"context":"","outcome_status":{"category":"Awaiting court outcome","date":"2025-10"},"persistent_id":"dc5cf9d485603eee24a3de4ba97000b83a90aec29d0225347c790e52755659e2","id":126178792,"location_subtype":"","month":"2025-02"},{"category":"shoplifting","location_type":"Force","location":{"latitude":"53.137675","street":{"id":2211570,"name":"On or near Matlock"},"longitude":"-1.558201"},"context":"","outcome_status":{"category":"Investigation complete; no suspect identified","date":"2025-03"},"persistent_id":"4b920c237a3490744c7a57c803c6b9bf2ce9514ef6f465fd5cf18c2ef7a8e9a7","id":126177399,"location_subtype":"","month":"2025-02"},{"category":"shoplifting","location_type":"Force","location":{"latitude":"53.139223","street":{"id":2211675,"name":"On or near Bus/coach Station"},"longitude":"-1.556286"},"context":"","outcome_status":{"category":"Investigation complete; no suspect identified","date":"2025-03"},"persistent_id":"35faf5d3156f3f3b800075d540ae47479e0846c95848294f3f381e2c7d5ecd7d","id":126176943,"location_subtype":"","month":"2025-02"},{"category":"shoplifting","location_type":"Force","location":{"latitude":"53.139139","street":{"id":2211745,"name":"On or near Lime Grove Walk"},"longitude":"-1.553058"},"context":"","outcome_status":{"category":"Court result unavailable","date":"2025-09"},"persistent_id":"3c0dd3732555760ea5911ef9560527c308d508bb65c1a86943b43aba20426625","id":126176941,"location_subtype":"","month":"2025-02"},{"category":"vehicle-crime","location_type":"Force","location":{"latitude":"53.135991","street":{"id":2211598,"name":"On or near Olde Englishe Road"},"longitude":"-1.554989"},"context":"","outcome_status":{"category":"Investigation complete; no suspect identified","date":"2025-04"},"persistent_id":"daf0bbfbd37ef1b15a17f9c2076194b62e1116249850fbb663acdd4153d9b2cd","id":126183711,"location_subtype":"","month":"2025-02"},{"category":"violent-crime","location_type":"Force","location":{"latitude":"53.134854","street":{"id":2211743,"name":"On or near Knowleston Place"},"longitude":"-1.551279"},"context":"","outcome_status":{"category":"Unable to prosecute suspect","date":"2025-03"},"persistent_id":"84b830cdc6131ceefee2fc69dba0829b2aa26b65f9336a31d9e42ca033e17401","id":126182028,"location_subtype":"","month":"2025-02"},{"category":"violent-crime","location_type":"Force","location":{"latitude":"53.137675","street":{"id":2211570,"name":"On or near Matlock"},"longitude":"-1.558201"},"context":"","outcome_status":{"category":"Investigation complete; no suspect identified","date":"2025-02"},"persistent_id":"d880cd9da342aa9a3de78f9c32c3be0802a9f4d7735951a8fcaac80fb3963797","id":126182617,"location_subtype":"","month":"2025-02"},{"category":"violent-crime","location_type":"Force","location":{"latitude":"53.139139","street":{"id":2211745,"name":"On or near Lime Grove Walk"},"longitude":"-1.553058"},"context":"","outcome_status":{"category":"Unable to prosecute suspect","date":"2025-02"},"persistent_id":"b1420eea390c2adb3eb2187cc6ac14822babbb9dc1e1fa1f816f4b072c339e34","id":126179023,"location_subtype":"","month":"2025-02"},{"category":"violent-crime","location_type":"Force","location":{"latitude":"53.137675","street":{"id":2211570,"name":"On or near Matlock"},"longitude":"-1.558201"},"context":"","outcome_status":{"category":"Unable to prosecute suspect","date":"2025-02"},"persistent_id":"04596225a42b50b66842b60b819ecea0c75525326c04e2651308afc6e76733c8","id":126182933,"location_subtype":"","month":"2025-02"},{"category":"violent-crime","location_type":"Force","location":{"latitude":"53.138648","street":{"id":2211663,"name":"On or near Nightclub"},"longitude":"-1.556246"},"context":"","outcome_status":{"category":"Investigation complete; no suspect identified","date":"2025-10"},"persistent_id":"cb193f74504406459026b9c4f0d3e5176661e58a0602d732a0c7341a5f6160bb","id":126187701,"location_subtype":"","month":"2025-02"},{"category":"violent-crime","location_type":"Force","location":{"latitude":"53.138648","street":{"id":2211663,"name":"On or near Nightclub"},"longitude":"-1.556246"},"context":"","outcome_status":{"category":"Court result unavailable","date":"2025-08"},"persistent_id":"3681951ba7c788d1aed4059ae2a0f06c6d3c579785894fd823d9f81424f2f26c","id":126182593,"location_subtype":"","month":"2025-02"},{"category":"other-crime","location_type":"Force","location":{"latitude":"53.136202","street":{"id":2211837,"name":"On or near St Giles Walk"},"longitude":"-1.548829"},"context":"","outcome_status":{"category":"Unable to prosecute suspect","date":"2025-02"},"persistent_id":"243922da75e0f70f9fdae60110644f050770af305e0c32d05e4961bd6d0b8728","id":126182496,"location_subtype":"","month":"2025-02"},{"category":"other-crime","location_type":"Force","location":{"latitude":"53.139223","street":{"id":2211675,"name":"On or near Bus/coach Station"},"longitude":"-1.556286"},"context":"","outcome_status":{"category":"Status update unavailable","date":"2025-06"},"persistent_id":"29f7de96ee1722a35666b32f7b6d954ba1fa02c63b9d9715332715d944204da5","id":126181037,"location_subtype":"","month":"2025-02"}]