[{"category":"anti-social-behaviour","location_type":"Force","location":{"latitude":"54.738463","street":{"id":2164551,"name":"On or near Lynn Crescent"},"longitude":"-1.464957"},"context":"","outcome_status":null,"persistent_id":"","id":132225363,"location_subtype":"","month":"2025-11"},{"category":"anti-social-behaviour","location_type":"Force","location":{"latitude":"54.749965","street":{"id":2164693,"name":"On or near Ellerby Mews"},"longitude":"-1.444577"},"context":"","outcome_status":null,"persistent_id":"","id":132224928,"location_subtype":"","month":"2025-11"},{"category":"burglary","location_type":"Force","location":{"latitude":"54.750399","street":{"id":2164713,"name":"On or near Cedar Court"},"longitude":"-1.441293"},"context":"","outcome_status":{"category":"Investigation complete; no suspect identified","date":"2025-11"},"persistent_id":"a41a58db56d25a8e8838ac23f122e685231db31e521899f9efa40daeeca3324b","id":132221742,"location_subtype":"","month":"2025-11"},{"category":"criminal-damage-arson","location_type":"Force","location":{"latitude":"54.748992","street":{"id":2164718,"name":"On or near Kenton Crescent"},"longitude":"-1.440163"},"context":"","outcome_status":{"category":"Investigation complete; no suspect identified","date":"2025-12"},"persistent_id":"8bbc2c5bca79746f2a2a00abe2aeea52443c6c961b30781a1d8f35ea4a42c1ca","id":132223757,"location_subtype":"","month":"2025-11"},{"category":"criminal-damage-arson","location_type":"Force","location":{"latitude":"54.750399","street":{"id":2164713,"name":"On or near Cedar Court"},"longitude":"-1.441293"},"context":"","outcome_status":{"category":"Unable to prosecute suspect","date":"2025-11"},"persistent_id":"c8e72e384a0509f60976e4b407d7ea10786d83ffbf783dec815df4e3b25ccbbc","id":132221743,"location_subtype":"","month":"2025-11"},{"category":"criminal-damage-arson","location_type":"Force","location":{"latitude":"54.749965","street":{"id":2164693,"name":"On or near Ellerby Mews"},"longitude":"-1.444577"},"context":"","outcome_status":{"category":"Investigation complete; no suspect identified","date":"2026-01"},"persistent_id":"ef683f63a751df3cbe918013d4f42d1a961d16eea98cbf0455a2bd99fce8987f","id":132220145,"location_subtype":"","month":"2025-11"},{"category":"violent-crime","location_type":"Force","location":{"latitude":"54.740344","street":{"id":2164567,"name":"On or near Dene View"},"longitude":"-1.461562"},"context":"","outcome_status":{"category":"Unable to prosecute suspect","date":"2025-11"},"persistent_id":"4caccb7b6e8ec89bdc88fbea6d37b3c4bb0bced2beeee42505a62e5022c7ba72","id":132218183,"location_subtype":"","month":"2025-11"},{"category":"violent-crime","location_type":"Force","location":{"latitude":"54.748992","street":{"id":2164718,"name":"On or near Kenton Crescent"},"longitude":"-1.440163"},"context":"","outcome_status":{"category":"Unable to prosecute suspect","date":"2025-11"},"persistent_id":"1fdaf2e5ecac7eab7b6963b6415cb2100bb0fe9772bac47ef36b07e3ea34da1d","id":132221059,"location_subtype":"","month":"2025-11"},{"category":"violent-crime","location_type":"Force","location":{"latitude":"54.749965","street":{"id":2164693,"name":"On or near Ellerby Mews"},"longitude":"-1.444577"},"context":"","outcome_status":{"category":"Unable to prosecute suspect","date":"2025-11"},"persistent_id":"8dbd2b96ad7350b77b0437295e6f40da9a2b3002d9d839133e32827d20e7e700","id":132218759,"location_subtype":"","month":"2025-11"},{"category":"other-crime","location_type":"Force","location":{"latitude":"54.749965","street":{"id":2164693,"name":"On or near Ellerby Mews"},"longitude":"-1.444577"},"context":"","outcome_status":{"category":"Unable to prosecute suspect","date":"2025-11"},"persistent_id":"bb13a1eed83d9219e2b8f09523e9beab4521110013fdae909ae0c0d6fd93b804","id":132218617,"location_subtype":"","month":"2025-11"}]