[{"category":"anti-social-behaviour","location_type":"Force","location":{"latitude":"52.477431","street":{"id":1624751,"name":"On or near South Street"},"longitude":"-2.127003"},"context":"","outcome_status":null,"persistent_id":"","id":127052780,"location_subtype":"","month":"2025-03"},{"category":"anti-social-behaviour","location_type":"Force","location":{"latitude":"52.482077","street":{"id":1624125,"name":"On or near Budnam Brook Court"},"longitude":"-2.136234"},"context":"","outcome_status":null,"persistent_id":"","id":127053315,"location_subtype":"","month":"2025-03"},{"category":"anti-social-behaviour","location_type":"Force","location":{"latitude":"52.481517","street":{"id":1625075,"name":"On or near Shopping Area"},"longitude":"-2.120991"},"context":"","outcome_status":null,"persistent_id":"","id":127050879,"location_subtype":"","month":"2025-03"},{"category":"anti-social-behaviour","location_type":"Force","location":{"latitude":"52.484933","street":{"id":1624467,"name":"On or near Pheasant Street"},"longitude":"-2.131222"},"context":"","outcome_status":null,"persistent_id":"","id":127050927,"location_subtype":"","month":"2025-03"},{"category":"anti-social-behaviour","location_type":"Force","location":{"latitude":"52.484252","street":{"id":1624627,"name":"On or near Hulland Place"},"longitude":"-2.128746"},"context":"","outcome_status":null,"persistent_id":"","id":127051701,"location_subtype":"","month":"2025-03"},{"category":"anti-social-behaviour","location_type":"Force","location":{"latitude":"52.481892","street":{"id":1624863,"name":"On or near Sion Close"},"longitude":"-2.124999"},"context":"","outcome_status":null,"persistent_id":"","id":127053319,"location_subtype":"","month":"2025-03"},{"category":"anti-social-behaviour","location_type":"Force","location":{"latitude":"52.487691","street":{"id":1624377,"name":"On or near Raglan Street"},"longitude":"-2.132864"},"context":"","outcome_status":null,"persistent_id":"","id":127051883,"location_subtype":"","month":"2025-03"},{"category":"anti-social-behaviour","location_type":"Force","location":{"latitude":"52.470631","street":{"id":1624513,"name":"On or near Supermarket"},"longitude":"-2.129780"},"context":"","outcome_status":null,"persistent_id":"","id":127052816,"location_subtype":"","month":"2025-03"},{"category":"anti-social-behaviour","location_type":"Force","location":{"latitude":"52.480428","street":{"id":1624974,"name":"On or near Bell Street"},"longitude":"-2.123257"},"context":"","outcome_status":null,"persistent_id":"","id":127053144,"location_subtype":"","month":"2025-03"},{"category":"anti-social-behaviour","location_type":"Force","location":{"latitude":"52.469145","street":{"id":1625452,"name":"On or near Andrews Close"},"longitude":"-2.115306"},"context":"","outcome_status":null,"persistent_id":"","id":127051308,"location_subtype":"","month":"2025-03"},{"category":"anti-social-behaviour","location_type":"Force","location":{"latitude":"52.488123","street":{"id":1624416,"name":"On or near Campbell Street"},"longitude":"-2.132085"},"context":"","outcome_status":null,"persistent_id":"","id":127051317,"location_subtype":"","month":"2025-03"},{"category":"anti-social-behaviour","location_type":"Force","location":{"latitude":"52.488586","street":{"id":1624689,"name":"On or near Pensnett Road"},"longitude":"-2.127992"},"context":"","outcome_status":null,"persistent_id":"","id":127051426,"location_subtype":"","month":"2025-03"},{"category":"anti-social-behaviour","location_type":"Force","location":{"latitude":"52.487873","street":{"id":1624474,"name":"On or near Wilson Road"},"longitude":"-2.130273"},"context":"","outcome_status":null,"persistent_id":"","id":127053152,"location_subtype":"","month":"2025-03"},{"category":"anti-social-behaviour","location_type":"Force","location":{"latitude":"52.478450","street":{"id":1625442,"name":"On or near Shopping Area"},"longitude":"-2.114314"},"context":"","outcome_status":null,"persistent_id":"","id":127052576,"location_subtype":"","month":"2025-03"},{"category":"anti-social-behaviour","location_type":"Force","location":{"latitude":"52.478450","street":{"id":1625442,"name":"On or near Shopping Area"},"longitude":"-2.114314"},"context":"","outcome_status":null,"persistent_id":"","id":127053261,"location_subtype":"","month":"2025-03"},{"category":"anti-social-behaviour","location_type":"Force","location":{"latitude":"52.483361","street":{"id":1625124,"name":"On or near Shopping Area"},"longitude":"-2.120821"},"context":"","outcome_status":null,"persistent_id":"","id":127052768,"location_subtype":"","month":"2025-03"},{"category":"anti-social-behaviour","location_type":"Force","location":{"latitude":"52.480271","street":{"id":1625755,"name":"On or near Supermarket"},"longitude":"-2.109489"},"context":"","outcome_status":null,"persistent_id":"","id":127052635,"location_subtype":"","month":"2025-03"},{"category":"anti-social-behaviour","location_type":"Force","location":{"latitude":"52.483935","street":{"id":1625006,"name":"On or near Police Station"},"longitude":"-2.122472"},"context":"","outcome_status":null,"persistent_id":"","id":127052596,"location_subtype":"","month":"2025-03"},{"category":"anti-social-behaviour","location_type":"Force","location":{"latitude":"52.480468","street":{"id":1623696,"name":"On or near Cooper Avenue"},"longitude":"-2.143518"},"context":"","outcome_status":null,"persistent_id":"","id":127053046,"location_subtype":"","month":"2025-03"},{"category":"anti-social-behaviour","location_type":"Force","location":{"latitude":"52.479992","street":{"id":1624725,"name":"On or near Carder Drive"},"longitude":"-2.127202"},"context":"","outcome_status":null,"persistent_id":"","id":127052358,"location_subtype":"","month":"2025-03"},{"category":"anti-social-behaviour","location_type":"Force","location":{"latitude":"52.474541","street":{"id":1625032,"name":"On or near Monkswell Close"},"longitude":"-2.122077"},"context":"","outcome_status":null,"persistent_id":"","id":127052298,"location_subtype":"","month":"2025-03"},{"category":"anti-social-behaviour","location_type":"Force","location":{"latitude":"52.477646","street":{"id":1624225,"name":"On or near Springfields Road"},"longitude":"-2.135381"},"context":"","outcome_status":null,"persistent_id":"","id":127052201,"location_subtype":"","month":"2025-03"},{"category":"anti-social-behaviour","location_type":"Force","location":{"latitude":"52.489713","street":{"id":1624808,"name":"On or near Bankwell Street"},"longitude":"-2.125139"},"context":"","outcome_status":null,"persistent_id":"","id":127052174,"location_subtype":"","month":"2025-03"},{"category":"anti-social-behaviour","location_type":"Force","location":{"latitude":"52.482402","street":{"id":1624663,"name":"On or near William Street"},"longitude":"-2.126782"},"context":"","outcome_status":null,"persistent_id":"","id":127052140,"location_subtype":"","month":"2025-03"},{"category":"anti-social-behaviour","location_type":"Force","location":{"latitude":"52.479919","street":{"id":1624487,"name":"On or near Bague Walk"},"longitude":"-2.128910"},"context":"","outcome_status":null,"persistent_id":"","id":127052819,"location_subtype":"","month":"2025-03"},{"category":"anti-social-behaviour","location_type":"Force","location":{"latitude":"52.485704","street":{"id":1624318,"name":"On or near B4180"},"longitude":"-2.132932"},"context":"","outcome_status":null,"persistent_id":"","id":127051973,"location_subtype":"","month":"2025-03"},{"category":"anti-social-behaviour","location_type":"Force","location":{"latitude":"52.478450","street":{"id":1625442,"name":"On or near Shopping Area"},"longitude":"-2.114314"},"context":"","outcome_status":null,"persistent_id":"","id":127052830,"location_subtype":"","month":"2025-03"},{"category":"anti-social-behaviour","location_type":"Force","location":{"latitude":"52.478450","street":{"id":1625442,"name":"On or near Shopping Area"},"longitude":"-2.114314"},"context":"","outcome_status":null,"persistent_id":"","id":127051963,"location_subtype":"","month":"2025-03"},{"category":"bicycle-theft","location_type":"Force","location":{"latitude":"52.486898","street":{"id":1624711,"name":"On or near B4179"},"longitude":"-2.126279"},"context":"","outcome_status":{"category":"Investigation complete; no suspect identified","date":"2025-05"},"persistent_id":"3e6f227b83b0820c81889804ba662382a65de75d9f3f00ed835335c6a10990f2","id":127042344,"location_subtype":"","month":"2025-03"},{"category":"burglary","location_type":"Force","location":{"latitude":"52.470123","street":{"id":1625249,"name":"On or near Hawthorn Road"},"longitude":"-2.117310"},"context":"","outcome_status":{"category":"Investigation complete; no suspect identified","date":"2025-05"},"persistent_id":"ab0c324d7992c2d2a5dad726edb2485f2456299af40ce6f5a423a4595aacd7e2","id":127045207,"location_subtype":"","month":"2025-03"},{"category":"burglary","location_type":"Force","location":{"latitude":"52.481158","street":{"id":1625067,"name":"On or near High Street"},"longitude":"-2.121492"},"context":"","outcome_status":{"category":"Investigation complete; no suspect identified","date":"2025-03"},"persistent_id":"05f0c994ce090c73727b23bfb5de2ee122b393cf664ade241253ad819650c47f","id":127047456,"location_subtype":"","month":"2025-03"},{"category":"burglary","location_type":"Force","location":{"latitude":"52.470717","street":{"id":1625451,"name":"On or near Wychbury Road"},"longitude":"-2.115943"},"context":"","outcome_status":{"category":"Investigation complete; no suspect identified","date":"2025-06"},"persistent_id":"b365341a16415fac0975656d16d1d2272a7263e7dbc0d36fa9c880df2b5f9e49","id":127045191,"location_subtype":"","month":"2025-03"},{"category":"burglary","location_type":"Force","location":{"latitude":"52.493392","street":{"id":1625610,"name":"On or near Charter Street"},"longitude":"-2.114265"},"context":"","outcome_status":{"category":"Unable to prosecute suspect","date":"2025-04"},"persistent_id":"60feccdf6687c4c5ea091891f1c4b590eca9bb6b963ad67ad95fb296b12d9c8c","id":127050066,"location_subtype":"","month":"2025-03"},{"category":"burglary","location_type":"Force","location":{"latitude":"52.478137","street":{"id":1625101,"name":"On or near The Promenade"},"longitude":"-2.121587"},"context":"","outcome_status":{"category":"Investigation complete; no suspect identified","date":"2025-03"},"persistent_id":"131aedab91d691a4fad8f7c23d548f422e6e8165694426cd71452572ea56c1c4","id":127029745,"location_subtype":"","month":"2025-03"},{"category":"burglary","location_type":"Force","location":{"latitude":"52.479172","street":{"id":1624081,"name":"On or near Addison Road"},"longitude":"-2.137344"},"context":"","outcome_status":{"category":"Unable to prosecute suspect","date":"2025-03"},"persistent_id":"85e88f04307e1fc879e0f8f1d0175885a5d9b3ae5ed63258c42abd57bb4f2ae4","id":127038960,"location_subtype":"","month":"2025-03"},{"category":"burglary","location_type":"Force","location":{"latitude":"52.475693","street":{"id":1625135,"name":"On or near The Goss"},"longitude":"-2.120932"},"context":"","outcome_status":{"category":"Court result unavailable","date":"2025-10"},"persistent_id":"c48327de3a01e51173ce816b17cf29b4f3c9a1de76af7900badb9484b8563c74","id":127043804,"location_subtype":"","month":"2025-03"},{"category":"criminal-damage-arson","location_type":"Force","location":{"latitude":"52.491928","street":{"id":1624938,"name":"On or near Fens Pool Avenue"},"longitude":"-2.121375"},"context":"","outcome_status":{"category":"Investigation complete; no suspect identified","date":"2025-03"},"persistent_id":"086fe226dadd7457bd84b63b3da31edb130134007c96a36b591a9217f7a2f1ef","id":127037367,"location_subtype":"","month":"2025-03"},{"category":"criminal-damage-arson","location_type":"Force","location":{"latitude":"52.481869","street":{"id":1624539,"name":"On or near Lindsey Place"},"longitude":"-2.128974"},"context":"","outcome_status":{"category":"Investigation complete; no suspect identified","date":"2025-06"},"persistent_id":"451348bc4553fe6ed78faf289c86f3d77331aca437b2334f8ae72a5913e39653","id":127049510,"location_subtype":"","month":"2025-03"},{"category":"criminal-damage-arson","location_type":"Force","location":{"latitude":"52.484738","street":{"id":1624648,"name":"On or near Station Road"},"longitude":"-2.128246"},"context":"","outcome_status":{"category":"Investigation complete; no suspect identified","date":"2025-03"},"persistent_id":"88c1500c52bbaa45f202a8c0f8112fa19f7d4b3da3e02b9ea8eacc55a391f734","id":127041861,"location_subtype":"","month":"2025-03"},{"category":"criminal-damage-arson","location_type":"Force","location":{"latitude":"52.486646","street":{"id":1625235,"name":"On or near Waterfront West"},"longitude":"-2.117561"},"context":"","outcome_status":{"category":"Unable to prosecute suspect","date":"2025-03"},"persistent_id":"7fa2e34071cb40a1fe12582e216e209c54fc4cbaef055bdaeae80b4eaca5eaea","id":127030655,"location_subtype":"","month":"2025-03"},{"category":"criminal-damage-arson","location_type":"Force","location":{"latitude":"52.483361","street":{"id":1625124,"name":"On or near Shopping Area"},"longitude":"-2.120821"},"context":"","outcome_status":{"category":"Investigation complete; no suspect identified","date":"2025-04"},"persistent_id":"dbafa77212a9ecdcf4757b6d1ee35636444dc090c746026c4c2e3d209e0be628","id":127042650,"location_subtype":"","month":"2025-03"},{"category":"criminal-damage-arson","location_type":"Force","location":{"latitude":"52.477401","street":{"id":1625692,"name":"On or near Station Drive"},"longitude":"-2.111853"},"context":"","outcome_status":{"category":"Unable to prosecute suspect","date":"2025-04"},"persistent_id":"ce2da5182e354eef0366424c9496a93f22ab5d27f98bf54d8ea64493faf021b9","id":127038342,"location_subtype":"","month":"2025-03"},{"category":"criminal-damage-arson","location_type":"Force","location":{"latitude":"52.490476","street":{"id":1625294,"name":"On or near Dudley Road"},"longitude":"-2.117748"},"context":"","outcome_status":{"category":"Investigation complete; no suspect identified","date":"2025-03"},"persistent_id":"edfddccdc49e8a2acd6c1f882111e30aebd3ae12d1642d8601f2e60d22e2a167","id":127038804,"location_subtype":"","month":"2025-03"},{"category":"criminal-damage-arson","location_type":"Force","location":{"latitude":"52.479172","street":{"id":1624081,"name":"On or near Addison Road"},"longitude":"-2.137344"},"context":"","outcome_status":{"category":"Unable to prosecute suspect","date":"2025-04"},"persistent_id":"1049f88e82dff8c6f84bb543c61e20b4972aaa66abbf1952adbde154185c06ce","id":127037384,"location_subtype":"","month":"2025-03"},{"category":"criminal-damage-arson","location_type":"Force","location":{"latitude":"52.477864","street":{"id":1624860,"name":"On or near Derry Street"},"longitude":"-2.125252"},"context":"","outcome_status":{"category":"Unable to prosecute suspect","date":"2025-03"},"persistent_id":"c1f36400189f0f89a9131029ee6456239398a6e8ebe2000dd5b40d843125f490","id":127026488,"location_subtype":"","month":"2025-03"},{"category":"criminal-damage-arson","location_type":"Force","location":{"latitude":"52.481869","street":{"id":1624539,"name":"On or near Lindsey Place"},"longitude":"-2.128974"},"context":"","outcome_status":{"category":"Investigation complete; no suspect identified","date":"2025-03"},"persistent_id":"da13ded3d085426fce28a1bbaac34f09d952be372265f0cbec6da713d09aeaa8","id":127042045,"location_subtype":"","month":"2025-03"},{"category":"criminal-damage-arson","location_type":"Force","location":{"latitude":"52.468668","street":{"id":1624319,"name":"On or near Helmsley Close"},"longitude":"-2.133072"},"context":"","outcome_status":{"category":"Investigation complete; no suspect identified","date":"2025-03"},"persistent_id":"4a7c0594d03c7c9e49b9a5adfe8a51433ad80cc57c4f027f268d23142ab451bd","id":127035137,"location_subtype":"","month":"2025-03"},{"category":"criminal-damage-arson","location_type":"Force","location":{"latitude":"52.479919","street":{"id":1624487,"name":"On or near Bague Walk"},"longitude":"-2.128910"},"context":"","outcome_status":{"category":"Unable to prosecute suspect","date":"2025-03"},"persistent_id":"e6c6b2ce8fe6e986155af131018c5fd60f9456af5dc05ac6c31f83001f9c2e7d","id":127032825,"location_subtype":"","month":"2025-03"},{"category":"criminal-damage-arson","location_type":"Force","location":{"latitude":"52.476627","street":{"id":1624624,"name":"On or near Sports/recreation Area"},"longitude":"-2.128058"},"context":"","outcome_status":{"category":"Investigation complete; no suspect identified","date":"2025-04"},"persistent_id":"f696a7cbebe6c6fb5c30936329971ec9581ce67b284bafaa7e4ea6eaf13a6239","id":127049190,"location_subtype":"","month":"2025-03"},{"category":"criminal-damage-arson","location_type":"Force","location":{"latitude":"52.486646","street":{"id":1625235,"name":"On or near Waterfront West"},"longitude":"-2.117561"},"context":"","outcome_status":{"category":"Investigation complete; no suspect identified","date":"2025-03"},"persistent_id":"edf17c48997805808cbe1c4e1baefdf742b8bc7e286a097ab13ddca26c501e93","id":127045457,"location_subtype":"","month":"2025-03"},{"category":"criminal-damage-arson","location_type":"Force","location":{"latitude":"52.488227","street":{"id":1623633,"name":"On or near Nanaimo Way"},"longitude":"-2.143410"},"context":"","outcome_status":{"category":"Unable to prosecute suspect","date":"2025-03"},"persistent_id":"e3dbf4d880798d7b3b1d1fbb785da778f4c138b57c1c2228b4ee4e46912da584","id":127045996,"location_subtype":"","month":"2025-03"},{"category":"criminal-damage-arson","location_type":"Force","location":{"latitude":"52.476661","street":{"id":1624868,"name":"On or near Little Potter Street"},"longitude":"-2.124071"},"context":"","outcome_status":{"category":"Unable to prosecute suspect","date":"2025-03"},"persistent_id":"d38f58c1dfc79faf383ac3ec65139ba7a27e8e6d05ac9e193a93a5ea31f78d63","id":127027275,"location_subtype":"","month":"2025-03"},{"category":"criminal-damage-arson","location_type":"Force","location":{"latitude":"52.490913","street":{"id":1624073,"name":"On or near Bryce Road"},"longitude":"-2.136880"},"context":"","outcome_status":{"category":"Investigation complete; no suspect identified","date":"2025-04"},"persistent_id":"8943149e9a208ee23951f8cb74ed86cec50c04a6208d91702934f9ee41ca8335","id":127049064,"location_subtype":"","month":"2025-03"},{"category":"criminal-damage-arson","location_type":"Force","location":{"latitude":"52.476761","street":{"id":1624495,"name":"On or near Hill Crest Avenue"},"longitude":"-2.130917"},"context":"","outcome_status":{"category":"Unable to prosecute suspect","date":"2025-03"},"persistent_id":"5a7f614bab1927cf97d4cf34ee7ac7c9079dd756cb7f1e3524897dd747946582","id":127050178,"location_subtype":"","month":"2025-03"},{"category":"criminal-damage-arson","location_type":"Force","location":{"latitude":"52.475693","street":{"id":1625135,"name":"On or near The Goss"},"longitude":"-2.120932"},"context":"","outcome_status":{"category":"Investigation complete; no suspect identified","date":"2025-04"},"persistent_id":"e4cf78738d2108a17bdd2f24b956edc580343bea6e3466a3935265f01038df7d","id":127048933,"location_subtype":"","month":"2025-03"},{"category":"criminal-damage-arson","location_type":"Force","location":{"latitude":"52.483915","street":{"id":1624905,"name":"On or near Trinity Street"},"longitude":"-2.124136"},"context":"","outcome_status":{"category":"Unable to prosecute suspect","date":"2025-06"},"persistent_id":"398582cffd1e92423c8e63bdd23c9f88c0a0b55c594dc501c46fcc27ee0ace38","id":127030892,"location_subtype":"","month":"2025-03"},{"category":"criminal-damage-arson","location_type":"Force","location":{"latitude":"52.486205","street":{"id":1624699,"name":"On or near Briars Close"},"longitude":"-2.126601"},"context":"","outcome_status":{"category":"Unable to prosecute suspect","date":"2025-04"},"persistent_id":"bcacf87f0ba5b26e814b0736bd10b74cdc19cd9c0ace2db00c2889e8a2823e36","id":127048756,"location_subtype":"","month":"2025-03"},{"category":"criminal-damage-arson","location_type":"Force","location":{"latitude":"52.486646","street":{"id":1625235,"name":"On or near Waterfront West"},"longitude":"-2.117561"},"context":"","outcome_status":{"category":"Unable to prosecute suspect","date":"2025-03"},"persistent_id":"d113972a9604058f82851fa4131832b3216779e7c0d5f82c21379ecf34cab90b","id":127044353,"location_subtype":"","month":"2025-03"},{"category":"criminal-damage-arson","location_type":"Force","location":{"latitude":"52.480208","street":{"id":1623790,"name":"On or near Nagersfield Road"},"longitude":"-2.142943"},"context":"","outcome_status":{"category":"Investigation complete; no suspect identified","date":"2025-03"},"persistent_id":"3f1f52b56ea398af9a3ea65404d8ed1d095f838ebf9d27420cc398b11c570a22","id":127025981,"location_subtype":"","month":"2025-03"},{"category":"criminal-damage-arson","location_type":"Force","location":{"latitude":"52.486646","street":{"id":1625235,"name":"On or near Waterfront West"},"longitude":"-2.117561"},"context":"","outcome_status":{"category":"Investigation complete; no suspect identified","date":"2025-04"},"persistent_id":"15ac482f1a3f2761bab8758b13a8cff0604bbea567227d91ca1481f24d822dc0","id":127044868,"location_subtype":"","month":"2025-03"},{"category":"criminal-damage-arson","location_type":"Force","location":{"latitude":"52.486011","street":{"id":1625005,"name":"On or near Bent Street"},"longitude":"-2.122919"},"context":"","outcome_status":{"category":"Investigation complete; no suspect identified","date":"2025-04"},"persistent_id":"41b1c69ec4f3f4ccece554faa3a1c9e248441a1ccd83bba42f11bf0bfd0f90c7","id":127045683,"location_subtype":"","month":"2025-03"},{"category":"criminal-damage-arson","location_type":"Force","location":{"latitude":"52.482885","street":{"id":1625168,"name":"On or near Pearson Street"},"longitude":"-2.120392"},"context":"","outcome_status":{"category":"Investigation complete; no suspect identified","date":"2025-03"},"persistent_id":"8268f95574bbe8cea86b3ca2ac208f2afd92eb37ddc8d3315e0c0c334f801dc7","id":127031434,"location_subtype":"","month":"2025-03"},{"category":"drugs","location_type":"Force","location":{"latitude":"52.480271","street":{"id":1625755,"name":"On or near Supermarket"},"longitude":"-2.109489"},"context":"","outcome_status":{"category":"Court result unavailable","date":"2025-09"},"persistent_id":"c6811b2ba2aca5d8f5850689d155f08843047907cdeb7642ede32d579d0e19b2","id":127038738,"location_subtype":"","month":"2025-03"},{"category":"drugs","location_type":"Force","location":{"latitude":"52.482402","street":{"id":1624663,"name":"On or near William Street"},"longitude":"-2.126782"},"context":"","outcome_status":{"category":"Local resolution","date":"2025-03"},"persistent_id":"db147f8abe1bd74abbfdc22f4f8341541097fb89c0560769b4068cd9fa97307d","id":127048411,"location_subtype":"","month":"2025-03"},{"category":"drugs","location_type":"Force","location":{"latitude":"52.478450","street":{"id":1625442,"name":"On or near Shopping Area"},"longitude":"-2.114314"},"context":"","outcome_status":{"category":"Local resolution","date":"2025-04"},"persistent_id":"f7431d9a89d131f81d19606f9a8e32eff98e488f110ae4fab8f8cc38007ba025","id":127029340,"location_subtype":"","month":"2025-03"},{"category":"drugs","location_type":"Force","location":{"latitude":"52.482402","street":{"id":1624663,"name":"On or near William Street"},"longitude":"-2.126782"},"context":"","outcome_status":{"category":"Unable to prosecute suspect","date":"2025-04"},"persistent_id":"3995a40513cd9347fad6979ab982b2a09e91778c732d29bebf9938acd53f05c8","id":127043642,"location_subtype":"","month":"2025-03"},{"category":"drugs","location_type":"Force","location":{"latitude":"52.483033","street":{"id":1624875,"name":"On or near Brockley Close"},"longitude":"-2.125193"},"context":"","outcome_status":{"category":"Court result unavailable","date":"2025-09"},"persistent_id":"79ef5d1e19e038a207963ab4c7cbf120087eb1e88a20898aa701f827c0539d0f","id":127034883,"location_subtype":"","month":"2025-03"},{"category":"drugs","location_type":"Force","location":{"latitude":"52.479034","street":{"id":1626079,"name":"On or near Sheriff Drive"},"longitude":"-2.105643"},"context":"","outcome_status":{"category":"Local resolution","date":"2025-04"},"persistent_id":"97fbb42a9e1e79d022d589fe79d16db9180e80cf3d6356dbf2e91e7fdef87dea","id":127046870,"location_subtype":"","month":"2025-03"},{"category":"drugs","location_type":"Force","location":{"latitude":"52.483799","street":{"id":1623863,"name":"On or near Leys Road"},"longitude":"-2.139715"},"context":"","outcome_status":{"category":"Investigation complete; no suspect identified","date":"2025-03"},"persistent_id":"c766b9256392e030dfbaf1c13d6626aa6ae225c9fdcb26fc507619013e7c9b48","id":127034926,"location_subtype":"","month":"2025-03"},{"category":"drugs","location_type":"Force","location":{"latitude":"52.478137","street":{"id":1625101,"name":"On or near The Promenade"},"longitude":"-2.121587"},"context":"","outcome_status":{"category":"Status update unavailable","date":"2025-07"},"persistent_id":"703679e49a481239cc11fed74cd262d1d6a2d877ff9b5f82deb5eb07cb43570c","id":127038780,"location_subtype":"","month":"2025-03"},{"category":"other-theft","location_type":"Force","location":{"latitude":"52.480271","street":{"id":1625755,"name":"On or near Supermarket"},"longitude":"-2.109489"},"context":"","outcome_status":{"category":"Investigation complete; no suspect identified","date":"2025-03"},"persistent_id":"93eac993e93918fe19143c21cf59ccb598e37708c17c1b56d63b029b866b1230","id":127035122,"location_subtype":"","month":"2025-03"},{"category":"other-theft","location_type":"Force","location":{"latitude":"52.480665","street":{"id":1624031,"name":"On or near Fisher Street"},"longitude":"-2.137054"},"context":"","outcome_status":{"category":"Unable to prosecute suspect","date":"2025-04"},"persistent_id":"be1ad5dd111522470335d8e2cd42aa5f8f25f8f2251fde199bf6aeda5b6ebede","id":127043724,"location_subtype":"","month":"2025-03"},{"category":"other-theft","location_type":"Force","location":{"latitude":"52.482655","street":{"id":1624841,"name":"On or near Fenton Street"},"longitude":"-2.125649"},"context":"","outcome_status":{"category":"Investigation complete; no suspect identified","date":"2025-03"},"persistent_id":"b9c4c702ba348653ccf7553f24048715b855e9fce1db1eec9a35856bf6a73d9c","id":127030506,"location_subtype":"","month":"2025-03"},{"category":"other-theft","location_type":"Force","location":{"latitude":"52.489989","street":{"id":1625200,"name":"On or near Supermarket"},"longitude":"-2.118777"},"context":"","outcome_status":{"category":"Investigation complete; no suspect identified","date":"2025-03"},"persistent_id":"c3cd631abfae05690fc9ad5012e3836fc8b32cfcc0ae50adfc2305442e1e7041","id":127040507,"location_subtype":"","month":"2025-03"},{"category":"other-theft","location_type":"Force","location":{"latitude":"52.475336","street":{"id":1624233,"name":"On or near Petrol Station"},"longitude":"-2.134991"},"context":"","outcome_status":{"category":"Unable to prosecute suspect","date":"2025-05"},"persistent_id":"cb9231d5b81fec9a6b470f69b6da44bda44c3a143cbf461e4c6d1bb34f9ac0c0","id":127031357,"location_subtype":"","month":"2025-03"},{"category":"other-theft","location_type":"Force","location":{"latitude":"52.490396","street":{"id":1624825,"name":"On or near Wallows Road"},"longitude":"-2.125141"},"context":"","outcome_status":{"category":"Investigation complete; no suspect identified","date":"2025-03"},"persistent_id":"54a91b3be0b729edcfe57132a6d0870937b609aa1600e616b312dc3cc19591a6","id":127039622,"location_subtype":"","month":"2025-03"},{"category":"other-theft","location_type":"Force","location":{"latitude":"52.477729","street":{"id":1626002,"name":"On or near Nottingham Way"},"longitude":"-2.106774"},"context":"","outcome_status":{"category":"Unable to prosecute suspect","date":"2025-04"},"persistent_id":"a30dc6a150ed94b46cd547dee6079f61feed02f3a1dd4f5d2ace4d2c9083f99c","id":127030610,"location_subtype":"","month":"2025-03"},{"category":"other-theft","location_type":"Force","location":{"latitude":"52.481158","street":{"id":1625067,"name":"On or near High Street"},"longitude":"-2.121492"},"context":"","outcome_status":{"category":"Unable to prosecute suspect","date":"2025-03"},"persistent_id":"948737f3e125d4cc3e66fa4c18df528cb850216e0ab06d76f79f77d04602c9f7","id":127042026,"location_subtype":"","month":"2025-03"},{"category":"other-theft","location_type":"Force","location":{"latitude":"52.482885","street":{"id":1625168,"name":"On or near Pearson Street"},"longitude":"-2.120392"},"context":"","outcome_status":{"category":"Investigation complete; no suspect identified","date":"2025-03"},"persistent_id":"4cb4a3f234bbdc03daf6e3ff0d545106a4b8d46476a737a527c7e0aa18677cd8","id":127034137,"location_subtype":"","month":"2025-03"},{"category":"other-theft","location_type":"Force","location":{"latitude":"52.475809","street":{"id":1625644,"name":"On or near Two Woods Lane"},"longitude":"-2.112173"},"context":"","outcome_status":{"category":"Investigation complete; no suspect identified","date":"2025-03"},"persistent_id":"f7d8087f61c6fed95667acdd5e772e14a0cdc87cbc8542f5d02b5f349253320c","id":127030109,"location_subtype":"","month":"2025-03"},{"category":"other-theft","location_type":"Force","location":{"latitude":"52.482885","street":{"id":1625168,"name":"On or near Pearson Street"},"longitude":"-2.120392"},"context":"","outcome_status":{"category":"Investigation complete; no suspect identified","date":"2025-03"},"persistent_id":"472ce2db26a66d242be6a1d39de95222663512e27e735be6b6c915e7a086d9bc","id":127025669,"location_subtype":"","month":"2025-03"},{"category":"other-theft","location_type":"Force","location":{"latitude":"52.477729","street":{"id":1626002,"name":"On or near Nottingham Way"},"longitude":"-2.106774"},"context":"","outcome_status":{"category":"Unable to prosecute suspect","date":"2025-04"},"persistent_id":"a88e4eae67c4165e3e35005b8eb5597128cd6efb721bd151434cce3d098ea0ed","id":127050666,"location_subtype":"","month":"2025-03"},{"category":"other-theft","location_type":"Force","location":{"latitude":"52.480428","street":{"id":1624974,"name":"On or near Bell Street"},"longitude":"-2.123257"},"context":"","outcome_status":{"category":"Investigation complete; no suspect identified","date":"2025-04"},"persistent_id":"9043ed15e581d3bd290c9f6afeea69d9b812df65142135413a49ecd19e20e608","id":127034301,"location_subtype":"","month":"2025-03"},{"category":"other-theft","location_type":"Force","location":{"latitude":"52.482885","street":{"id":1625168,"name":"On or near Pearson Street"},"longitude":"-2.120392"},"context":"","outcome_status":{"category":"Investigation complete; no suspect identified","date":"2025-03"},"persistent_id":"5b97b21bb924616b37ec8f88b8fe1b94c81c0a257808770faaa54ec4f951142d","id":127032454,"location_subtype":"","month":"2025-03"},{"category":"other-theft","location_type":"Force","location":{"latitude":"52.477187","street":{"id":1624685,"name":"On or near South Park Mews"},"longitude":"-2.127444"},"context":"","outcome_status":{"category":"Unable to prosecute suspect","date":"2025-05"},"persistent_id":"7e71d3c33cd96be86d846b8a682b19fe3208b6059161f371acfa92555ff7ea12","id":127050609,"location_subtype":"","month":"2025-03"},{"category":"other-theft","location_type":"Force","location":{"latitude":"52.482885","street":{"id":1625168,"name":"On or near Pearson Street"},"longitude":"-2.120392"},"context":"","outcome_status":{"category":"Investigation complete; no suspect identified","date":"2025-03"},"persistent_id":"b8791734bd839fbcce4ea3441474987d6dfb7cbe8e8e4364e20395f443feb7f8","id":127028089,"location_subtype":"","month":"2025-03"},{"category":"other-theft","location_type":"Force","location":{"latitude":"52.477707","street":{"id":1626270,"name":"On or near Birch Avenue"},"longitude":"-2.101797"},"context":"","outcome_status":{"category":"Unable to prosecute suspect","date":"2025-03"},"persistent_id":"3276642b7b666fdcd0791b3b2f890f02ef80414a67464739e3146e2b0094d3ad","id":127029957,"location_subtype":"","month":"2025-03"},{"category":"other-theft","location_type":"Force","location":{"latitude":"52.483799","street":{"id":1623863,"name":"On or near Leys Road"},"longitude":"-2.139715"},"context":"","outcome_status":{"category":"Investigation complete; no suspect identified","date":"2025-03"},"persistent_id":"e6f0e36ba055a2ccd33107bbf3c9ac05b85c4b1df71f63d4b0ad2c029fedc96f","id":127034993,"location_subtype":"","month":"2025-03"},{"category":"other-theft","location_type":"Force","location":{"latitude":"52.487534","street":{"id":1625238,"name":"On or near Petrol Station"},"longitude":"-2.119212"},"context":"","outcome_status":{"category":"Investigation complete; no suspect identified","date":"2025-05"},"persistent_id":"976fa591162a17a26e4caada29d7b316bd81a0ae1120f600c963a54fcd4c3c6b","id":127039302,"location_subtype":"","month":"2025-03"},{"category":"possession-of-weapons","location_type":"Force","location":{"latitude":"52.481129","street":{"id":1623913,"name":"On or near Pritchard Street"},"longitude":"-2.140030"},"context":"","outcome_status":{"category":"Unable to prosecute suspect","date":"2025-07"},"persistent_id":"338d2deb30addfacb7f779ebdec614ee92c775d007bc8b2d9d96130f46b40ce0","id":127036703,"location_subtype":"","month":"2025-03"},{"category":"possession-of-weapons","location_type":"Force","location":{"latitude":"52.491867","street":{"id":1624665,"name":"On or near Grove Crescent"},"longitude":"-2.128547"},"context":"","outcome_status":{"category":"Unable to prosecute suspect","date":"2025-03"},"persistent_id":"7f8ebc79fbca5b7fe6c04decf8a1d0569161bcdbb8fcb3fe8d4a782d859393de","id":127025583,"location_subtype":"","month":"2025-03"},{"category":"possession-of-weapons","location_type":"Force","location":{"latitude":"52.483033","street":{"id":1624875,"name":"On or near Brockley Close"},"longitude":"-2.125193"},"context":"","outcome_status":{"category":"Awaiting court outcome","date":"2025-12"},"persistent_id":"0396208c80591e7244b9fa65de45a911e019ea0b1482b533afc4ae082087b3d6","id":127034798,"location_subtype":"","month":"2025-03"},{"category":"possession-of-weapons","location_type":"Force","location":{"latitude":"52.483033","street":{"id":1624875,"name":"On or near Brockley Close"},"longitude":"-2.125193"},"context":"","outcome_status":{"category":"Unable to prosecute suspect","date":"2025-03"},"persistent_id":"bbcbe56181bbc9aee797e7d90d09ced007fd4f911b4572d02604da6562dda010","id":127040635,"location_subtype":"","month":"2025-03"},{"category":"possession-of-weapons","location_type":"Force","location":{"latitude":"52.492106","street":{"id":1625419,"name":"On or near Garrat Street"},"longitude":"-2.114659"},"context":"","outcome_status":{"category":"Court result unavailable","date":"2025-09"},"persistent_id":"59b467f2cf41727f62d912e85240860d464cc0355570438f8321524040af5b00","id":127031534,"location_subtype":"","month":"2025-03"},{"category":"public-order","location_type":"Force","location":{"latitude":"52.482080","street":{"id":1625710,"name":"On or near Madison Avenue"},"longitude":"-2.107241"},"context":"","outcome_status":{"category":"Unable to prosecute suspect","date":"2025-04"},"persistent_id":"b4c9b5e94380f2fdd50ff9c8839bd2740b76d345642ac9baa4cd63a2fbe039fb","id":127026595,"location_subtype":"","month":"2025-03"},{"category":"public-order","location_type":"Force","location":{"latitude":"52.482080","street":{"id":1625710,"name":"On or near Madison Avenue"},"longitude":"-2.107241"},"context":"","outcome_status":{"category":"Court result unavailable","date":"2025-09"},"persistent_id":"c61a5d151f691989ef0a401209097e633c2ea0c78d366119dab2c8fad8081228","id":127034306,"location_subtype":"","month":"2025-03"},{"category":"public-order","location_type":"Force","location":{"latitude":"52.477187","street":{"id":1624685,"name":"On or near South Park Mews"},"longitude":"-2.127444"},"context":"","outcome_status":{"category":"Unable to prosecute suspect","date":"2025-03"},"persistent_id":"85cefa3c313d53087a1753569e0e3dabdb15d9c064dd00440b249eb617dde667","id":127035149,"location_subtype":"","month":"2025-03"},{"category":"public-order","location_type":"Force","location":{"latitude":"52.489989","street":{"id":1625200,"name":"On or near Supermarket"},"longitude":"-2.118777"},"context":"","outcome_status":{"category":"Unable to prosecute suspect","date":"2025-03"},"persistent_id":"ef7ae222a08d20c9d9151c10ec85e07f010de3e0e20eebe96f4918c62f5d0904","id":127038007,"location_subtype":"","month":"2025-03"},{"category":"public-order","location_type":"Force","location":{"latitude":"52.467046","street":{"id":1624637,"name":"On or near Vicarage Road"},"longitude":"-2.128298"},"context":"","outcome_status":{"category":"Investigation complete; no suspect identified","date":"2025-04"},"persistent_id":"bd76788296264379475f3b044a2693c127ac11ff49f70e36437765a64fcb3887","id":127037442,"location_subtype":"","month":"2025-03"},{"category":"public-order","location_type":"Force","location":{"latitude":"52.480271","street":{"id":1625755,"name":"On or near Supermarket"},"longitude":"-2.109489"},"context":"","outcome_status":{"category":"Unable to prosecute suspect","date":"2025-03"},"persistent_id":"7d3aff717428731ec829011e461fa8e52fe1f1242bc8ec8bd40a705324c9c367","id":127042270,"location_subtype":"","month":"2025-03"},{"category":"public-order","location_type":"Force","location":{"latitude":"52.483935","street":{"id":1625006,"name":"On or near Police Station"},"longitude":"-2.122472"},"context":"","outcome_status":{"category":"Court result unavailable","date":"2025-10"},"persistent_id":"9c23a61fb445f2a4456aebd53ca8ed542f609979037c63f33ee3f3c0aa010e54","id":127050180,"location_subtype":"","month":"2025-03"},{"category":"public-order","location_type":"Force","location":{"latitude":"52.489145","street":{"id":1623802,"name":"On or near Knotts Farm Road"},"longitude":"-2.142338"},"context":"","outcome_status":{"category":"Unable to prosecute suspect","date":"2025-04"},"persistent_id":"b3bde4ccb7370c2435475953a2ccb4eeefa3bb35d4f5a5bd0a1386f9b0916b93","id":127049876,"location_subtype":"","month":"2025-03"},{"category":"public-order","location_type":"Force","location":{"latitude":"52.478450","street":{"id":1625442,"name":"On or near Shopping Area"},"longitude":"-2.114314"},"context":"","outcome_status":{"category":"Unable to prosecute suspect","date":"2025-04"},"persistent_id":"7562bad9bb8b74063fcbef1f7fed4af38a982bb8f186f515872043a818b85864","id":127050494,"location_subtype":"","month":"2025-03"},{"category":"public-order","location_type":"Force","location":{"latitude":"52.481892","street":{"id":1624863,"name":"On or near Sion Close"},"longitude":"-2.124999"},"context":"","outcome_status":{"category":"Investigation complete; no suspect identified","date":"2025-03"},"persistent_id":"7fa3c1a0fa459b49fa737d372e50e266d2f04c04c8d7b1af047bb43db88a614b","id":127045841,"location_subtype":"","month":"2025-03"},{"category":"public-order","location_type":"Force","location":{"latitude":"52.486646","street":{"id":1625235,"name":"On or near Waterfront West"},"longitude":"-2.117561"},"context":"","outcome_status":{"category":"Unable to prosecute suspect","date":"2025-10"},"persistent_id":"d1adb52dc5f58c89b5777ea98f2423fe799cb8b12a427a83058421618bcddb6e","id":127026140,"location_subtype":"","month":"2025-03"},{"category":"public-order","location_type":"Force","location":{"latitude":"52.480271","street":{"id":1625755,"name":"On or near Supermarket"},"longitude":"-2.109489"},"context":"","outcome_status":{"category":"Local resolution","date":"2025-04"},"persistent_id":"c82e5a5383ff41c92069543ef6d030a55689cf36d20cc0d49ad6243e25fb1333","id":127048460,"location_subtype":"","month":"2025-03"},{"category":"public-order","location_type":"Force","location":{"latitude":"52.477864","street":{"id":1624860,"name":"On or near Derry Street"},"longitude":"-2.125252"},"context":"","outcome_status":{"category":"Unable to prosecute suspect","date":"2025-10"},"persistent_id":"4c897dba438216d2de39dcfe658a23d1548a95be3c8ceef2576de7f8e63771dd","id":127046871,"location_subtype":"","month":"2025-03"},{"category":"public-order","location_type":"Force","location":{"latitude":"52.476627","street":{"id":1624624,"name":"On or near Sports/recreation Area"},"longitude":"-2.128058"},"context":"","outcome_status":{"category":"Investigation complete; no suspect identified","date":"2025-04"},"persistent_id":"e118864b394ccb14bad0702fdaa819b62284bd800fd569aa7c22125c00e8422e","id":127046699,"location_subtype":"","month":"2025-03"},{"category":"public-order","location_type":"Force","location":{"latitude":"52.487534","street":{"id":1625238,"name":"On or near Petrol Station"},"longitude":"-2.119212"},"context":"","outcome_status":{"category":"Unable to prosecute suspect","date":"2025-05"},"persistent_id":"10e9ee9912ecde5791e5653013f80dd3c39429ea6df2c7d63c3899175b9091d7","id":127025882,"location_subtype":"","month":"2025-03"},{"category":"public-order","location_type":"Force","location":{"latitude":"52.478450","street":{"id":1625442,"name":"On or near Shopping Area"},"longitude":"-2.114314"},"context":"","outcome_status":{"category":"Investigation complete; no suspect identified","date":"2025-03"},"persistent_id":"d3d18ac3089c5e31f92a59e134d5db06b24755e7d27d0821d7df4e79f4f89dbf","id":127029595,"location_subtype":"","month":"2025-03"},{"category":"public-order","location_type":"Force","location":{"latitude":"52.482080","street":{"id":1625710,"name":"On or near Madison Avenue"},"longitude":"-2.107241"},"context":"","outcome_status":{"category":"Unable to prosecute suspect","date":"2025-04"},"persistent_id":"2a0704620da4309a52afa107e02d81a4c7af3fd768a1b76a3542d06441c93cfd","id":127039175,"location_subtype":"","month":"2025-03"},{"category":"public-order","location_type":"Force","location":{"latitude":"52.489145","street":{"id":1623802,"name":"On or near Knotts Farm Road"},"longitude":"-2.142338"},"context":"","outcome_status":{"category":"Unable to prosecute suspect","date":"2025-04"},"persistent_id":"d26de9d0e06d5c5dd8ec6efabc44f2e5639ea85b42bbc953faf3a6dcda74dee2","id":127049854,"location_subtype":"","month":"2025-03"},{"category":"public-order","location_type":"Force","location":{"latitude":"52.470631","street":{"id":1624513,"name":"On or near Supermarket"},"longitude":"-2.129780"},"context":"","outcome_status":{"category":"Investigation complete; no suspect identified","date":"2025-03"},"persistent_id":"dd8c896a86a05bfe672bf778a3950b21813637ad9cbe1429b1b223a4e5cd828d","id":127030808,"location_subtype":"","month":"2025-03"},{"category":"public-order","location_type":"Force","location":{"latitude":"52.483935","street":{"id":1625006,"name":"On or near Police Station"},"longitude":"-2.122472"},"context":"","outcome_status":{"category":"Court result unavailable","date":"2025-10"},"persistent_id":"cae7f683f45b64d62552f9180bea4024889d376c0c97f73d94fdcacb95976c9f","id":127041135,"location_subtype":"","month":"2025-03"},{"category":"public-order","location_type":"Force","location":{"latitude":"52.482080","street":{"id":1625710,"name":"On or near Madison Avenue"},"longitude":"-2.107241"},"context":"","outcome_status":{"category":"Court result unavailable","date":"2025-09"},"persistent_id":"b0ee0cd18c593776970b9b51d7b3380ab31112b798ccf97c88efa46aefdd673c","id":127034330,"location_subtype":"","month":"2025-03"},{"category":"robbery","location_type":"Force","location":{"latitude":"52.480271","street":{"id":1625755,"name":"On or near Supermarket"},"longitude":"-2.109489"},"context":"","outcome_status":{"category":"Investigation complete; no suspect identified","date":"2025-05"},"persistent_id":"1b685cfeaf4cd36b1002e950ec500e7e80d323e54df60c0bd6373c3d1f68f4ac","id":127049357,"location_subtype":"","month":"2025-03"},{"category":"robbery","location_type":"Force","location":{"latitude":"52.480070","street":{"id":1625428,"name":"On or near Parking Area"},"longitude":"-2.112552"},"context":"","outcome_status":{"category":"Awaiting court outcome","date":"2025-08"},"persistent_id":"0bcd3ef7a54256e0d47d2c2b176113f8ffc509f6941ea388105fd3b34e4b9cae","id":127050594,"location_subtype":"","month":"2025-03"},{"category":"shoplifting","location_type":"Force","location":{"latitude":"52.482080","street":{"id":1625710,"name":"On or near Madison Avenue"},"longitude":"-2.107241"},"context":"","outcome_status":{"category":"Court result unavailable","date":"2025-11"},"persistent_id":"83d1e9fda56f152862a743daadfa83355b37da261f28b0ef2ef2026c166ecaaf","id":127037920,"location_subtype":"","month":"2025-03"},{"category":"shoplifting","location_type":"Force","location":{"latitude":"52.480070","street":{"id":1625428,"name":"On or near Parking Area"},"longitude":"-2.112552"},"context":"","outcome_status":{"category":"Court result unavailable","date":"2025-11"},"persistent_id":"6504788530a8a00c05bc40e58594de55d21b9e0e15aeb8ee184434a173b97aa9","id":127048729,"location_subtype":"","month":"2025-03"},{"category":"shoplifting","location_type":"Force","location":{"latitude":"52.480070","street":{"id":1625428,"name":"On or near Parking Area"},"longitude":"-2.112552"},"context":"","outcome_status":{"category":"Court result unavailable","date":"2025-10"},"persistent_id":"d61da7fe9fd8d0e7e041f9b6f4edad24fd69e4188e3fb6120c16ecf04a88c474","id":127030599,"location_subtype":"","month":"2025-03"},{"category":"shoplifting","location_type":"Force","location":{"latitude":"52.480070","street":{"id":1625428,"name":"On or near Parking Area"},"longitude":"-2.112552"},"context":"","outcome_status":{"category":"Court result unavailable","date":"2025-12"},"persistent_id":"db6c7da42b32b54e84d226eb52d5d6250f9dcd9026f7f4e4b6a9b17891b9c640","id":127028945,"location_subtype":"","month":"2025-03"},{"category":"shoplifting","location_type":"Force","location":{"latitude":"52.482885","street":{"id":1625168,"name":"On or near Pearson Street"},"longitude":"-2.120392"},"context":"","outcome_status":{"category":"Unable to prosecute suspect","date":"2025-04"},"persistent_id":"68c1be0a78322503b0fd0a1942151fb064ccabd9a655d4cedf14221559b34a08","id":127035644,"location_subtype":"","month":"2025-03"},{"category":"shoplifting","location_type":"Force","location":{"latitude":"52.482080","street":{"id":1625710,"name":"On or near Madison Avenue"},"longitude":"-2.107241"},"context":"","outcome_status":{"category":"Investigation complete; no suspect identified","date":"2025-04"},"persistent_id":"713337a655f17a80ae725f991d977e2f31ef2d1ea07f7fa339cabf1393ae30db","id":127034586,"location_subtype":"","month":"2025-03"},{"category":"shoplifting","location_type":"Force","location":{"latitude":"52.480428","street":{"id":1624974,"name":"On or near Bell Street"},"longitude":"-2.123257"},"context":"","outcome_status":{"category":"Investigation complete; no suspect identified","date":"2025-03"},"persistent_id":"83c0ccb1a521a84d378ae77a934ad497a6ca7ba3ff7fa7681e1e5a6e2bcb5eba","id":127025993,"location_subtype":"","month":"2025-03"},{"category":"shoplifting","location_type":"Force","location":{"latitude":"52.477401","street":{"id":1625692,"name":"On or near Station Drive"},"longitude":"-2.111853"},"context":"","outcome_status":{"category":"Unable to prosecute suspect","date":"2025-03"},"persistent_id":"8859741cb2c4721d9becf6c939586dba9c85daedc480e9e2991404e6ea18e476","id":127040865,"location_subtype":"","month":"2025-03"},{"category":"shoplifting","location_type":"Force","location":{"latitude":"52.480271","street":{"id":1625755,"name":"On or near Supermarket"},"longitude":"-2.109489"},"context":"","outcome_status":{"category":"Court result unavailable","date":"2025-09"},"persistent_id":"89f11226322aff880ca26f9aefddcd115091652dc0e031f28e9998fcf8321b7c","id":127038726,"location_subtype":"","month":"2025-03"},{"category":"shoplifting","location_type":"Force","location":{"latitude":"52.480070","street":{"id":1625428,"name":"On or near Parking Area"},"longitude":"-2.112552"},"context":"","outcome_status":{"category":"Unable to prosecute suspect","date":"2025-04"},"persistent_id":"37975cd345b5189261b824070008f7625ac27f005c9747c801b20fc31110e155","id":127050485,"location_subtype":"","month":"2025-03"},{"category":"shoplifting","location_type":"Force","location":{"latitude":"52.482080","street":{"id":1625710,"name":"On or near Madison Avenue"},"longitude":"-2.107241"},"context":"","outcome_status":{"category":"Court result unavailable","date":"2025-11"},"persistent_id":"dd16369806ac7d0b48bd769052200dfca64a39d7fe42c24ffd9fa0f1d3b85eef","id":127037079,"location_subtype":"","month":"2025-03"},{"category":"shoplifting","location_type":"Force","location":{"latitude":"52.476661","street":{"id":1624868,"name":"On or near Little Potter Street"},"longitude":"-2.124071"},"context":"","outcome_status":{"category":"Unable to prosecute suspect","date":"2025-04"},"persistent_id":"38729a674f360b90d1c780c171ece05ed2524a3504d3f9dfc8e0abbb9480ff52","id":127046973,"location_subtype":"","month":"2025-03"},{"category":"shoplifting","location_type":"Force","location":{"latitude":"52.479693","street":{"id":1625136,"name":"On or near Parking Area"},"longitude":"-2.121017"},"context":"","outcome_status":{"category":"Unable to prosecute suspect","date":"2025-04"},"persistent_id":"ba4740231aa5696a2ab111fa1c19512ba77c517482627ec1bc82817718b43b3c","id":127042750,"location_subtype":"","month":"2025-03"},{"category":"shoplifting","location_type":"Force","location":{"latitude":"52.482080","street":{"id":1625710,"name":"On or near Madison Avenue"},"longitude":"-2.107241"},"context":"","outcome_status":{"category":"Unable to prosecute suspect","date":"2025-03"},"persistent_id":"a7c6bcdbc17204eb9a88b89f7be2dc6aec959c23455df7052660ea41da55bc4f","id":127026463,"location_subtype":"","month":"2025-03"},{"category":"shoplifting","location_type":"Force","location":{"latitude":"52.479122","street":{"id":1625919,"name":"On or near Bus/coach Station"},"longitude":"-2.109537"},"context":"","outcome_status":{"category":"Unable to prosecute suspect","date":"2025-03"},"persistent_id":"2622054f7eba5f51176e870830ddbfef510dce17e8be435055aefe0700fc5c42","id":127036860,"location_subtype":"","month":"2025-03"},{"category":"shoplifting","location_type":"Force","location":{"latitude":"52.470631","street":{"id":1624513,"name":"On or near Supermarket"},"longitude":"-2.129780"},"context":"","outcome_status":{"category":"Investigation complete; no suspect identified","date":"2025-04"},"persistent_id":"ec96d68570a6c00a42eea826d4015d8e06489eeef46f219c42db59198b4e5394","id":127043016,"location_subtype":"","month":"2025-03"},{"category":"shoplifting","location_type":"Force","location":{"latitude":"52.470631","street":{"id":1624513,"name":"On or near Supermarket"},"longitude":"-2.129780"},"context":"","outcome_status":{"category":"Investigation complete; no suspect identified","date":"2025-03"},"persistent_id":"f56eaede0e9a38756839860a5dbebdb808fd18fd74f70ee496c449acb0794645","id":127030774,"location_subtype":"","month":"2025-03"},{"category":"shoplifting","location_type":"Force","location":{"latitude":"52.480070","street":{"id":1625428,"name":"On or near Parking Area"},"longitude":"-2.112552"},"context":"","outcome_status":{"category":"Unable to prosecute suspect","date":"2025-03"},"persistent_id":"af46a16524ea2d8455e8725aa5b815fb2c215988d7f598ef715310ba74796f64","id":127026594,"location_subtype":"","month":"2025-03"},{"category":"shoplifting","location_type":"Force","location":{"latitude":"52.482080","street":{"id":1625710,"name":"On or near Madison Avenue"},"longitude":"-2.107241"},"context":"","outcome_status":{"category":"Investigation complete; no suspect identified","date":"2025-03"},"persistent_id":"436d29e8c7174b87ab53846dfcd5444d5e727248cc1418875bfef14c81700cc5","id":127034670,"location_subtype":"","month":"2025-03"},{"category":"shoplifting","location_type":"Force","location":{"latitude":"52.477401","street":{"id":1625692,"name":"On or near Station Drive"},"longitude":"-2.111853"},"context":"","outcome_status":{"category":"Unable to prosecute suspect","date":"2025-03"},"persistent_id":"1315016ac83cc31819122f1d757720c8d07b2f8903ae7909f4b4f17dfe9bac43","id":127031528,"location_subtype":"","month":"2025-03"},{"category":"shoplifting","location_type":"Force","location":{"latitude":"52.473657","street":{"id":1624888,"name":"On or near Norbury Drive"},"longitude":"-2.125064"},"context":"","outcome_status":{"category":"Unable to prosecute suspect","date":"2025-03"},"persistent_id":"2024cbf79010d1ef5747353ede9c471fc8a19445a29805aeae775254fc736de1","id":127033308,"location_subtype":"","month":"2025-03"},{"category":"shoplifting","location_type":"Force","location":{"latitude":"52.479693","street":{"id":1625136,"name":"On or near Parking Area"},"longitude":"-2.121017"},"context":"","outcome_status":{"category":"Unable to prosecute suspect","date":"2025-04"},"persistent_id":"32287ea216d7d43e674c84f10e85f6c22bdce79cd30dbee0eab098673ede28f0","id":127040106,"location_subtype":"","month":"2025-03"},{"category":"shoplifting","location_type":"Force","location":{"latitude":"52.480271","street":{"id":1625755,"name":"On or near Supermarket"},"longitude":"-2.109489"},"context":"","outcome_status":{"category":"Unable to prosecute suspect","date":"2025-03"},"persistent_id":"f85734244a914448094be7f312ebc9e8d93158071f69a4c32763bfae91b84554","id":127033258,"location_subtype":"","month":"2025-03"},{"category":"shoplifting","location_type":"Force","location":{"latitude":"52.480070","street":{"id":1625428,"name":"On or near Parking Area"},"longitude":"-2.112552"},"context":"","outcome_status":{"category":"Investigation complete; no suspect identified","date":"2025-03"},"persistent_id":"a08fac301009d848273fffce5ec2776d0082765dcea401c4b37de6e80a9e8b02","id":127032288,"location_subtype":"","month":"2025-03"},{"category":"shoplifting","location_type":"Force","location":{"latitude":"52.482885","street":{"id":1625168,"name":"On or near Pearson Street"},"longitude":"-2.120392"},"context":"","outcome_status":{"category":"Court result unavailable","date":"2025-12"},"persistent_id":"d9193a3d95438bfe4e573592460984442981869269b29883fa19f722fb9f14e8","id":127039084,"location_subtype":"","month":"2025-03"},{"category":"shoplifting","location_type":"Force","location":{"latitude":"52.482080","street":{"id":1625710,"name":"On or near Madison Avenue"},"longitude":"-2.107241"},"context":"","outcome_status":{"category":"Court result unavailable","date":"2025-12"},"persistent_id":"efd098215354a5eb89c5efc8f57ee62bbe00f4c2cac958f5e29df10f71aa5277","id":127047561,"location_subtype":"","month":"2025-03"},{"category":"shoplifting","location_type":"Force","location":{"latitude":"52.470631","street":{"id":1624513,"name":"On or near Supermarket"},"longitude":"-2.129780"},"context":"","outcome_status":{"category":"Investigation complete; no suspect identified","date":"2025-04"},"persistent_id":"6ef2f8436eb77a83f483c582c97613c7cf10c9672c241c659234d1f83ab55e0a","id":127047341,"location_subtype":"","month":"2025-03"},{"category":"shoplifting","location_type":"Force","location":{"latitude":"52.482080","street":{"id":1625710,"name":"On or near Madison Avenue"},"longitude":"-2.107241"},"context":"","outcome_status":{"category":"Court result unavailable","date":"2025-12"},"persistent_id":"b5a67e49d6cba8dd50be266370d4993aa648777f75cf07811c653513482dc7df","id":127048879,"location_subtype":"","month":"2025-03"},{"category":"shoplifting","location_type":"Force","location":{"latitude":"52.479693","street":{"id":1625136,"name":"On or near Parking Area"},"longitude":"-2.121017"},"context":"","outcome_status":{"category":"Unable to prosecute suspect","date":"2025-06"},"persistent_id":"49c7e192f53be7b61a4a5a5e70c4c1ffb202306e48e444185054d63ecece0fcf","id":127035368,"location_subtype":"","month":"2025-03"},{"category":"shoplifting","location_type":"Force","location":{"latitude":"52.482080","street":{"id":1625710,"name":"On or near Madison Avenue"},"longitude":"-2.107241"},"context":"","outcome_status":{"category":"Investigation complete; no suspect identified","date":"2025-04"},"persistent_id":"f3e66aade333894a303c986bbaf779d9dfaaa6abf33d6d3c4faaa3c68f54470b","id":127045753,"location_subtype":"","month":"2025-03"},{"category":"shoplifting","location_type":"Force","location":{"latitude":"52.482080","street":{"id":1625710,"name":"On or near Madison Avenue"},"longitude":"-2.107241"},"context":"","outcome_status":{"category":"Investigation complete; no suspect identified","date":"2025-04"},"persistent_id":"a094ced1159d5445ae690b16b63fd8100cc1694df5f1dda5ea9deac580c6883f","id":127045566,"location_subtype":"","month":"2025-03"},{"category":"shoplifting","location_type":"Force","location":{"latitude":"52.477729","street":{"id":1626002,"name":"On or near Nottingham Way"},"longitude":"-2.106774"},"context":"","outcome_status":{"category":"Court result unavailable","date":"2025-11"},"persistent_id":"02d0900c0e13cc86462a701bb20151754659ff91db3e6847405fda52b4bb65c1","id":127049539,"location_subtype":"","month":"2025-03"},{"category":"shoplifting","location_type":"Force","location":{"latitude":"52.477729","street":{"id":1626002,"name":"On or near Nottingham Way"},"longitude":"-2.106774"},"context":"","outcome_status":{"category":"Court result unavailable","date":"2025-11"},"persistent_id":"b80f7ada6de636c02c43c63fcf622377a39522e7b76ded26933cc04ed877e49d","id":127046217,"location_subtype":"","month":"2025-03"},{"category":"shoplifting","location_type":"Force","location":{"latitude":"52.477729","street":{"id":1626002,"name":"On or near Nottingham Way"},"longitude":"-2.106774"},"context":"","outcome_status":{"category":"Unable to prosecute suspect","date":"2025-04"},"persistent_id":"4a623f971f44991e52e27f27104855c147a7a201f708d7b6bd0c192291ff9e9f","id":127044485,"location_subtype":"","month":"2025-03"},{"category":"shoplifting","location_type":"Force","location":{"latitude":"52.477401","street":{"id":1625692,"name":"On or near Station Drive"},"longitude":"-2.111853"},"context":"","outcome_status":{"category":"Investigation complete; no suspect identified","date":"2025-04"},"persistent_id":"3b30edecf5e9e8c8de0f58718496538193e10ac3d817f6e1b30a04c62506934e","id":127044896,"location_subtype":"","month":"2025-03"},{"category":"shoplifting","location_type":"Force","location":{"latitude":"52.482080","street":{"id":1625710,"name":"On or near Madison Avenue"},"longitude":"-2.107241"},"context":"","outcome_status":{"category":"Court result unavailable","date":"2025-11"},"persistent_id":"efc46802adb92486d90f813558575cf55a9093747473bb62c358cda0e965edce","id":127045238,"location_subtype":"","month":"2025-03"},{"category":"shoplifting","location_type":"Force","location":{"latitude":"52.477744","street":{"id":1625799,"name":"On or near The Boulevard"},"longitude":"-2.110735"},"context":"","outcome_status":{"category":"Court result unavailable","date":"2025-11"},"persistent_id":"c28248f203cb8b83f77ec82644aab78004b09b2842f6781c12646168bfc636b9","id":127043763,"location_subtype":"","month":"2025-03"},{"category":"shoplifting","location_type":"Force","location":{"latitude":"52.482080","street":{"id":1625710,"name":"On or near Madison Avenue"},"longitude":"-2.107241"},"context":"","outcome_status":{"category":"Court result unavailable","date":"2025-11"},"persistent_id":"4fa74f6cf5a979d9ce762d6335d126b7845096013f15d5795cd096b753c1dc3a","id":127043116,"location_subtype":"","month":"2025-03"},{"category":"shoplifting","location_type":"Force","location":{"latitude":"52.475809","street":{"id":1625644,"name":"On or near Two Woods Lane"},"longitude":"-2.112173"},"context":"","outcome_status":{"category":"Court result unavailable","date":"2025-11"},"persistent_id":"88954848dc8a249531b327ce551b30099b440731d65570bc88c512dc60016eb5","id":127042916,"location_subtype":"","month":"2025-03"},{"category":"shoplifting","location_type":"Force","location":{"latitude":"52.477729","street":{"id":1626002,"name":"On or near Nottingham Way"},"longitude":"-2.106774"},"context":"","outcome_status":{"category":"Court result unavailable","date":"2025-11"},"persistent_id":"32d6d2c61988d8cc6955af40475dce44526f4eaef5140dd3dc16c232b8deb494","id":127048693,"location_subtype":"","month":"2025-03"},{"category":"shoplifting","location_type":"Force","location":{"latitude":"52.467800","street":{"id":1624525,"name":"On or near Sandringham Way"},"longitude":"-2.128977"},"context":"","outcome_status":{"category":"Investigation complete; no suspect identified","date":"2025-03"},"persistent_id":"68da5f3bfd94003b029124ad2f434fd69c55a820250c5c3684e64967bb1064d5","id":127032867,"location_subtype":"","month":"2025-03"},{"category":"shoplifting","location_type":"Force","location":{"latitude":"52.482080","street":{"id":1625710,"name":"On or near Madison Avenue"},"longitude":"-2.107241"},"context":"","outcome_status":{"category":"Court result unavailable","date":"2025-11"},"persistent_id":"30b98123d224071aefeb7980818b1c83f3e886722732049e6f82280c14fb217e","id":127032122,"location_subtype":"","month":"2025-03"},{"category":"shoplifting","location_type":"Force","location":{"latitude":"52.482080","street":{"id":1625710,"name":"On or near Madison Avenue"},"longitude":"-2.107241"},"context":"","outcome_status":{"category":"Court result unavailable","date":"2025-11"},"persistent_id":"571c08e743809a016ead6f61fbc602354b432ce0e7436d0be8e7b43fd5241646","id":127032114,"location_subtype":"","month":"2025-03"},{"category":"shoplifting","location_type":"Force","location":{"latitude":"52.482080","street":{"id":1625710,"name":"On or near Madison Avenue"},"longitude":"-2.107241"},"context":"","outcome_status":{"category":"Investigation complete; no suspect identified","date":"2025-04"},"persistent_id":"9477343be175c17818dba5efe781bf2d8ec96b5aa4040cb637a52094fb31f101","id":127048705,"location_subtype":"","month":"2025-03"},{"category":"theft-from-the-person","location_type":"Force","location":{"latitude":"52.482885","street":{"id":1625168,"name":"On or near Pearson Street"},"longitude":"-2.120392"},"context":"","outcome_status":{"category":"Investigation complete; no suspect identified","date":"2025-03"},"persistent_id":"4c0461dd6249bd755717916a0d55e742cf3c87389f55bb321fc10c0b5e2bae0f","id":127031480,"location_subtype":"","month":"2025-03"},{"category":"theft-from-the-person","location_type":"Force","location":{"latitude":"52.482885","street":{"id":1625168,"name":"On or near Pearson Street"},"longitude":"-2.120392"},"context":"","outcome_status":{"category":"Investigation complete; no suspect identified","date":"2025-05"},"persistent_id":"750c47c806de3d4418698648365a1d6052e324ca969099a2597c0fcf19f85762","id":127050325,"location_subtype":"","month":"2025-03"},{"category":"theft-from-the-person","location_type":"Force","location":{"latitude":"52.480271","street":{"id":1625755,"name":"On or near Supermarket"},"longitude":"-2.109489"},"context":"","outcome_status":{"category":"Unable to prosecute suspect","date":"2025-04"},"persistent_id":"7f6f8ed790491d1a392e1ebe5d8de04373040995becf78adf4f08693dac84a55","id":127032545,"location_subtype":"","month":"2025-03"},{"category":"vehicle-crime","location_type":"Force","location":{"latitude":"52.471698","street":{"id":1623912,"name":"On or near Northwood Way"},"longitude":"-2.140353"},"context":"","outcome_status":{"category":"Unable to prosecute suspect","date":"2025-07"},"persistent_id":"3184edca3eccfb6061b6af9deba119de856834341f97fba3a389f343518161a2","id":127027156,"location_subtype":"","month":"2025-03"},{"category":"vehicle-crime","location_type":"Force","location":{"latitude":"52.470631","street":{"id":1624513,"name":"On or near Supermarket"},"longitude":"-2.129780"},"context":"","outcome_status":{"category":"Investigation complete; no suspect identified","date":"2025-04"},"persistent_id":"0ea0c19b164e2a144c68ace331ec637856b8e9286a6875ad4d2004319f4fdd6c","id":127045036,"location_subtype":"","month":"2025-03"},{"category":"vehicle-crime","location_type":"Force","location":{"latitude":"52.482402","street":{"id":1624663,"name":"On or near William Street"},"longitude":"-2.126782"},"context":"","outcome_status":{"category":"Investigation complete; no suspect identified","date":"2025-07"},"persistent_id":"6aab64660bb21b5bfee722d1861f6c997f8370e7c9eb275912d8e2e58260cf2b","id":127033995,"location_subtype":"","month":"2025-03"},{"category":"vehicle-crime","location_type":"Force","location":{"latitude":"52.493444","street":{"id":1625341,"name":"On or near Broadlands Drive"},"longitude":"-2.116312"},"context":"","outcome_status":{"category":"Investigation complete; no suspect identified","date":"2025-03"},"persistent_id":"4aae21bd61f22e30bc2def7f70f83387557d2f53582e6250076343c7bf1b675a","id":127043978,"location_subtype":"","month":"2025-03"},{"category":"vehicle-crime","location_type":"Force","location":{"latitude":"52.486646","street":{"id":1625235,"name":"On or near Waterfront West"},"longitude":"-2.117561"},"context":"","outcome_status":{"category":"Investigation complete; no suspect identified","date":"2025-04"},"persistent_id":"43c4f438db3e1d085d82edaa001f1356e504764af6de8c1a2ccd4eceab568db0","id":127037493,"location_subtype":"","month":"2025-03"},{"category":"vehicle-crime","location_type":"Force","location":{"latitude":"52.490396","street":{"id":1624825,"name":"On or near Wallows Road"},"longitude":"-2.125141"},"context":"","outcome_status":{"category":"Investigation complete; no suspect identified","date":"2025-03"},"persistent_id":"bdae2000167d24158e10b8b36bde09f39b35ba59d2e30bdc5d1d83e1f7ca081f","id":127042921,"location_subtype":"","month":"2025-03"},{"category":"vehicle-crime","location_type":"Force","location":{"latitude":"52.478450","street":{"id":1625442,"name":"On or near Shopping Area"},"longitude":"-2.114314"},"context":"","outcome_status":{"category":"Investigation complete; no suspect identified","date":"2025-03"},"persistent_id":"80aec90a3ce47882331b4107b80c79dc78a32d987af39c0bc3cfd7d49ae2659a","id":127027959,"location_subtype":"","month":"2025-03"},{"category":"vehicle-crime","location_type":"Force","location":{"latitude":"52.480468","street":{"id":1623696,"name":"On or near Cooper Avenue"},"longitude":"-2.143518"},"context":"","outcome_status":{"category":"Investigation complete; no suspect identified","date":"2025-03"},"persistent_id":"b3ccdfe9c4641a15f8a42eadb42969bd2daa6bb8104388f0abc094b7d2e65824","id":127029637,"location_subtype":"","month":"2025-03"},{"category":"vehicle-crime","location_type":"Force","location":{"latitude":"52.479985","street":{"id":1623817,"name":"On or near Rookery Avenue"},"longitude":"-2.141838"},"context":"","outcome_status":{"category":"Investigation complete; no suspect identified","date":"2025-04"},"persistent_id":"a7e9b51203bd181dd438399b67e00df505775c6aaa7c1cd234df2ce900f9336c","id":127041097,"location_subtype":"","month":"2025-03"},{"category":"vehicle-crime","location_type":"Force","location":{"latitude":"52.480863","street":{"id":1624647,"name":"On or near Woodcock Mews"},"longitude":"-2.128309"},"context":"","outcome_status":{"category":"Investigation complete; no suspect identified","date":"2025-03"},"persistent_id":"3dfa5df31adab81a4108cd8a4a6780bc1b588aa8ae95985353ee58c96bb3aac8","id":127031297,"location_subtype":"","month":"2025-03"},{"category":"vehicle-crime","location_type":"Force","location":{"latitude":"52.485579","street":{"id":1624412,"name":"On or near Shopping Area"},"longitude":"-2.132122"},"context":"","outcome_status":{"category":"Investigation complete; no suspect identified","date":"2025-03"},"persistent_id":"bd02f2544168bf1d29d9c32eebe3afe21544b5bf55a3886633b5abe6d484dd7b","id":127037144,"location_subtype":"","month":"2025-03"},{"category":"vehicle-crime","location_type":"Force","location":{"latitude":"52.476761","street":{"id":1624495,"name":"On or near Hill Crest Avenue"},"longitude":"-2.130917"},"context":"","outcome_status":{"category":"Unable to prosecute suspect","date":"2025-07"},"persistent_id":"e5ef80cf82d333d0a8d8896836254ea4c75c08e91356f4c570a0298f2bf546f8","id":127029318,"location_subtype":"","month":"2025-03"},{"category":"vehicle-crime","location_type":"Force","location":{"latitude":"52.482080","street":{"id":1625710,"name":"On or near Madison Avenue"},"longitude":"-2.107241"},"context":"","outcome_status":{"category":"Investigation complete; no suspect identified","date":"2025-03"},"persistent_id":"0e1f10859101f1dd9e706ec2f4abdf95db9a09b7942cc64a6c05be00f556975e","id":127037050,"location_subtype":"","month":"2025-03"},{"category":"vehicle-crime","location_type":"Force","location":{"latitude":"52.481158","street":{"id":1625067,"name":"On or near High Street"},"longitude":"-2.121492"},"context":"","outcome_status":{"category":"Unable to prosecute suspect","date":"2025-04"},"persistent_id":"5482ac6bc1b593a71cbeca8fabbc4c630471b9cacdcbc16a9bdd214b779d7ca0","id":127047267,"location_subtype":"","month":"2025-03"},{"category":"vehicle-crime","location_type":"Force","location":{"latitude":"52.473470","street":{"id":1626097,"name":"On or near Church Street"},"longitude":"-2.104600"},"context":"","outcome_status":{"category":"Investigation complete; no suspect identified","date":"2025-03"},"persistent_id":"b9dc4d936078add11612c50d977b39fa10d48b9aee0a889df6f659ebab853913","id":127050481,"location_subtype":"","month":"2025-03"},{"category":"vehicle-crime","location_type":"Force","location":{"latitude":"52.481838","street":{"id":1624284,"name":"On or near Moor Street"},"longitude":"-2.133230"},"context":"","outcome_status":{"category":"Investigation complete; no suspect identified","date":"2025-03"},"persistent_id":"6a241220befd4cd03295f2ac7e5f6ef9a90759bfb91b57e27e8579fff1c82869","id":127050217,"location_subtype":"","month":"2025-03"},{"category":"vehicle-crime","location_type":"Force","location":{"latitude":"52.486646","street":{"id":1625235,"name":"On or near Waterfront West"},"longitude":"-2.117561"},"context":"","outcome_status":{"category":"Investigation complete; no suspect identified","date":"2025-06"},"persistent_id":"4b782e2f000cc8f5c13eefb11fbe3d099394a86441946507e299935904b740ef","id":127048948,"location_subtype":"","month":"2025-03"},{"category":"vehicle-crime","location_type":"Force","location":{"latitude":"52.485064","street":{"id":1624750,"name":"On or near Bradleymore Road"},"longitude":"-2.126127"},"context":"","outcome_status":{"category":"Investigation complete; no suspect identified","date":"2025-03"},"persistent_id":"8861f93466ee9dffe10ac5c6ada5ecd349c1e2af3aead40bac935071f470fc23","id":127047169,"location_subtype":"","month":"2025-03"},{"category":"vehicle-crime","location_type":"Force","location":{"latitude":"52.475981","street":{"id":1623715,"name":"On or near Hawbush Gardens"},"longitude":"-2.144519"},"context":"","outcome_status":{"category":"Investigation complete; no suspect identified","date":"2025-03"},"persistent_id":"69d3aa46be5e5f82de81700c0fb1730ee1a6df6a7437d0dfc862c95275f7d770","id":127048131,"location_subtype":"","month":"2025-03"},{"category":"vehicle-crime","location_type":"Force","location":{"latitude":"52.478450","street":{"id":1625442,"name":"On or near Shopping Area"},"longitude":"-2.114314"},"context":"","outcome_status":{"category":"Investigation complete; no suspect identified","date":"2025-03"},"persistent_id":"6ddef39cf9336ed11630c92cf3ba8503e64e5eda10bd2210b4d43fe07df356da","id":127046582,"location_subtype":"","month":"2025-03"},{"category":"vehicle-crime","location_type":"Force","location":{"latitude":"52.467800","street":{"id":1624525,"name":"On or near Sandringham Way"},"longitude":"-2.128977"},"context":"","outcome_status":{"category":"Unable to prosecute suspect","date":"2025-03"},"persistent_id":"d79ca00dcf6667a2c9ae502657709f36f76c4eab4526f96a58ea0ff37431dc2a","id":127045371,"location_subtype":"","month":"2025-03"},{"category":"vehicle-crime","location_type":"Force","location":{"latitude":"52.469271","street":{"id":1624949,"name":"On or near Hudswell Drive"},"longitude":"-2.123741"},"context":"","outcome_status":{"category":"Investigation complete; no suspect identified","date":"2025-03"},"persistent_id":"23823712bd1bddd6ae5bb9ae3a1e25f0f2a91a8cae09e6e5702525c82c4b27f3","id":127036723,"location_subtype":"","month":"2025-03"},{"category":"vehicle-crime","location_type":"Force","location":{"latitude":"52.475418","street":{"id":1625941,"name":"On or near Coppice Close"},"longitude":"-2.107269"},"context":"","outcome_status":{"category":"Investigation complete; no suspect identified","date":"2025-03"},"persistent_id":"ed7bf4b5951d73a1c5d47f26deadbdc3a73852cd7d9fa5b53b6001c144d2f690","id":127030665,"location_subtype":"","month":"2025-03"},{"category":"vehicle-crime","location_type":"Force","location":{"latitude":"52.473200","street":{"id":1625516,"name":"On or near Deeley Street"},"longitude":"-2.114345"},"context":"","outcome_status":{"category":"Investigation complete; no suspect identified","date":"2025-05"},"persistent_id":"c50783ef67060d68646c934f1a0605a4b7f27711bb20bdf597ea944c668d5c68","id":127040708,"location_subtype":"","month":"2025-03"},{"category":"vehicle-crime","location_type":"Force","location":{"latitude":"52.483536","street":{"id":1624264,"name":"On or near Foxdale Drive"},"longitude":"-2.134354"},"context":"","outcome_status":{"category":"Investigation complete; no suspect identified","date":"2025-04"},"persistent_id":"4933a369d886b3e70686fe37c41291be2e701903c8acc992c57236f4fe0c65c9","id":127040483,"location_subtype":"","month":"2025-03"},{"category":"vehicle-crime","location_type":"Force","location":{"latitude":"52.477065","street":{"id":1624914,"name":"On or near Hill Street"},"longitude":"-2.124028"},"context":"","outcome_status":{"category":"Investigation complete; no suspect identified","date":"2025-04"},"persistent_id":"375bb005065ae76152efd162054ab7e16f95b874808196e963b04db4ed40e0f3","id":127036358,"location_subtype":"","month":"2025-03"},{"category":"vehicle-crime","location_type":"Force","location":{"latitude":"52.486646","street":{"id":1625235,"name":"On or near Waterfront West"},"longitude":"-2.117561"},"context":"","outcome_status":{"category":"Investigation complete; no suspect identified","date":"2025-04"},"persistent_id":"54051ef34f7c40700b6e13a8d10786e4bd06de66b3a0e70e3d6d0231502425d3","id":127040624,"location_subtype":"","month":"2025-03"},{"category":"violent-crime","location_type":"Force","location":{"latitude":"52.478137","street":{"id":1625101,"name":"On or near The Promenade"},"longitude":"-2.121587"},"context":"","outcome_status":{"category":"Unable to prosecute suspect","date":"2025-04"},"persistent_id":"57f3531f6941b97de6205b981dc6677bc22bd2504300deeb7af4e0c720514049","id":127050871,"location_subtype":"","month":"2025-03"},{"category":"violent-crime","location_type":"Force","location":{"latitude":"52.478137","street":{"id":1625101,"name":"On or near The Promenade"},"longitude":"-2.121587"},"context":"","outcome_status":{"category":"Unable to prosecute suspect","date":"2025-07"},"persistent_id":"f984a723d5e9322e6e0000e2488356f646f3795e3b7b8f23f06242fedc48bc6b","id":127041168,"location_subtype":"","month":"2025-03"},{"category":"violent-crime","location_type":"Force","location":{"latitude":"52.485049","street":{"id":1625004,"name":"On or near Bank Street"},"longitude":"-2.123314"},"context":"","outcome_status":{"category":"Investigation complete; no suspect identified","date":"2025-04"},"persistent_id":"e85c6742cba8d5e06cae5c34eca23dbf3b4a6081dfb4c15761db459c73483b5f","id":127029654,"location_subtype":"","month":"2025-03"},{"category":"violent-crime","location_type":"Force","location":{"latitude":"52.483033","street":{"id":1624875,"name":"On or near Brockley Close"},"longitude":"-2.125193"},"context":"","outcome_status":{"category":"Awaiting court outcome","date":"2025-12"},"persistent_id":"61da7b863838471170390dd2d472c7dbc1c2d4adfb392fbb437ae7ec5b41c95e","id":127034578,"location_subtype":"","month":"2025-03"},{"category":"violent-crime","location_type":"Force","location":{"latitude":"52.476374","street":{"id":1625631,"name":"On or near Shawhellier Avenue"},"longitude":"-2.113911"},"context":"","outcome_status":{"category":"Unable to prosecute suspect","date":"2025-03"},"persistent_id":"302914df54d34284ea82297f15462aa23a1658e3dd6684dcda75e1e07a0bd66c","id":127034941,"location_subtype":"","month":"2025-03"},{"category":"violent-crime","location_type":"Force","location":{"latitude":"52.491735","street":{"id":1624273,"name":"On or near Fairgreen Gardens"},"longitude":"-2.133966"},"context":"","outcome_status":{"category":"Unable to prosecute suspect","date":"2025-04"},"persistent_id":"da2ed6a02a13ea1933a8ff33115be5f8197b60b1d30930c8511d472c8cdb3c02","id":127037983,"location_subtype":"","month":"2025-03"},{"category":"violent-crime","location_type":"Force","location":{"latitude":"52.486646","street":{"id":1625235,"name":"On or near Waterfront West"},"longitude":"-2.117561"},"context":"","outcome_status":{"category":"Investigation complete; no suspect identified","date":"2025-04"},"persistent_id":"037afa40244376c9b32af797c0d984cab9de1d699f41b17a2c5ceb00dd68415b","id":127035117,"location_subtype":"","month":"2025-03"},{"category":"violent-crime","location_type":"Force","location":{"latitude":"52.472941","street":{"id":1625664,"name":"On or near Thorns Avenue"},"longitude":"-2.112519"},"context":"","outcome_status":{"category":"Status update unavailable","date":"2025-07"},"persistent_id":"957082ae7a7e14c6665885f8fabdc6875456f3b277642578b9b13473387d8c47","id":127034860,"location_subtype":"","month":"2025-03"},{"category":"violent-crime","location_type":"Force","location":{"latitude":"52.482885","street":{"id":1625168,"name":"On or near Pearson Street"},"longitude":"-2.120392"},"context":"","outcome_status":{"category":"Investigation complete; no suspect identified","date":"2025-04"},"persistent_id":"4390065cabffa5f349c03fb7d26bedcd4031b90f9dc8bcfe9821fec6b20dfc30","id":127035535,"location_subtype":"","month":"2025-03"},{"category":"violent-crime","location_type":"Force","location":{"latitude":"52.478288","street":{"id":1626113,"name":"On or near Robin Hood Road"},"longitude":"-2.104950"},"context":"","outcome_status":{"category":"Unable to prosecute suspect","date":"2025-04"},"persistent_id":"49dfa4518a8e91f82bfeb16e13d2a65074d8dfa8ecf443a5493d86f77481fd67","id":127035033,"location_subtype":"","month":"2025-03"},{"category":"violent-crime","location_type":"Force","location":{"latitude":"52.483935","street":{"id":1625006,"name":"On or near Police Station"},"longitude":"-2.122472"},"context":"","outcome_status":{"category":"Unable to prosecute suspect","date":"2025-04"},"persistent_id":"77c7ddf3e14335bba34523a9cecf1b756aa94f98d34f1549b8db9326f7e61a4d","id":127033718,"location_subtype":"","month":"2025-03"},{"category":"violent-crime","location_type":"Force","location":{"latitude":"52.478137","street":{"id":1625101,"name":"On or near The Promenade"},"longitude":"-2.121587"},"context":"","outcome_status":{"category":"Local resolution","date":"2025-05"},"persistent_id":"f021f925a4a436e67c69d9e8e6c3edee9fb9d6e3f2dc1316bfcd2cf8e4ccc1ed","id":127042909,"location_subtype":"","month":"2025-03"},{"category":"violent-crime","location_type":"Force","location":{"latitude":"52.479693","street":{"id":1625136,"name":"On or near Parking Area"},"longitude":"-2.121017"},"context":"","outcome_status":{"category":"Unable to prosecute suspect","date":"2025-04"},"persistent_id":"513ee86aa90acf42c0db97cd13c07d75d946e86689e3b004f1f7fe938aae305a","id":127042768,"location_subtype":"","month":"2025-03"},{"category":"violent-crime","location_type":"Force","location":{"latitude":"52.481966","street":{"id":1624978,"name":"On or near Albion Street"},"longitude":"-2.122628"},"context":"","outcome_status":{"category":"Unable to prosecute suspect","date":"2025-04"},"persistent_id":"f8d5216e373757c1e7b09704536f473bd3d6497fc1e77a59d2f5633afa4d7ef2","id":127040342,"location_subtype":"","month":"2025-03"},{"category":"violent-crime","location_type":"Force","location":{"latitude":"52.479071","street":{"id":1625003,"name":"On or near Parking Area"},"longitude":"-2.122546"},"context":"","outcome_status":{"category":"Unable to prosecute suspect","date":"2025-11"},"persistent_id":"7c5aa7b41081f2e923c89a5c4b2355d7ae158f89e31ffc581a98f184d74f16b6","id":127040105,"location_subtype":"","month":"2025-03"},{"category":"violent-crime","location_type":"Force","location":{"latitude":"52.476661","street":{"id":1624868,"name":"On or near Little Potter Street"},"longitude":"-2.124071"},"context":"","outcome_status":{"category":"Unable to prosecute suspect","date":"2025-04"},"persistent_id":"4343ace1fce7a6c69f4b509599c6834c36fc80b9351a9baa1a39d108c47b9753","id":127040733,"location_subtype":"","month":"2025-03"},{"category":"violent-crime","location_type":"Force","location":{"latitude":"52.472641","street":{"id":1626019,"name":"On or near Parking Area"},"longitude":"-2.106511"},"context":"","outcome_status":{"category":"Status update unavailable","date":"2025-07"},"persistent_id":"4dcce6a12a01c7e5b2df05da64c83f6beacdadb7281af2529284d7db98db66e3","id":127038620,"location_subtype":"","month":"2025-03"},{"category":"violent-crime","location_type":"Force","location":{"latitude":"52.472641","street":{"id":1626019,"name":"On or near Parking Area"},"longitude":"-2.106511"},"context":"","outcome_status":{"category":"Unable to prosecute suspect","date":"2026-01"},"persistent_id":"8ad84489e0a65149d7789ae110c4ad685d39012b70e80d6be437489b2c355e77","id":127038527,"location_subtype":"","month":"2025-03"},{"category":"violent-crime","location_type":"Force","location":{"latitude":"52.472641","street":{"id":1626019,"name":"On or near Parking Area"},"longitude":"-2.106511"},"context":"","outcome_status":{"category":"Unable to prosecute suspect","date":"2026-01"},"persistent_id":"533c58392cc09d703f32f9b755167c684851a545010fa6fd0da7ed120876bac1","id":127038532,"location_subtype":"","month":"2025-03"},{"category":"violent-crime","location_type":"Force","location":{"latitude":"52.481966","street":{"id":1624978,"name":"On or near Albion Street"},"longitude":"-2.122628"},"context":"","outcome_status":{"category":"Unable to prosecute suspect","date":"2025-11"},"persistent_id":"cfc601074b7ca69ef03378559c22b640a4f667da199381cf1c04ed2205397847","id":127037501,"location_subtype":"","month":"2025-03"},{"category":"violent-crime","location_type":"Force","location":{"latitude":"52.488123","street":{"id":1624416,"name":"On or near Campbell Street"},"longitude":"-2.132085"},"context":"","outcome_status":{"category":"Unable to prosecute suspect","date":"2025-05"},"persistent_id":"67a06c0d96b3e253d7b0f03ce08d47d636007821dd21edc0fb8836237353bc2f","id":127037486,"location_subtype":"","month":"2025-03"},{"category":"violent-crime","location_type":"Force","location":{"latitude":"52.479172","street":{"id":1624081,"name":"On or near Addison Road"},"longitude":"-2.137344"},"context":"","outcome_status":{"category":"Unable to prosecute suspect","date":"2025-04"},"persistent_id":"5a0082d35bcf9cefbe094e104f0624aafbf4328e5a61a59f16c3cabc890ed9f9","id":127037364,"location_subtype":"","month":"2025-03"},{"category":"violent-crime","location_type":"Force","location":{"latitude":"52.486646","street":{"id":1625235,"name":"On or near Waterfront West"},"longitude":"-2.117561"},"context":"","outcome_status":{"category":"Investigation complete; no suspect identified","date":"2025-05"},"persistent_id":"cdf6a5cad9d9bcbc0a9f32e1cbe2d56b93df2f7fc67073a02f3116f73b7a908e","id":127036618,"location_subtype":"","month":"2025-03"},{"category":"violent-crime","location_type":"Force","location":{"latitude":"52.478137","street":{"id":1625101,"name":"On or near The Promenade"},"longitude":"-2.121587"},"context":"","outcome_status":{"category":"Investigation complete; no suspect identified","date":"2025-04"},"persistent_id":"dd0a7d35cdcb42ca934ae5eaf13aef9cc70bc0c0ca9fc8ba4565db9f08041d86","id":127036202,"location_subtype":"","month":"2025-03"},{"category":"violent-crime","location_type":"Force","location":{"latitude":"52.473089","street":{"id":1625333,"name":"On or near Thornton Drive"},"longitude":"-2.117672"},"context":"","outcome_status":{"category":"Unable to prosecute suspect","date":"2025-04"},"persistent_id":"12378d76c1bb1b02c9cc91022d30f1cdcfc4a04614f2b2ee247daccadd650ab3","id":127050040,"location_subtype":"","month":"2025-03"},{"category":"violent-crime","location_type":"Force","location":{"latitude":"52.480271","street":{"id":1625755,"name":"On or near Supermarket"},"longitude":"-2.109489"},"context":"","outcome_status":{"category":"Unable to prosecute suspect","date":"2025-11"},"persistent_id":"152b364b7cd7714a0a43291692e4afe9bd536cfd0ac5e503917e02a751a8e618","id":127049961,"location_subtype":"","month":"2025-03"},{"category":"violent-crime","location_type":"Force","location":{"latitude":"52.480271","street":{"id":1625755,"name":"On or near Supermarket"},"longitude":"-2.109489"},"context":"","outcome_status":{"category":"Awaiting court outcome","date":"2025-12"},"persistent_id":"144d013572cb6c3d1f792813c83b738a4096a3d76b610029ad76fecd6593d9fe","id":127049946,"location_subtype":"","month":"2025-03"},{"category":"violent-crime","location_type":"Force","location":{"latitude":"52.480070","street":{"id":1625428,"name":"On or near Parking Area"},"longitude":"-2.112552"},"context":"","outcome_status":{"category":"Unable to prosecute suspect","date":"2025-04"},"persistent_id":"d20b46ac897824508ee9c0a0e5250bf8a87fe256b739c7aa65d42380c2a39c41","id":127050538,"location_subtype":"","month":"2025-03"},{"category":"violent-crime","location_type":"Force","location":{"latitude":"52.485356","street":{"id":1625065,"name":"On or near Victoria Street"},"longitude":"-2.122004"},"context":"","outcome_status":{"category":"Unable to prosecute suspect","date":"2025-04"},"persistent_id":"e8d8406ed5fa2e8550153471e84d43e1bb6fb3480f3708f701180cb025c566d6","id":127047771,"location_subtype":"","month":"2025-03"},{"category":"violent-crime","location_type":"Force","location":{"latitude":"52.485356","street":{"id":1625065,"name":"On or near Victoria Street"},"longitude":"-2.122004"},"context":"","outcome_status":{"category":"Unable to prosecute suspect","date":"2025-04"},"persistent_id":"052fa0ba640a8287d1c119cc443e76b77a00dbf359e17fecd5f8af2792928ae7","id":127047760,"location_subtype":"","month":"2025-03"},{"category":"violent-crime","location_type":"Force","location":{"latitude":"52.483574","street":{"id":1624939,"name":"On or near Talbot Street"},"longitude":"-2.123737"},"context":"","outcome_status":{"category":"Unable to prosecute suspect","date":"2025-04"},"persistent_id":"e6e2ebe8ff62bb43b6ef55fdd3f632bcdb4efde97a8cff807a008ce35ee853b9","id":127047749,"location_subtype":"","month":"2025-03"},{"category":"violent-crime","location_type":"Force","location":{"latitude":"52.483935","street":{"id":1625006,"name":"On or near Police Station"},"longitude":"-2.122472"},"context":"","outcome_status":{"category":"Unable to prosecute suspect","date":"2025-04"},"persistent_id":"06a1e7a1881e77eef26c0d02f38afe7c4cb8f664c644e8d7b13fff1c12dab411","id":127048142,"location_subtype":"","month":"2025-03"},{"category":"violent-crime","location_type":"Force","location":{"latitude":"52.477707","street":{"id":1626270,"name":"On or near Birch Avenue"},"longitude":"-2.101797"},"context":"","outcome_status":{"category":"Unable to prosecute suspect","date":"2025-06"},"persistent_id":"179a0e623b29e95682a731644aee09540f2afa9f69d86e01d00cde5bd2ba515d","id":127046821,"location_subtype":"","month":"2025-03"},{"category":"violent-crime","location_type":"Force","location":{"latitude":"52.480271","street":{"id":1625755,"name":"On or near Supermarket"},"longitude":"-2.109489"},"context":"","outcome_status":{"category":"Court result unavailable","date":"2025-10"},"persistent_id":"34d0d6a109f02537e3eebb1df25e485e18b3bb587ccef30874d4c08ac56af1b9","id":127045880,"location_subtype":"","month":"2025-03"},{"category":"violent-crime","location_type":"Force","location":{"latitude":"52.482077","street":{"id":1624125,"name":"On or near Budnam Brook Court"},"longitude":"-2.136234"},"context":"","outcome_status":{"category":"Unable to prosecute suspect","date":"2025-04"},"persistent_id":"914d724f73eaba850a78be1c663341642ef703f6451e0f68ec1ad831197db61c","id":127046343,"location_subtype":"","month":"2025-03"},{"category":"violent-crime","location_type":"Force","location":{"latitude":"52.476760","street":{"id":1624984,"name":"On or near Nine Locks Ridge"},"longitude":"-2.123453"},"context":"","outcome_status":{"category":"Status update unavailable","date":"2025-07"},"persistent_id":"c2e283f8ee9c5f1e1129c081e245f2fbc4868ffadcdb8132d52517d2321d305d","id":127045499,"location_subtype":"","month":"2025-03"},{"category":"violent-crime","location_type":"Force","location":{"latitude":"52.487534","street":{"id":1625238,"name":"On or near Petrol Station"},"longitude":"-2.119212"},"context":"","outcome_status":{"category":"Unable to prosecute suspect","date":"2025-04"},"persistent_id":"854a1766068b94147cc78bdfa171ac14566046edd4e13b421348934483b0eaf4","id":127045203,"location_subtype":"","month":"2025-03"},{"category":"violent-crime","location_type":"Force","location":{"latitude":"52.473470","street":{"id":1626097,"name":"On or near Church Street"},"longitude":"-2.104600"},"context":"","outcome_status":{"category":"Unable to prosecute suspect","date":"2025-04"},"persistent_id":"15c73a36b82a99fc423b1b45542e3a71352a930797c4c952ebbf513bd3d4e66c","id":127044585,"location_subtype":"","month":"2025-03"},{"category":"violent-crime","location_type":"Force","location":{"latitude":"52.483033","street":{"id":1624875,"name":"On or near Brockley Close"},"longitude":"-2.125193"},"context":"","outcome_status":{"category":"Unable to prosecute suspect","date":"2025-05"},"persistent_id":"e8893be46887e689199408c61a963596d052c60eccd2f2c1da0e73d4de74a804","id":127043383,"location_subtype":"","month":"2025-03"},{"category":"violent-crime","location_type":"Force","location":{"latitude":"52.492388","street":{"id":1624141,"name":"On or near Dell Road"},"longitude":"-2.136708"},"context":"","outcome_status":{"category":"Investigation complete; no suspect identified","date":"2025-04"},"persistent_id":"ce44ac4b0d8ee8ee48ed651659633a9d9f760ebdbd1e3643151910689ed1bee1","id":127043348,"location_subtype":"","month":"2025-03"},{"category":"violent-crime","location_type":"Force","location":{"latitude":"52.490476","street":{"id":1625294,"name":"On or near Dudley Road"},"longitude":"-2.117748"},"context":"","outcome_status":{"category":"Court result unavailable","date":"2025-12"},"persistent_id":"2bbcb936b7bc1357f493b0dac23f19aa61a9eef7bf6fe570acff9a020f8e891e","id":127031846,"location_subtype":"","month":"2025-03"},{"category":"violent-crime","location_type":"Force","location":{"latitude":"52.481517","street":{"id":1625075,"name":"On or near Shopping Area"},"longitude":"-2.120991"},"context":"","outcome_status":{"category":"Investigation complete; no suspect identified","date":"2025-03"},"persistent_id":"266190b1d9dadaf627ddbcde12134ba01edc9c478236e26ecabd250af4e54337","id":127032063,"location_subtype":"","month":"2025-03"},{"category":"violent-crime","location_type":"Force","location":{"latitude":"52.471033","street":{"id":1624893,"name":"On or near Gayfield Avenue"},"longitude":"-2.123687"},"context":"","outcome_status":{"category":"Unable to prosecute suspect","date":"2025-04"},"persistent_id":"7b0ebb84128e516f48fcfb4b337b37bb7567d5b5d5038e62dcad83dd135ce53b","id":127028718,"location_subtype":"","month":"2025-03"},{"category":"violent-crime","location_type":"Force","location":{"latitude":"52.491157","street":{"id":1624690,"name":"On or near Limes Avenue"},"longitude":"-2.127808"},"context":"","outcome_status":{"category":"Court result unavailable","date":"2025-10"},"persistent_id":"d6de4cfbef4e8d9a59093ece86b349efd0c04f53a13803b3c8cbe7baffb24704","id":127028250,"location_subtype":"","month":"2025-03"},{"category":"violent-crime","location_type":"Force","location":{"latitude":"52.474978","street":{"id":1624754,"name":"On or near Abbots Mews"},"longitude":"-2.125759"},"context":"","outcome_status":{"category":"Court result unavailable","date":"2025-09"},"persistent_id":"af772e779476f5ff0ee97ab0fb9df24278ec00bca1f207a9e7d2c5cc330b0313","id":127025918,"location_subtype":"","month":"2025-03"},{"category":"violent-crime","location_type":"Force","location":{"latitude":"52.477646","street":{"id":1624225,"name":"On or near Springfields Road"},"longitude":"-2.135381"},"context":"","outcome_status":{"category":"Unable to prosecute suspect","date":"2025-03"},"persistent_id":"d520a48231d8bdbfb0717da34e9a0f58016305433cd034e9143468808dadfe3c","id":127030619,"location_subtype":"","month":"2025-03"},{"category":"violent-crime","location_type":"Force","location":{"latitude":"52.490476","street":{"id":1625294,"name":"On or near Dudley Road"},"longitude":"-2.117748"},"context":"","outcome_status":{"category":"Unable to prosecute suspect","date":"2025-03"},"persistent_id":"653b72e0ae713b175e29aa9211741fcf0928e16ce723b5b6d70488e4b88f9cf3","id":127031898,"location_subtype":"","month":"2025-03"},{"category":"violent-crime","location_type":"Force","location":{"latitude":"52.486646","street":{"id":1625235,"name":"On or near Waterfront West"},"longitude":"-2.117561"},"context":"","outcome_status":{"category":"Unable to prosecute suspect","date":"2025-03"},"persistent_id":"4206acabcf8decf94a1188abc909027e59cb0c4ab95bb1187da30d4b7b54cc11","id":127029450,"location_subtype":"","month":"2025-03"},{"category":"violent-crime","location_type":"Force","location":{"latitude":"52.473042","street":{"id":1624631,"name":"On or near Willow Rise"},"longitude":"-2.128139"},"context":"","outcome_status":{"category":"Unable to prosecute suspect","date":"2025-03"},"persistent_id":"c95ff8123be79421b9c238493ee6a3a912dd534ed1070c71ede2a70d321b9e15","id":127029544,"location_subtype":"","month":"2025-03"},{"category":"violent-crime","location_type":"Force","location":{"latitude":"52.468644","street":{"id":1624522,"name":"On or near Shadymoor Drive"},"longitude":"-2.130511"},"context":"","outcome_status":{"category":"Unable to prosecute suspect","date":"2025-03"},"persistent_id":"5fe1940ac1552307b180d8dc5a4476055e80785e872a9b5649a74a3e6d7ae3ab","id":127029563,"location_subtype":"","month":"2025-03"},{"category":"violent-crime","location_type":"Force","location":{"latitude":"52.492776","street":{"id":1624162,"name":"On or near Haywharf Road"},"longitude":"-2.135192"},"context":"","outcome_status":{"category":"Unable to prosecute suspect","date":"2025-03"},"persistent_id":"e77295c0eeaa3362ffa32ca4fa2d8d3953dd757fb89777125f8f804a48b432aa","id":127029765,"location_subtype":"","month":"2025-03"},{"category":"violent-crime","location_type":"Force","location":{"latitude":"52.482496","street":{"id":1624428,"name":"On or near The Wickets"},"longitude":"-2.131641"},"context":"","outcome_status":{"category":"Unable to prosecute suspect","date":"2025-03"},"persistent_id":"452b61c337660cbba87723b70933e444bc62f2fac6c70d604ae8cfaceb7d8e00","id":127030152,"location_subtype":"","month":"2025-03"},{"category":"violent-crime","location_type":"Force","location":{"latitude":"52.492106","street":{"id":1625419,"name":"On or near Garrat Street"},"longitude":"-2.114659"},"context":"","outcome_status":{"category":"Unable to prosecute suspect","date":"2025-03"},"persistent_id":"6a146640373e53e8430332c5b72b67871985eef7ba1ac4ba322e8af6e6e432b7","id":127030377,"location_subtype":"","month":"2025-03"},{"category":"violent-crime","location_type":"Force","location":{"latitude":"52.486202","street":{"id":1624592,"name":"On or near High Street"},"longitude":"-2.129473"},"context":"","outcome_status":{"category":"Unable to prosecute suspect","date":"2025-03"},"persistent_id":"086b9c1b9d5da05e695f8e43fea1acd0aaa26029634eec862f853eaa0da8bc0e","id":127030613,"location_subtype":"","month":"2025-03"},{"category":"violent-crime","location_type":"Force","location":{"latitude":"52.492106","street":{"id":1625419,"name":"On or near Garrat Street"},"longitude":"-2.114659"},"context":"","outcome_status":{"category":"Unable to prosecute suspect","date":"2025-03"},"persistent_id":"f7334191b385024da359f8a6689e27efd8a3980958397f4b0578765555b961f5","id":127031145,"location_subtype":"","month":"2025-03"},{"category":"violent-crime","location_type":"Force","location":{"latitude":"52.480070","street":{"id":1625428,"name":"On or near Parking Area"},"longitude":"-2.112552"},"context":"","outcome_status":{"category":"Unable to prosecute suspect","date":"2025-03"},"persistent_id":"fe898bef1e320f1274a03ec5108f0ac2f47bcaff6529361e55d34a725a064e80","id":127034351,"location_subtype":"","month":"2025-03"},{"category":"violent-crime","location_type":"Force","location":{"latitude":"52.477431","street":{"id":1624751,"name":"On or near South Street"},"longitude":"-2.127003"},"context":"","outcome_status":{"category":"Unable to prosecute suspect","date":"2025-03"},"persistent_id":"723a1f503003f5575a9f24b8c19f8712e413bb341ccae850944965f245965c6b","id":127031217,"location_subtype":"","month":"2025-03"},{"category":"violent-crime","location_type":"Force","location":{"latitude":"52.484242","street":{"id":1623983,"name":"On or near Leys Crescent"},"longitude":"-2.137375"},"context":"","outcome_status":{"category":"Unable to prosecute suspect","date":"2025-03"},"persistent_id":"1b5e395aba1b9b82a357daa551b9e94988bfc6b7af12b344c78f1f5d2294e6ff","id":127031653,"location_subtype":"","month":"2025-03"},{"category":"violent-crime","location_type":"Force","location":{"latitude":"52.480271","street":{"id":1625755,"name":"On or near Supermarket"},"longitude":"-2.109489"},"context":"","outcome_status":{"category":"Unable to prosecute suspect","date":"2025-03"},"persistent_id":"f9d31c75550b30a9f4648ca055ed57435062d24b3a56ae102a8dc58a8114b7c8","id":127031757,"location_subtype":"","month":"2025-03"},{"category":"violent-crime","location_type":"Force","location":{"latitude":"52.491157","street":{"id":1624690,"name":"On or near Limes Avenue"},"longitude":"-2.127808"},"context":"","outcome_status":{"category":"Unable to prosecute suspect","date":"2025-03"},"persistent_id":"c079ec2ec99a763f829ce894359909e5d1dd78eaed7e87bbea4627ad8d32e9c9","id":127032040,"location_subtype":"","month":"2025-03"},{"category":"violent-crime","location_type":"Force","location":{"latitude":"52.491157","street":{"id":1624690,"name":"On or near Limes Avenue"},"longitude":"-2.127808"},"context":"","outcome_status":{"category":"Unable to prosecute suspect","date":"2025-03"},"persistent_id":"c7ebcbd1f47bdb99f4d4ebdd620ee49c864ba99e8926b0cb8cf233209253f5f7","id":127032041,"location_subtype":"","month":"2025-03"},{"category":"violent-crime","location_type":"Force","location":{"latitude":"52.492058","street":{"id":1625352,"name":"On or near Gordon Crescent"},"longitude":"-2.117796"},"context":"","outcome_status":{"category":"Unable to prosecute suspect","date":"2025-03"},"persistent_id":"967a95c7d1be1b1e538dc0da4b562e0271ad14bc06ff9fe7c3cb6db517d19e7e","id":127025548,"location_subtype":"","month":"2025-03"},{"category":"violent-crime","location_type":"Force","location":{"latitude":"52.484242","street":{"id":1623983,"name":"On or near Leys Crescent"},"longitude":"-2.137375"},"context":"","outcome_status":{"category":"Unable to prosecute suspect","date":"2025-03"},"persistent_id":"cc42b359494c3b13b6a8844d522ef06dc7f645d78de02eaddbf0312d05b1363e","id":127025947,"location_subtype":"","month":"2025-03"},{"category":"violent-crime","location_type":"Force","location":{"latitude":"52.478889","street":{"id":1623856,"name":"On or near Bushway Close"},"longitude":"-2.141113"},"context":"","outcome_status":{"category":"Investigation complete; no suspect identified","date":"2025-03"},