[{"category":"anti-social-behaviour","location_type":"Force","location":{"latitude":"51.549348","street":{"id":1696829,"name":"On or near Buxton Road"},"longitude":"0.007704"},"context":"","outcome_status":null,"persistent_id":"","id":126347769,"location_subtype":"","month":"2025-02"},{"category":"anti-social-behaviour","location_type":"Force","location":{"latitude":"51.552163","street":{"id":1695805,"name":"On or near Drapers Road"},"longitude":"-0.002327"},"context":"","outcome_status":null,"persistent_id":"","id":126358280,"location_subtype":"","month":"2025-02"},{"category":"anti-social-behaviour","location_type":"Force","location":{"latitude":"51.542251","street":{"id":1695524,"name":"On or near Shopping Area"},"longitude":"-0.005047"},"context":"","outcome_status":null,"persistent_id":"","id":126358344,"location_subtype":"","month":"2025-02"},{"category":"anti-social-behaviour","location_type":"Force","location":{"latitude":"51.549451","street":{"id":1692965,"name":"On or near Lee Conservancy Road"},"longitude":"-0.029129"},"context":"","outcome_status":null,"persistent_id":"","id":126358369,"location_subtype":"","month":"2025-02"},{"category":"anti-social-behaviour","location_type":"Force","location":{"latitude":"51.550872","street":{"id":1697151,"name":"On or near Cruikshank Road"},"longitude":"0.010598"},"context":"","outcome_status":null,"persistent_id":"","id":126358445,"location_subtype":"","month":"2025-02"},{"category":"anti-social-behaviour","location_type":"Force","location":{"latitude":"51.539282","street":{"id":1693370,"name":"On or near Remus Road"},"longitude":"-0.024983"},"context":"","outcome_status":null,"persistent_id":"","id":126358456,"location_subtype":"","month":"2025-02"},{"category":"anti-social-behaviour","location_type":"Force","location":{"latitude":"51.548663","street":{"id":1694986,"name":"On or near Honour Lea Avenue"},"longitude":"-0.011206"},"context":"","outcome_status":null,"persistent_id":"","id":126358636,"location_subtype":"","month":"2025-02"},{"category":"anti-social-behaviour","location_type":"Force","location":{"latitude":"51.540266","street":{"id":1696377,"name":"On or near Victoria Street"},"longitude":"0.003425"},"context":"","outcome_status":null,"persistent_id":"","id":126359496,"location_subtype":"","month":"2025-02"},{"category":"anti-social-behaviour","location_type":"Force","location":{"latitude":"51.543769","street":{"id":1696479,"name":"On or near The Grove"},"longitude":"0.004228"},"context":"","outcome_status":null,"persistent_id":"","id":126359586,"location_subtype":"","month":"2025-02"},{"category":"anti-social-behaviour","location_type":"Force","location":{"latitude":"51.538236","street":{"id":1696401,"name":"On or near Pitchford Street"},"longitude":"0.003293"},"context":"","outcome_status":null,"persistent_id":"","id":126347642,"location_subtype":"","month":"2025-02"},{"category":"anti-social-behaviour","location_type":"Force","location":{"latitude":"51.547541","street":{"id":1696558,"name":"On or near Carolina Close"},"longitude":"0.005014"},"context":"","outcome_status":null,"persistent_id":"","id":126347813,"location_subtype":"","month":"2025-02"},{"category":"anti-social-behaviour","location_type":"Force","location":{"latitude":"51.554841","street":{"id":1695890,"name":"On or near Millais Road"},"longitude":"-0.002209"},"context":"","outcome_status":null,"persistent_id":"","id":126348049,"location_subtype":"","month":"2025-02"},{"category":"anti-social-behaviour","location_type":"Force","location":{"latitude":"51.558051","street":{"id":1695221,"name":"On or near York Road"},"longitude":"-0.009066"},"context":"","outcome_status":null,"persistent_id":"","id":126348791,"location_subtype":"","month":"2025-02"},{"category":"anti-social-behaviour","location_type":"Force","location":{"latitude":"51.543077","street":{"id":1696754,"name":"On or near Deanery Road"},"longitude":"0.006808"},"context":"","outcome_status":null,"persistent_id":"","id":126359935,"location_subtype":"","month":"2025-02"},{"category":"anti-social-behaviour","location_type":"Force","location":{"latitude":"51.555207","street":{"id":1696351,"name":"On or near Union Close"},"longitude":"0.003187"},"context":"","outcome_status":null,"persistent_id":"","id":126357179,"location_subtype":"","month":"2025-02"},{"category":"anti-social-behaviour","location_type":"Force","location":{"latitude":"51.547608","street":{"id":1696367,"name":"On or near Maryland Street"},"longitude":"0.003733"},"context":"","outcome_status":null,"persistent_id":"","id":126356927,"location_subtype":"","month":"2025-02"},{"category":"anti-social-behaviour","location_type":"Force","location":{"latitude":"51.533461","street":{"id":1695285,"name":"On or near Godfrey Street"},"longitude":"-0.006736"},"context":"","outcome_status":null,"persistent_id":"","id":126356978,"location_subtype":"","month":"2025-02"},{"category":"anti-social-behaviour","location_type":"Force","location":{"latitude":"51.558051","street":{"id":1695221,"name":"On or near York Road"},"longitude":"-0.009066"},"context":"","outcome_status":null,"persistent_id":"","id":126357476,"location_subtype":"","month":"2025-02"},{"category":"anti-social-behaviour","location_type":"Force","location":{"latitude":"51.551153","street":{"id":1694171,"name":"On or near Northwall Road"},"longitude":"-0.016478"},"context":"","outcome_status":null,"persistent_id":"","id":126357008,"location_subtype":"","month":"2025-02"},{"category":"anti-social-behaviour","location_type":"Force","location":{"latitude":"51.537966","street":{"id":1695341,"name":"On or near Rowse Close"},"longitude":"-0.007260"},"context":"","outcome_status":null,"persistent_id":"","id":126357251,"location_subtype":"","month":"2025-02"},{"category":"anti-social-behaviour","location_type":"Force","location":{"latitude":"51.550732","street":{"id":1692682,"name":"On or near Homerton Road"},"longitude":"-0.032045"},"context":"","outcome_status":null,"persistent_id":"","id":126357935,"location_subtype":"","month":"2025-02"},{"category":"anti-social-behaviour","location_type":"Force","location":{"latitude":"51.538760","street":{"id":1693443,"name":"On or near Smeed Road"},"longitude":"-0.023895"},"context":"","outcome_status":null,"persistent_id":"","id":126358491,"location_subtype":"","month":"2025-02"},{"category":"anti-social-behaviour","location_type":"Force","location":{"latitude":"51.560184","street":{"id":1695125,"name":"On or near Sidmouth Road"},"longitude":"-0.008684"},"context":"","outcome_status":null,"persistent_id":"","id":126358059,"location_subtype":"","month":"2025-02"},{"category":"anti-social-behaviour","location_type":"Force","location":{"latitude":"51.553033","street":{"id":1695502,"name":"On or near Gordon Road"},"longitude":"-0.006429"},"context":"","outcome_status":null,"persistent_id":"","id":126358103,"location_subtype":"","month":"2025-02"},{"category":"anti-social-behaviour","location_type":"Force","location":{"latitude":"51.544249","street":{"id":1696704,"name":"On or near Manbey Street"},"longitude":"0.006110"},"context":"","outcome_status":null,"persistent_id":"","id":126358910,"location_subtype":"","month":"2025-02"},{"category":"anti-social-behaviour","location_type":"Force","location":{"latitude":"51.553382","street":{"id":1695631,"name":"On or near Downsell Road"},"longitude":"-0.002100"},"context":"","outcome_status":null,"persistent_id":"","id":126358867,"location_subtype":"","month":"2025-02"},{"category":"anti-social-behaviour","location_type":"Force","location":{"latitude":"51.542365","street":{"id":1693050,"name":"On or near Cadogan Close"},"longitude":"-0.028599"},"context":"","outcome_status":null,"persistent_id":"","id":126358829,"location_subtype":"","month":"2025-02"},{"category":"anti-social-behaviour","location_type":"Force","location":{"latitude":"51.542536","street":{"id":1697249,"name":"On or near Tavistock Road"},"longitude":"0.011644"},"context":"","outcome_status":null,"persistent_id":"","id":126358726,"location_subtype":"","month":"2025-02"},{"category":"anti-social-behaviour","location_type":"Force","location":{"latitude":"51.555852","street":{"id":1695153,"name":"On or near Supermarket"},"longitude":"-0.009336"},"context":"","outcome_status":null,"persistent_id":"","id":126347332,"location_subtype":"","month":"2025-02"},{"category":"anti-social-behaviour","location_type":"Force","location":{"latitude":"51.540081","street":{"id":1693496,"name":"On or near Wyke Road"},"longitude":"-0.023261"},"context":"","outcome_status":null,"persistent_id":"","id":126346958,"location_subtype":"","month":"2025-02"},{"category":"anti-social-behaviour","location_type":"Force","location":{"latitude":"51.556387","street":{"id":1696277,"name":"On or near South Birkbeck Road"},"longitude":"0.001999"},"context":"","outcome_status":null,"persistent_id":"","id":126346890,"location_subtype":"","month":"2025-02"},{"category":"anti-social-behaviour","location_type":"Force","location":{"latitude":"51.539282","street":{"id":1693370,"name":"On or near Remus Road"},"longitude":"-0.024983"},"context":"","outcome_status":null,"persistent_id":"","id":126346695,"location_subtype":"","month":"2025-02"},{"category":"anti-social-behaviour","location_type":"Force","location":{"latitude":"51.544469","street":{"id":1693381,"name":"On or near Prince Edward Road"},"longitude":"-0.025912"},"context":"","outcome_status":null,"persistent_id":"","id":126347081,"location_subtype":"","month":"2025-02"},{"category":"anti-social-behaviour","location_type":"Force","location":{"latitude":"51.543293","street":{"id":1695343,"name":"On or near Shopping Area"},"longitude":"-0.006898"},"context":"","outcome_status":null,"persistent_id":"","id":126347054,"location_subtype":"","month":"2025-02"},{"category":"anti-social-behaviour","location_type":"Force","location":{"latitude":"51.541457","street":{"id":1697009,"name":"On or near White Road"},"longitude":"0.009506"},"context":"","outcome_status":null,"persistent_id":"","id":126346605,"location_subtype":"","month":"2025-02"},{"category":"anti-social-behaviour","location_type":"Force","location":{"latitude":"51.553068","street":{"id":1695909,"name":"On or near Ellingham Road"},"longitude":"-0.000585"},"context":"","outcome_status":null,"persistent_id":"","id":126346549,"location_subtype":"","month":"2025-02"},{"category":"anti-social-behaviour","location_type":"Force","location":{"latitude":"51.540890","street":{"id":1695796,"name":"On or near Stratford Bus Station"},"longitude":"-0.002042"},"context":"","outcome_status":null,"persistent_id":"","id":126347244,"location_subtype":"","month":"2025-02"},{"category":"anti-social-behaviour","location_type":"Force","location":{"latitude":"51.553033","street":{"id":1695502,"name":"On or near Gordon Road"},"longitude":"-0.006429"},"context":"","outcome_status":null,"persistent_id":"","id":126347353,"location_subtype":"","month":"2025-02"},{"category":"anti-social-behaviour","location_type":"Force","location":{"latitude":"51.544698","street":{"id":1693118,"name":"On or near Trowbridge Road"},"longitude":"-0.027806"},"context":"","outcome_status":null,"persistent_id":"","id":126346457,"location_subtype":"","month":"2025-02"},{"category":"anti-social-behaviour","location_type":"Force","location":{"latitude":"51.547465","street":{"id":1696774,"name":"On or near Thorogood Gardens"},"longitude":"0.008429"},"context":"","outcome_status":null,"persistent_id":"","id":126346041,"location_subtype":"","month":"2025-02"},{"category":"anti-social-behaviour","location_type":"Force","location":{"latitude":"51.538644","street":{"id":1696068,"name":"On or near New Mount Street"},"longitude":"-0.000078"},"context":"","outcome_status":null,"persistent_id":"","id":126345622,"location_subtype":"","month":"2025-02"},{"category":"anti-social-behaviour","location_type":"Force","location":{"latitude":"51.537966","street":{"id":1695341,"name":"On or near Rowse Close"},"longitude":"-0.007260"},"context":"","outcome_status":null,"persistent_id":"","id":126347421,"location_subtype":"","month":"2025-02"},{"category":"anti-social-behaviour","location_type":"Force","location":{"latitude":"51.542251","street":{"id":1695524,"name":"On or near Shopping Area"},"longitude":"-0.005047"},"context":"","outcome_status":null,"persistent_id":"","id":126347488,"location_subtype":"","month":"2025-02"},{"category":"anti-social-behaviour","location_type":"Force","location":{"latitude":"51.543803","street":{"id":1693172,"name":"On or near Biggs Square"},"longitude":"-0.027499"},"context":"","outcome_status":null,"persistent_id":"","id":126347494,"location_subtype":"","month":"2025-02"},{"category":"anti-social-behaviour","location_type":"Force","location":{"latitude":"51.539282","street":{"id":1693370,"name":"On or near Remus Road"},"longitude":"-0.024983"},"context":"","outcome_status":null,"persistent_id":"","id":126347983,"location_subtype":"","month":"2025-02"},{"category":"anti-social-behaviour","location_type":"Force","location":{"latitude":"51.547457","street":{"id":1694786,"name":"On or near Scarlet Close"},"longitude":"-0.012745"},"context":"","outcome_status":null,"persistent_id":"","id":126345534,"location_subtype":"","month":"2025-02"},{"category":"anti-social-behaviour","location_type":"Force","location":{"latitude":"51.540890","street":{"id":1695796,"name":"On or near Stratford Bus Station"},"longitude":"-0.002042"},"context":"","outcome_status":null,"persistent_id":"","id":126345531,"location_subtype":"","month":"2025-02"},{"category":"anti-social-behaviour","location_type":"Force","location":{"latitude":"51.544698","street":{"id":1693118,"name":"On or near Trowbridge Road"},"longitude":"-0.027806"},"context":"","outcome_status":null,"persistent_id":"","id":126347633,"location_subtype":"","month":"2025-02"},{"category":"anti-social-behaviour","location_type":"Force","location":{"latitude":"51.550375","street":{"id":1695894,"name":"On or near Chandos Road"},"longitude":"-0.000876"},"context":"","outcome_status":null,"persistent_id":"","id":126345979,"location_subtype":"","month":"2025-02"},{"category":"anti-social-behaviour","location_type":"Force","location":{"latitude":"51.540890","street":{"id":1695796,"name":"On or near Stratford Bus Station"},"longitude":"-0.002042"},"context":"","outcome_status":null,"persistent_id":"","id":126345852,"location_subtype":"","month":"2025-02"},{"category":"anti-social-behaviour","location_type":"Force","location":{"latitude":"51.536450","street":{"id":1693170,"name":"On or near Ruston Street"},"longitude":"-0.027153"},"context":"","outcome_status":null,"persistent_id":"","id":126345466,"location_subtype":"","month":"2025-02"},{"category":"anti-social-behaviour","location_type":"Force","location":{"latitude":"51.541170","street":{"id":1695761,"name":"On or near Docklands Light Railway"},"longitude":"-0.003183"},"context":"","outcome_status":null,"persistent_id":"","id":126345418,"location_subtype":"","month":"2025-02"},{"category":"anti-social-behaviour","location_type":"Force","location":{"latitude":"51.559568","street":{"id":1695892,"name":"On or near Claremont Road"},"longitude":"-0.002060"},"context":"","outcome_status":null,"persistent_id":"","id":126345585,"location_subtype":"","month":"2025-02"},{"category":"anti-social-behaviour","location_type":"Force","location":{"latitude":"51.544768","street":{"id":1693216,"name":"On or near Gainsborough Street"},"longitude":"-0.027125"},"context":"","outcome_status":null,"persistent_id":"","id":126356338,"location_subtype":"","month":"2025-02"},{"category":"anti-social-behaviour","location_type":"Force","location":{"latitude":"51.543465","street":{"id":1693386,"name":"On or near Wallis Road"},"longitude":"-0.025581"},"context":"","outcome_status":null,"persistent_id":"","id":126353167,"location_subtype":"","month":"2025-02"},{"category":"anti-social-behaviour","location_type":"Force","location":{"latitude":"51.555207","street":{"id":1696351,"name":"On or near Union Close"},"longitude":"0.003187"},"context":"","outcome_status":null,"persistent_id":"","id":126353585,"location_subtype":"","month":"2025-02"},{"category":"anti-social-behaviour","location_type":"Force","location":{"latitude":"51.536735","street":{"id":1693393,"name":"On or near Hart Yard"},"longitude":"-0.023767"},"context":"","outcome_status":null,"persistent_id":"","id":126350825,"location_subtype":"","month":"2025-02"},{"category":"anti-social-behaviour","location_type":"Force","location":{"latitude":"51.547608","street":{"id":1696367,"name":"On or near Maryland Street"},"longitude":"0.003733"},"context":"","outcome_status":null,"persistent_id":"","id":126349018,"location_subtype":"","month":"2025-02"},{"category":"anti-social-behaviour","location_type":"Force","location":{"latitude":"51.543293","street":{"id":1695343,"name":"On or near Shopping Area"},"longitude":"-0.006898"},"context":"","outcome_status":null,"persistent_id":"","id":126345582,"location_subtype":"","month":"2025-02"},{"category":"anti-social-behaviour","location_type":"Force","location":{"latitude":"51.560625","street":{"id":1695022,"name":"On or near Osborne Road"},"longitude":"-0.010785"},"context":"","outcome_status":null,"persistent_id":"","id":126360341,"location_subtype":"","month":"2025-02"},{"category":"anti-social-behaviour","location_type":"Force","location":{"latitude":"51.548946","street":{"id":1695724,"name":"On or near Henrietta Street"},"longitude":"-0.003564"},"context":"","outcome_status":null,"persistent_id":"","id":126360296,"location_subtype":"","month":"2025-02"},{"category":"anti-social-behaviour","location_type":"Force","location":{"latitude":"51.540890","street":{"id":1695796,"name":"On or near Stratford Bus Station"},"longitude":"-0.002042"},"context":"","outcome_status":null,"persistent_id":"","id":126360467,"location_subtype":"","month":"2025-02"},{"category":"anti-social-behaviour","location_type":"Force","location":{"latitude":"51.544768","street":{"id":1693216,"name":"On or near Gainsborough Street"},"longitude":"-0.027125"},"context":"","outcome_status":null,"persistent_id":"","id":126360411,"location_subtype":"","month":"2025-02"},{"category":"anti-social-behaviour","location_type":"Force","location":{"latitude":"51.547578","street":{"id":1693105,"name":"On or near Southmoor Way"},"longitude":"-0.027422"},"context":"","outcome_status":null,"persistent_id":"","id":126359942,"location_subtype":"","month":"2025-02"},{"category":"anti-social-behaviour","location_type":"Force","location":{"latitude":"51.537761","street":{"id":1693593,"name":"On or near Dace Road"},"longitude":"-0.023290"},"context":"","outcome_status":null,"persistent_id":"","id":126351912,"location_subtype":"","month":"2025-02"},{"category":"anti-social-behaviour","location_type":"Force","location":{"latitude":"51.541457","street":{"id":1697009,"name":"On or near White Road"},"longitude":"0.009506"},"context":"","outcome_status":null,"persistent_id":"","id":126352153,"location_subtype":"","month":"2025-02"},{"category":"anti-social-behaviour","location_type":"Force","location":{"latitude":"51.540695","street":{"id":1696215,"name":"On or near Tramway Avenue"},"longitude":"0.002536"},"context":"","outcome_status":null,"persistent_id":"","id":126359861,"location_subtype":"","month":"2025-02"},{"category":"anti-social-behaviour","location_type":"Force","location":{"latitude":"51.553068","street":{"id":1695909,"name":"On or near Ellingham Road"},"longitude":"-0.000585"},"context":"","outcome_status":null,"persistent_id":"","id":126360104,"location_subtype":"","month":"2025-02"},{"category":"anti-social-behaviour","location_type":"Force","location":{"latitude":"51.547541","street":{"id":1696558,"name":"On or near Carolina Close"},"longitude":"0.005014"},"context":"","outcome_status":null,"persistent_id":"","id":126352257,"location_subtype":"","month":"2025-02"},{"category":"anti-social-behaviour","location_type":"Force","location":{"latitude":"51.543293","street":{"id":1695343,"name":"On or near Shopping Area"},"longitude":"-0.006898"},"context":"","outcome_status":null,"persistent_id":"","id":126359695,"location_subtype":"","month":"2025-02"},{"category":"anti-social-behaviour","location_type":"Force","location":{"latitude":"51.540695","street":{"id":1696215,"name":"On or near Tramway Avenue"},"longitude":"0.002536"},"context":"","outcome_status":null,"persistent_id":"","id":126352668,"location_subtype":"","month":"2025-02"},{"category":"anti-social-behaviour","location_type":"Force","location":{"latitude":"51.545610","street":{"id":1697200,"name":"On or near Torrens Square"},"longitude":"0.010684"},"context":"","outcome_status":null,"persistent_id":"","id":126352964,"location_subtype":"","month":"2025-02"},{"category":"anti-social-behaviour","location_type":"Force","location":{"latitude":"51.541457","street":{"id":1697009,"name":"On or near White Road"},"longitude":"0.009506"},"context":"","outcome_status":null,"persistent_id":"","id":126359288,"location_subtype":"","month":"2025-02"},{"category":"anti-social-behaviour","location_type":"Force","location":{"latitude":"51.543077","street":{"id":1696754,"name":"On or near Deanery Road"},"longitude":"0.006808"},"context":"","outcome_status":null,"persistent_id":"","id":126353007,"location_subtype":"","month":"2025-02"},{"category":"anti-social-behaviour","location_type":"Force","location":{"latitude":"51.537966","street":{"id":1695341,"name":"On or near Rowse Close"},"longitude":"-0.007260"},"context":"","outcome_status":null,"persistent_id":"","id":126353294,"location_subtype":"","month":"2025-02"},{"category":"anti-social-behaviour","location_type":"Force","location":{"latitude":"51.556927","street":{"id":1695633,"name":"On or near Leyton"},"longitude":"-0.004845"},"context":"","outcome_status":null,"persistent_id":"","id":126359124,"location_subtype":"","month":"2025-02"},{"category":"anti-social-behaviour","location_type":"Force","location":{"latitude":"51.546529","street":{"id":1696161,"name":"On or near Waddington Road"},"longitude":"0.001075"},"context":"","outcome_status":null,"persistent_id":"","id":126353917,"location_subtype":"","month":"2025-02"},{"category":"anti-social-behaviour","location_type":"Force","location":{"latitude":"51.540695","street":{"id":1696215,"name":"On or near Tramway Avenue"},"longitude":"0.002536"},"context":"","outcome_status":null,"persistent_id":"","id":126359090,"location_subtype":"","month":"2025-02"},{"category":"anti-social-behaviour","location_type":"Force","location":{"latitude":"51.544462","street":{"id":1695111,"name":"On or near Roundhouse Lane"},"longitude":"-0.010106"},"context":"","outcome_status":null,"persistent_id":"","id":126352277,"location_subtype":"","month":"2025-02"},{"category":"anti-social-behaviour","location_type":"Force","location":{"latitude":"51.556927","street":{"id":1695633,"name":"On or near Leyton"},"longitude":"-0.004845"},"context":"","outcome_status":null,"persistent_id":"","id":126353359,"location_subtype":"","month":"2025-02"},{"category":"anti-social-behaviour","location_type":"Force","location":{"latitude":"51.547278","street":{"id":1697055,"name":"On or near Warner Close"},"longitude":"0.009373"},"context":"","outcome_status":null,"persistent_id":"","id":126353687,"location_subtype":"","month":"2025-02"},{"category":"anti-social-behaviour","location_type":"Force","location":{"latitude":"51.536119","street":{"id":1695087,"name":"On or near Bridgewater Road"},"longitude":"-0.008076"},"context":"","outcome_status":null,"persistent_id":"","id":126354186,"location_subtype":"","month":"2025-02"},{"category":"anti-social-behaviour","location_type":"Force","location":{"latitude":"51.552959","street":{"id":1694983,"name":"On or near Temple Mills Lane"},"longitude":"-0.010052"},"context":"","outcome_status":null,"persistent_id":"","id":126354938,"location_subtype":"","month":"2025-02"},{"category":"anti-social-behaviour","location_type":"Force","location":{"latitude":"51.545279","street":{"id":1695446,"name":"On or near Parking Area"},"longitude":"-0.006840"},"context":"","outcome_status":null,"persistent_id":"","id":126345920,"location_subtype":"","month":"2025-02"},{"category":"anti-social-behaviour","location_type":"Force","location":{"latitude":"51.552866","street":{"id":1696938,"name":"On or near Marlborough Road"},"longitude":"0.008624"},"context":"","outcome_status":null,"persistent_id":"","id":126345487,"location_subtype":"","month":"2025-02"},{"category":"anti-social-behaviour","location_type":"Force","location":{"latitude":"51.553116","street":{"id":1697005,"name":"On or near Blenheim Road"},"longitude":"0.009226"},"context":"","outcome_status":null,"persistent_id":"","id":126359478,"location_subtype":"","month":"2025-02"},{"category":"anti-social-behaviour","location_type":"Force","location":{"latitude":"51.552866","street":{"id":1696938,"name":"On or near Marlborough Road"},"longitude":"0.008624"},"context":"","outcome_status":null,"persistent_id":"","id":126359385,"location_subtype":"","month":"2025-02"},{"category":"anti-social-behaviour","location_type":"Force","location":{"latitude":"51.543801","street":{"id":1693012,"name":"On or near East Cross Route"},"longitude":"-0.028999"},"context":"","outcome_status":null,"persistent_id":"","id":126359323,"location_subtype":"","month":"2025-02"},{"category":"anti-social-behaviour","location_type":"Force","location":{"latitude":"51.543769","street":{"id":1696479,"name":"On or near The Grove"},"longitude":"0.004228"},"context":"","outcome_status":null,"persistent_id":"","id":126358977,"location_subtype":"","month":"2025-02"},{"category":"anti-social-behaviour","location_type":"Force","location":{"latitude":"51.542575","street":{"id":1696618,"name":"On or near Litchfield Avenue"},"longitude":"0.005675"},"context":"","outcome_status":null,"persistent_id":"","id":126354944,"location_subtype":"","month":"2025-02"},{"category":"anti-social-behaviour","location_type":"Force","location":{"latitude":"51.554109","street":{"id":1696707,"name":"On or near Steele Road"},"longitude":"0.006399"},"context":"","outcome_status":null,"persistent_id":"","id":126354453,"location_subtype":"","month":"2025-02"},{"category":"anti-social-behaviour","location_type":"Force","location":{"latitude":"51.551082","street":{"id":1696901,"name":"On or near Janson Road"},"longitude":"0.008314"},"context":"","outcome_status":null,"persistent_id":"","id":126354455,"location_subtype":"","month":"2025-02"},{"category":"anti-social-behaviour","location_type":"Force","location":{"latitude":"51.549121","street":{"id":1693027,"name":"On or near Crowfoot Close"},"longitude":"-0.028754"},"context":"","outcome_status":null,"persistent_id":"","id":126354804,"location_subtype":"","month":"2025-02"},{"category":"anti-social-behaviour","location_type":"Force","location":{"latitude":"51.537202","street":{"id":1695778,"name":"On or near Further/higher Educational Building"},"longitude":"-0.002492"},"context":"","outcome_status":null,"persistent_id":"","id":126354530,"location_subtype":"","month":"2025-02"},{"category":"anti-social-behaviour","location_type":"Force","location":{"latitude":"51.548171","street":{"id":1696100,"name":"On or near Community Road"},"longitude":"0.000268"},"context":"","outcome_status":null,"persistent_id":"","id":126354598,"location_subtype":"","month":"2025-02"},{"category":"anti-social-behaviour","location_type":"Force","location":{"latitude":"51.541032","street":{"id":1696022,"name":"On or near Service Route No 1"},"longitude":"-0.000363"},"context":"","outcome_status":null,"persistent_id":"","id":126354620,"location_subtype":"","month":"2025-02"},{"category":"anti-social-behaviour","location_type":"Force","location":{"latitude":"51.537639","street":{"id":1693168,"name":"On or near East Cross Route"},"longitude":"-0.025689"},"context":"","outcome_status":null,"persistent_id":"","id":126355391,"location_subtype":"","month":"2025-02"},{"category":"anti-social-behaviour","location_type":"Force","location":{"latitude":"51.540695","street":{"id":1696215,"name":"On or near Tramway Avenue"},"longitude":"0.002536"},"context":"","outcome_status":null,"persistent_id":"","id":126355403,"location_subtype":"","month":"2025-02"},{"category":"anti-social-behaviour","location_type":"Force","location":{"latitude":"51.560184","street":{"id":1695125,"name":"On or near Sidmouth Road"},"longitude":"-0.008684"},"context":"","outcome_status":null,"persistent_id":"","id":126356111,"location_subtype":"","month":"2025-02"},{"category":"anti-social-behaviour","location_type":"Force","location":{"latitude":"51.540890","street":{"id":1695796,"name":"On or near Stratford Bus Station"},"longitude":"-0.002042"},"context":"","outcome_status":null,"persistent_id":"","id":126356272,"location_subtype":"","month":"2025-02"},{"category":"anti-social-behaviour","location_type":"Force","location":{"latitude":"51.551043","street":{"id":1695523,"name":"On or near High Road Leyton"},"longitude":"-0.004164"},"context":"","outcome_status":null,"persistent_id":"","id":126356809,"location_subtype":"","month":"2025-02"},{"category":"anti-social-behaviour","location_type":"Force","location":{"latitude":"51.541032","street":{"id":1696022,"name":"On or near Service Route No 1"},"longitude":"-0.000363"},"context":"","outcome_status":null,"persistent_id":"","id":126356500,"location_subtype":"","month":"2025-02"},{"category":"anti-social-behaviour","location_type":"Force","location":{"latitude":"51.548676","street":{"id":1694584,"name":"On or near Keirin Road"},"longitude":"-0.013600"},"context":"","outcome_status":null,"persistent_id":"","id":126357100,"location_subtype":"","month":"2025-02"},{"category":"anti-social-behaviour","location_type":"Force","location":{"latitude":"51.543769","street":{"id":1696479,"name":"On or near The Grove"},"longitude":"0.004228"},"context":"","outcome_status":null,"persistent_id":"","id":126357511,"location_subtype":"","month":"2025-02"},{"category":"anti-social-behaviour","location_type":"Force","location":{"latitude":"51.538364","street":{"id":1693732,"name":"On or near Bream Street"},"longitude":"-0.022269"},"context":"","outcome_status":null,"persistent_id":"","id":126357595,"location_subtype":"","month":"2025-02"},{"category":"anti-social-behaviour","location_type":"Force","location":{"latitude":"51.540890","street":{"id":1695796,"name":"On or near Stratford Bus Station"},"longitude":"-0.002042"},"context":"","outcome_status":null,"persistent_id":"","id":126349617,"location_subtype":"","month":"2025-02"},{"category":"anti-social-behaviour","location_type":"Force","location":{"latitude":"51.545870","street":{"id":1696695,"name":"On or near Manbey Park Road"},"longitude":"0.006008"},"context":"","outcome_status":null,"persistent_id":"","id":126349719,"location_subtype":"","month":"2025-02"},{"category":"anti-social-behaviour","location_type":"Force","location":{"latitude":"51.545533","street":{"id":1693589,"name":"On or near East Bay Lane"},"longitude":"-0.021857"},"context":"","outcome_status":null,"persistent_id":"","id":126349838,"location_subtype":"","month":"2025-02"},{"category":"anti-social-behaviour","location_type":"Force","location":{"latitude":"51.546548","street":{"id":1693103,"name":"On or near Osborne Road"},"longitude":"-0.028159"},"context":"","outcome_status":null,"persistent_id":"","id":126349867,"location_subtype":"","month":"2025-02"},{"category":"anti-social-behaviour","location_type":"Force","location":{"latitude":"51.548376","street":{"id":1696924,"name":"On or near Albert Square"},"longitude":"0.009277"},"context":"","outcome_status":null,"persistent_id":"","id":126349963,"location_subtype":"","month":"2025-02"},{"category":"anti-social-behaviour","location_type":"Force","location":{"latitude":"51.542536","street":{"id":1697249,"name":"On or near Tavistock Road"},"longitude":"0.011644"},"context":"","outcome_status":null,"persistent_id":"","id":126350476,"location_subtype":"","month":"2025-02"},{"category":"anti-social-behaviour","location_type":"Force","location":{"latitude":"51.550905","street":{"id":1692686,"name":"On or near King's Mead Way"},"longitude":"-0.031634"},"context":"","outcome_status":null,"persistent_id":"","id":126345581,"location_subtype":"","month":"2025-02"},{"category":"anti-social-behaviour","location_type":"Force","location":{"latitude":"51.542672","street":{"id":1694989,"name":"On or near Westfield Avenue"},"longitude":"-0.009549"},"context":"","outcome_status":null,"persistent_id":"","id":126350949,"location_subtype":"","month":"2025-02"},{"category":"anti-social-behaviour","location_type":"Force","location":{"latitude":"51.533461","street":{"id":1695285,"name":"On or near Godfrey Street"},"longitude":"-0.006736"},"context":"","outcome_status":null,"persistent_id":"","id":126350772,"location_subtype":"","month":"2025-02"},{"category":"anti-social-behaviour","location_type":"Force","location":{"latitude":"51.540081","street":{"id":1693496,"name":"On or near Wyke Road"},"longitude":"-0.023261"},"context":"","outcome_status":null,"persistent_id":"","id":126350894,"location_subtype":"","month":"2025-02"},{"category":"anti-social-behaviour","location_type":"Force","location":{"latitude":"51.557207","street":{"id":1695467,"name":"On or near Maud Road"},"longitude":"-0.006549"},"context":"","outcome_status":null,"persistent_id":"","id":126350520,"location_subtype":"","month":"2025-02"},{"category":"anti-social-behaviour","location_type":"Force","location":{"latitude":"51.556927","street":{"id":1695633,"name":"On or near Leyton"},"longitude":"-0.004845"},"context":"","outcome_status":null,"persistent_id":"","id":126350548,"location_subtype":"","month":"2025-02"},{"category":"anti-social-behaviour","location_type":"Force","location":{"latitude":"51.543769","street":{"id":1696479,"name":"On or near The Grove"},"longitude":"0.004228"},"context":"","outcome_status":null,"persistent_id":"","id":126350622,"location_subtype":"","month":"2025-02"},{"category":"anti-social-behaviour","location_type":"Force","location":{"latitude":"51.544462","street":{"id":1695111,"name":"On or near Roundhouse Lane"},"longitude":"-0.010106"},"context":"","outcome_status":null,"persistent_id":"","id":126350668,"location_subtype":"","month":"2025-02"},{"category":"anti-social-behaviour","location_type":"Force","location":{"latitude":"51.543872","street":{"id":1696240,"name":"On or near Oxford Road"},"longitude":"0.001363"},"context":"","outcome_status":null,"persistent_id":"","id":126350691,"location_subtype":"","month":"2025-02"},{"category":"anti-social-behaviour","location_type":"Force","location":{"latitude":"51.536415","street":{"id":1695371,"name":"On or near Warton Road"},"longitude":"-0.007515"},"context":"","outcome_status":null,"persistent_id":"","id":126351546,"location_subtype":"","month":"2025-02"},{"category":"anti-social-behaviour","location_type":"Force","location":{"latitude":"51.546548","street":{"id":1693103,"name":"On or near Osborne Road"},"longitude":"-0.028159"},"context":"","outcome_status":null,"persistent_id":"","id":126351553,"location_subtype":"","month":"2025-02"},{"category":"anti-social-behaviour","location_type":"Force","location":{"latitude":"51.547278","street":{"id":1697055,"name":"On or near Warner Close"},"longitude":"0.009373"},"context":"","outcome_status":null,"persistent_id":"","id":126351987,"location_subtype":"","month":"2025-02"},{"category":"anti-social-behaviour","location_type":"Force","location":{"latitude":"51.533461","street":{"id":1695285,"name":"On or near Godfrey Street"},"longitude":"-0.006736"},"context":"","outcome_status":null,"persistent_id":"","id":126351629,"location_subtype":"","month":"2025-02"},{"category":"anti-social-behaviour","location_type":"Force","location":{"latitude":"51.536450","street":{"id":1693170,"name":"On or near Ruston Street"},"longitude":"-0.027153"},"context":"","outcome_status":null,"persistent_id":"","id":126351736,"location_subtype":"","month":"2025-02"},{"category":"anti-social-behaviour","location_type":"Force","location":{"latitude":"51.547802","street":{"id":1696773,"name":"On or near Maryland Park"},"longitude":"0.007131"},"context":"","outcome_status":null,"persistent_id":"","id":126352221,"location_subtype":"","month":"2025-02"},{"category":"anti-social-behaviour","location_type":"Force","location":{"latitude":"51.553068","street":{"id":1695909,"name":"On or near Ellingham Road"},"longitude":"-0.000585"},"context":"","outcome_status":null,"persistent_id":"","id":126352240,"location_subtype":"","month":"2025-02"},{"category":"anti-social-behaviour","location_type":"Force","location":{"latitude":"51.555496","street":{"id":1695903,"name":"On or near Frith Road"},"longitude":"-0.002181"},"context":"","outcome_status":null,"persistent_id":"","id":126352273,"location_subtype":"","month":"2025-02"},{"category":"anti-social-behaviour","location_type":"Force","location":{"latitude":"51.559568","street":{"id":1695892,"name":"On or near Claremont Road"},"longitude":"-0.002060"},"context":"","outcome_status":null,"persistent_id":"","id":126353055,"location_subtype":"","month":"2025-02"},{"category":"anti-social-behaviour","location_type":"Force","location":{"latitude":"51.536871","street":{"id":1695685,"name":"On or near Park Lane"},"longitude":"-0.004193"},"context":"","outcome_status":null,"persistent_id":"","id":126353950,"location_subtype":"","month":"2025-02"},{"category":"anti-social-behaviour","location_type":"Force","location":{"latitude":"51.548376","street":{"id":1696924,"name":"On or near Albert Square"},"longitude":"0.009277"},"context":"","outcome_status":null,"persistent_id":"","id":126353713,"location_subtype":"","month":"2025-02"},{"category":"anti-social-behaviour","location_type":"Force","location":{"latitude":"51.551282","street":{"id":1696568,"name":"On or near Wingfield Road"},"longitude":"0.005005"},"context":"","outcome_status":null,"persistent_id":"","id":126353727,"location_subtype":"","month":"2025-02"},{"category":"anti-social-behaviour","location_type":"Force","location":{"latitude":"51.547452","street":{"id":1695205,"name":"On or near Celebration Avenue"},"longitude":"-0.008201"},"context":"","outcome_status":null,"persistent_id":"","id":126354374,"location_subtype":"","month":"2025-02"},{"category":"anti-social-behaviour","location_type":"Force","location":{"latitude":"51.540890","street":{"id":1695796,"name":"On or near Stratford Bus Station"},"longitude":"-0.002042"},"context":"","outcome_status":null,"persistent_id":"","id":126354827,"location_subtype":"","month":"2025-02"},{"category":"anti-social-behaviour","location_type":"Force","location":{"latitude":"51.543872","street":{"id":1696240,"name":"On or near Oxford Road"},"longitude":"0.001363"},"context":"","outcome_status":null,"persistent_id":"","id":126355138,"location_subtype":"","month":"2025-02"},{"category":"anti-social-behaviour","location_type":"Force","location":{"latitude":"51.543293","street":{"id":1695343,"name":"On or near Shopping Area"},"longitude":"-0.006898"},"context":"","outcome_status":null,"persistent_id":"","id":126355559,"location_subtype":"","month":"2025-02"},{"category":"anti-social-behaviour","location_type":"Force","location":{"latitude":"51.553295","street":{"id":1695433,"name":"On or near Cranbourne Road"},"longitude":"-0.006489"},"context":"","outcome_status":null,"persistent_id":"","id":126355560,"location_subtype":"","month":"2025-02"},{"category":"anti-social-behaviour","location_type":"Force","location":{"latitude":"51.543465","street":{"id":1693386,"name":"On or near Wallis Road"},"longitude":"-0.025581"},"context":"","outcome_status":null,"persistent_id":"","id":126355603,"location_subtype":"","month":"2025-02"},{"category":"anti-social-behaviour","location_type":"Force","location":{"latitude":"51.549451","street":{"id":1692965,"name":"On or near Lee Conservancy Road"},"longitude":"-0.029129"},"context":"","outcome_status":null,"persistent_id":"","id":126355646,"location_subtype":"","month":"2025-02"},{"category":"anti-social-behaviour","location_type":"Force","location":{"latitude":"51.541457","street":{"id":1697009,"name":"On or near White Road"},"longitude":"0.009506"},"context":"","outcome_status":null,"persistent_id":"","id":126355667,"location_subtype":"","month":"2025-02"},{"category":"anti-social-behaviour","location_type":"Force","location":{"latitude":"51.535788","street":{"id":1695669,"name":"On or near Wise Road"},"longitude":"-0.003967"},"context":"","outcome_status":null,"persistent_id":"","id":126354694,"location_subtype":"","month":"2025-02"},{"category":"anti-social-behaviour","location_type":"Force","location":{"latitude":"51.540695","street":{"id":1696215,"name":"On or near Tramway Avenue"},"longitude":"0.002536"},"context":"","outcome_status":null,"persistent_id":"","id":126354712,"location_subtype":"","month":"2025-02"},{"category":"anti-social-behaviour","location_type":"Force","location":{"latitude":"51.546991","street":{"id":1696512,"name":"On or near Francis Street"},"longitude":"0.004600"},"context":"","outcome_status":null,"persistent_id":"","id":126355333,"location_subtype":"","month":"2025-02"},{"category":"anti-social-behaviour","location_type":"Force","location":{"latitude":"51.545140","street":{"id":1693223,"name":"On or near Berkshire Road"},"longitude":"-0.025710"},"context":"","outcome_status":null,"persistent_id":"","id":126356167,"location_subtype":"","month":"2025-02"},{"category":"anti-social-behaviour","location_type":"Force","location":{"latitude":"51.541170","street":{"id":1695761,"name":"On or near Docklands Light Railway"},"longitude":"-0.003183"},"context":"","outcome_status":null,"persistent_id":"","id":126355921,"location_subtype":"","month":"2025-02"},{"category":"anti-social-behaviour","location_type":"Force","location":{"latitude":"51.544249","street":{"id":1696704,"name":"On or near Manbey Street"},"longitude":"0.006110"},"context":"","outcome_status":null,"persistent_id":"","id":126348311,"location_subtype":"","month":"2025-02"},{"category":"anti-social-behaviour","location_type":"Force","location":{"latitude":"51.547452","street":{"id":1695205,"name":"On or near Celebration Avenue"},"longitude":"-0.008201"},"context":"","outcome_status":null,"persistent_id":"","id":126347655,"location_subtype":"","month":"2025-02"},{"category":"anti-social-behaviour","location_type":"Force","location":{"latitude":"51.540890","street":{"id":1695796,"name":"On or near Stratford Bus Station"},"longitude":"-0.002042"},"context":"","outcome_status":null,"persistent_id":"","id":126356408,"location_subtype":"","month":"2025-02"},{"category":"anti-social-behaviour","location_type":"Force","location":{"latitude":"51.558051","street":{"id":1695221,"name":"On or near York Road"},"longitude":"-0.009066"},"context":"","outcome_status":null,"persistent_id":"","id":126356060,"location_subtype":"","month":"2025-02"},{"category":"anti-social-behaviour","location_type":"Force","location":{"latitude":"51.546991","street":{"id":1696512,"name":"On or near Francis Street"},"longitude":"0.004600"},"context":"","outcome_status":null,"persistent_id":"","id":126356514,"location_subtype":"","month":"2025-02"},{"category":"anti-social-behaviour","location_type":"Force","location":{"latitude":"51.546635","street":{"id":1693219,"name":"On or near Silk Mills Square"},"longitude":"-0.025876"},"context":"","outcome_status":null,"persistent_id":"","id":126356597,"location_subtype":"","month":"2025-02"},{"category":"anti-social-behaviour","location_type":"Force","location":{"latitude":"51.545870","street":{"id":1696695,"name":"On or near Manbey Park Road"},"longitude":"0.006008"},"context":"","outcome_status":null,"persistent_id":"","id":126356885,"location_subtype":"","month":"2025-02"},{"category":"anti-social-behaviour","location_type":"Force","location":{"latitude":"51.544462","street":{"id":1695111,"name":"On or near Roundhouse Lane"},"longitude":"-0.010106"},"context":"","outcome_status":null,"persistent_id":"","id":126348934,"location_subtype":"","month":"2025-02"},{"category":"anti-social-behaviour","location_type":"Force","location":{"latitude":"51.541149","street":{"id":1696824,"name":"On or near Maiden Road"},"longitude":"0.008612"},"context":"","outcome_status":null,"persistent_id":"","id":126348600,"location_subtype":"","month":"2025-02"},{"category":"anti-social-behaviour","location_type":"Force","location":{"latitude":"51.539282","street":{"id":1693370,"name":"On or near Remus Road"},"longitude":"-0.024983"},"context":"","outcome_status":null,"persistent_id":"","id":126349250,"location_subtype":"","month":"2025-02"},{"category":"anti-social-behaviour","location_type":"Force","location":{"latitude":"51.552300","street":{"id":1697078,"name":"On or near Devonshire Close"},"longitude":"0.010171"},"context":"","outcome_status":null,"persistent_id":"","id":126348690,"location_subtype":"","month":"2025-02"},{"category":"anti-social-behaviour","location_type":"Force","location":{"latitude":"51.550226","street":{"id":1696288,"name":"On or near Newton Road"},"longitude":"0.002608"},"context":"","outcome_status":null,"persistent_id":"","id":126349154,"location_subtype":"","month":"2025-02"},{"category":"anti-social-behaviour","location_type":"Force","location":{"latitude":"51.549209","street":{"id":1694880,"name":"On or near Millers Row"},"longitude":"-0.011586"},"context":"","outcome_status":null,"persistent_id":"","id":126349316,"location_subtype":"","month":"2025-02"},{"category":"anti-social-behaviour","location_type":"Force","location":{"latitude":"51.542672","street":{"id":1694989,"name":"On or near Westfield Avenue"},"longitude":"-0.009549"},"context":"","outcome_status":null,"persistent_id":"","id":126349442,"location_subtype":"","month":"2025-02"},{"category":"anti-social-behaviour","location_type":"Force","location":{"latitude":"51.559568","street":{"id":1695892,"name":"On or near Claremont Road"},"longitude":"-0.002060"},"context":"","outcome_status":null,"persistent_id":"","id":126349603,"location_subtype":"","month":"2025-02"},{"category":"anti-social-behaviour","location_type":"Force","location":{"latitude":"51.545870","street":{"id":1696695,"name":"On or near Manbey Park Road"},"longitude":"0.006008"},"context":"","outcome_status":null,"persistent_id":"","id":126349606,"location_subtype":"","month":"2025-02"},{"category":"bicycle-theft","location_type":"Force","location":{"latitude":"51.542107","street":{"id":1696018,"name":"On or near Service Route No 3"},"longitude":"-0.000099"},"context":"","outcome_status":{"category":"Investigation complete; no suspect identified","date":"2025-02"},"persistent_id":"9f3786ee6812914b53a22e05456e5611b9436794428bbba2b4d01ce569db86c1","id":126394825,"location_subtype":"","month":"2025-02"},{"category":"bicycle-theft","location_type":"Force","location":{"latitude":"51.543994","street":{"id":1696569,"name":"On or near Park Avenue"},"longitude":"0.004728"},"context":"","outcome_status":{"category":"Investigation complete; no suspect identified","date":"2025-02"},"persistent_id":"768d8a3b8d96465919a597d82dbdfb33aec7944ce6b0ad87b409952858953c8f","id":126394634,"location_subtype":"","month":"2025-02"},{"category":"bicycle-theft","location_type":"Force","location":{"latitude":"51.540695","street":{"id":1696215,"name":"On or near Tramway Avenue"},"longitude":"0.002536"},"context":"","outcome_status":{"category":"Investigation complete; no suspect identified","date":"2025-03"},"persistent_id":"a05c1a801e9f67d3175814b6c2d5091e7a7bef8cdf1350f050eeea4e4618e0fe","id":126370971,"location_subtype":"","month":"2025-02"},{"category":"bicycle-theft","location_type":"Force","location":{"latitude":"51.539058","street":{"id":1695782,"name":"On or near Jupp Road"},"longitude":"-0.002728"},"context":"","outcome_status":{"category":"Investigation complete; no suspect identified","date":"2025-10"},"persistent_id":"1a02a9acfe83f67ad0803bab75ffad08365b10e05f44fb17c134587f4a8c8c37","id":126394574,"location_subtype":"","month":"2025-02"},{"category":"bicycle-theft","location_type":"Force","location":{"latitude":"51.543994","street":{"id":1696569,"name":"On or near Park Avenue"},"longitude":"0.004728"},"context":"","outcome_status":{"category":"Investigation complete; no suspect identified","date":"2025-02"},"persistent_id":"ba27e234c99b3e3e025dc18aa2ca7db60d8815476383ae4cf55c47eef02fef62","id":126394680,"location_subtype":"","month":"2025-02"},{"category":"bicycle-theft","location_type":"Force","location":{"latitude":"51.543293","street":{"id":1695343,"name":"On or near Shopping Area"},"longitude":"-0.006898"},"context":"","outcome_status":{"category":"Investigation complete; no suspect identified","date":"2025-02"},"persistent_id":"82038782992322162f7082607d7d37a2e91650404aefb63c340dc83ab95f1985","id":126394535,"location_subtype":"","month":"2025-02"},{"category":"bicycle-theft","location_type":"Force","location":{"latitude":"51.547202","street":{"id":1696636,"name":"On or near Luxembourg Mews"},"longitude":"0.006470"},"context":"","outcome_status":{"category":"Investigation complete; no suspect identified","date":"2025-02"},"persistent_id":"667b5416f2e6b29a52417a17e23cdeefe8991b1bc1930c3852830d392c65005c","id":126394931,"location_subtype":"","month":"2025-02"},{"category":"bicycle-theft","location_type":"Force","location":{"latitude":"51.546608","street":{"id":1695950,"name":"On or near Dorset Place"},"longitude":"-0.001431"},"context":"","outcome_status":{"category":"Unable to prosecute suspect","date":"2025-02"},"persistent_id":"c4e161aa3a7e8cc2227ba4049d18968f7717b74ee1c0a53b81dfddd2bad0363d","id":126394808,"location_subtype":"","month":"2025-02"},{"category":"bicycle-theft","location_type":"Force","location":{"latitude":"51.545533","street":{"id":1693589,"name":"On or near East Bay Lane"},"longitude":"-0.021857"},"context":"","outcome_status":{"category":"Investigation complete; no suspect identified","date":"2025-02"},"persistent_id":"e9af6bed16159fa5ba83197d909d4c28eaaa07185427d390418fd618ab1521fa","id":126394503,"location_subtype":"","month":"2025-02"},{"category":"bicycle-theft","location_type":"Force","location":{"latitude":"51.552163","street":{"id":1695805,"name":"On or near Drapers Road"},"longitude":"-0.002327"},"context":"","outcome_status":{"category":"Investigation complete; no suspect identified","date":"2025-02"},"persistent_id":"dfca1cf295c24cc43cecad2b0711e24083e95604814cef85702ceed92b3da6f8","id":126394317,"location_subtype":"","month":"2025-02"},{"category":"bicycle-theft","location_type":"Force","location":{"latitude":"51.555852","street":{"id":1695153,"name":"On or near Supermarket"},"longitude":"-0.009336"},"context":"","outcome_status":{"category":"Investigation complete; no suspect identified","date":"2025-02"},"persistent_id":"b78ab21dc2881e12f7d3080a410de5907f3f26fdf7d70f84aa11067d6529a3e0","id":126394826,"location_subtype":"","month":"2025-02"},{"category":"bicycle-theft","location_type":"Force","location":{"latitude":"51.555852","street":{"id":1695153,"name":"On or near Supermarket"},"longitude":"-0.009336"},"context":"","outcome_status":{"category":"Unable to prosecute suspect","date":"2025-10"},"persistent_id":"b90bdda1db859f970a792e529d48f7bf89c2702e6a96a9cd849da7eadb8ee7bf","id":126394688,"location_subtype":"","month":"2025-02"},{"category":"bicycle-theft","location_type":"Force","location":{"latitude":"51.540695","street":{"id":1696215,"name":"On or near Tramway Avenue"},"longitude":"0.002536"},"context":"","outcome_status":{"category":"Investigation complete; no suspect identified","date":"2025-03"},"persistent_id":"4388e19c71cac3dd8f8e02b5b3708c71cd4b7f5274601bbb7d6bed4936e0e193","id":126394396,"location_subtype":"","month":"2025-02"},{"category":"bicycle-theft","location_type":"Force","location":{"latitude":"51.555852","street":{"id":1695153,"name":"On or near Supermarket"},"longitude":"-0.009336"},"context":"","outcome_status":{"category":"Investigation complete; no suspect identified","date":"2025-02"},"persistent_id":"bdc550d2a34fc5c7cec36ddf956dc8b91f1fa11c8947ab270523807c59ef165b","id":126394337,"location_subtype":"","month":"2025-02"},{"category":"bicycle-theft","location_type":"Force","location":{"latitude":"51.540695","street":{"id":1696215,"name":"On or near Tramway Avenue"},"longitude":"0.002536"},"context":"","outcome_status":{"category":"Investigation complete; no suspect identified","date":"2025-09"},"persistent_id":"2d3b64fc1e27a8b624a2151aa82cf4f9068dc38a5b22afd1a44799f910c7aa4e","id":126394354,"location_subtype":"","month":"2025-02"},{"category":"bicycle-theft","location_type":"Force","location":{"latitude":"51.542251","street":{"id":1695524,"name":"On or near Shopping Area"},"longitude":"-0.005047"},"context":"","outcome_status":{"category":"Investigation complete; no suspect identified","date":"2025-03"},"persistent_id":"671ac76c609911e4ab2aba7e21b81686bab25d89b130a86145ba9f6007091afd","id":126394364,"location_subtype":"","month":"2025-02"},{"category":"bicycle-theft","location_type":"Force","location":{"latitude":"51.542251","street":{"id":1695524,"name":"On or near Shopping Area"},"longitude":"-0.005047"},"context":"","outcome_status":{"category":"Investigation complete; no suspect identified","date":"2025-02"},"persistent_id":"c35c60429cf7521f4ac9023e69451c6c4a1550188a0dfc7310776dc44ea7279d","id":126395004,"location_subtype":"","month":"2025-02"},{"category":"bicycle-theft","location_type":"Force","location":{"latitude":"51.540695","street":{"id":1696215,"name":"On or near Tramway Avenue"},"longitude":"0.002536"},"context":"","outcome_status":{"category":"Investigation complete; no suspect identified","date":"2025-03"},"persistent_id":"59b78d0446c88abe0615f839dd5159659e4da6ce6c921d1f5fb85ba613ab56c3","id":126370989,"location_subtype":"","month":"2025-02"},{"category":"burglary","location_type":"Force","location":{"latitude":"51.545058","street":{"id":1696166,"name":"On or near Millstone Close"},"longitude":"0.001415"},"context":"","outcome_status":{"category":"Investigation complete; no suspect identified","date":"2025-02"},"persistent_id":"0724f1fc96c2561ab59d1c53e8d075f01830d2d2894655e24e0556538d3a6fea","id":126378169,"location_subtype":"","month":"2025-02"},{"category":"burglary","location_type":"Force","location":{"latitude":"51.552442","street":{"id":1696685,"name":"On or near Borthwick Mews"},"longitude":"0.006095"},"context":"","outcome_status":{"category":"Investigation complete; no suspect identified","date":"2025-02"},"persistent_id":"eca8842f7f1ca2677e053df2665ef85bb3df975089c7fc8ff715b1234a6b31cd","id":126381499,"location_subtype":"","month":"2025-02"},{"category":"burglary","location_type":"Force","location":{"latitude":"51.543994","street":{"id":1696569,"name":"On or near Park Avenue"},"longitude":"0.004728"},"context":"","outcome_status":{"category":"Investigation complete; no suspect identified","date":"2025-02"},"persistent_id":"106eac591c2dc2c112110e14cf58f790f00214044a1fda65f4e4bdadeddc9257","id":126382138,"location_subtype":"","month":"2025-02"},{"category":"burglary","location_type":"Force","location":{"latitude":"51.542251","street":{"id":1695524,"name":"On or near Shopping Area"},"longitude":"-0.005047"},"context":"","outcome_status":{"category":"Investigation complete; no suspect identified","date":"2025-02"},"persistent_id":"d65c2f3440c1b9ecab9f160e6d4da2043f7cfe559eddef30883a7e90d6cba83c","id":126381746,"location_subtype":"","month":"2025-02"},{"category":"burglary","location_type":"Force","location":{"latitude":"51.537639","street":{"id":1693168,"name":"On or near East Cross Route"},"longitude":"-0.025689"},"context":"","outcome_status":{"category":"Investigation complete; no suspect identified","date":"2025-02"},"persistent_id":"8fa0d492e17e65a61da56bcf9fd3498a897e430643162e9811ce8fe254283f21","id":126381457,"location_subtype":"","month":"2025-02"},{"category":"burglary","location_type":"Force","location":{"latitude":"51.538705","street":{"id":1696529,"name":"On or near West Ham Lane"},"longitude":"0.004813"},"context":"","outcome_status":{"category":"Investigation complete; no suspect identified","date":"2025-03"},"persistent_id":"0af4022746ec4b1c514c0ba69236394396b355cea407fcf1e397663eb39b131b","id":126378617,"location_subtype":"","month":"2025-02"},{"category":"burglary","location_type":"Force","location":{"latitude":"51.537124","street":{"id":1696577,"name":"On or near Barnby Street"},"longitude":"0.005205"},"context":"","outcome_status":{"category":"Investigation complete; no suspect identified","date":"2025-02"},"persistent_id":"1e4b54d823dc76d4c2137e60106f6c99f89bcd2803f720354a6e17d48b3eb880","id":126378238,"location_subtype":"","month":"2025-02"},{"category":"burglary","location_type":"Force","location":{"latitude":"51.543483","street":{"id":1695160,"name":"On or near Shopping Area"},"longitude":"-0.009647"},"context":"","outcome_status":{"category":"Awaiting court outcome","date":"2026-01"},"persistent_id":"17e68b23d673802e1822b96002d896498e0cedb6b151e803ea55b4aca235da0f","id":126381663,"location_subtype":"","month":"2025-02"},{"category":"burglary","location_type":"Force","location":{"latitude":"51.543293","street":{"id":1695343,"name":"On or near Shopping Area"},"longitude":"-0.006898"},"context":"","outcome_status":{"category":"Awaiting court outcome","date":"2025-11"},"persistent_id":"81c714022028d18f94672e7f1728a91d469d324ac631c8d186e6e207ab6e9676","id":126382187,"location_subtype":"","month":"2025-02"},{"category":"burglary","location_type":"Force","location":{"latitude":"51.545870","street":{"id":1696695,"name":"On or near Manbey Park Road"},"longitude":"0.006008"},"context":"","outcome_status":{"category":"Investigation complete; no suspect identified","date":"2025-02"},"persistent_id":"787af7cc56aed77a733dfa661d9ae8b8955c6ce51e8b4b182d7abe262df361ec","id":126377711,"location_subtype":"","month":"2025-02"},{"category":"burglary","location_type":"Force","location":{"latitude":"51.544612","street":{"id":1696698,"name":"On or near Manbey Road"},"longitude":"0.005938"},"context":"","outcome_status":{"category":"Investigation complete; no suspect identified","date":"2025-02"},"persistent_id":"fe9b1bdbff7ba8b0daaba87a87190ed81813965bef01ec2c240e18ae47141b41","id":126377715,"location_subtype":"","month":"2025-02"},{"category":"burglary","location_type":"Force","location":{"latitude":"51.541428","street":{"id":1696815,"name":"On or near Glenavon Road"},"longitude":"0.007557"},"context":"","outcome_status":{"category":"Status update unavailable","date":"2025-06"},"persistent_id":"faacb55f2ac821a5d6747e0b0f50eb857fa30dcf2cc464cbd977d056cb6ab890","id":126378748,"location_subtype":"","month":"2025-02"},{"category":"burglary","location_type":"Force","location":{"latitude":"51.547860","street":{"id":1695507,"name":"On or near Elis Way"},"longitude":"-0.005789"},"context":"","outcome_status":{"category":"Investigation complete; no suspect identified","date":"2025-03"},"persistent_id":"7d8797cd0c253accce0fcff1be9b337498c8e313bf6b3d25dd81fc1148030087","id":126382027,"location_subtype":"","month":"2025-02"},{"category":"burglary","location_type":"Force","location":{"latitude":"51.543293","street":{"id":1695343,"name":"On or near Shopping Area"},"longitude":"-0.006898"},"context":"","outcome_status":{"category":"Court result unavailable","date":"2025-08"},"persistent_id":"ab212ab80735e8b42925836df3404e4bd821a396df06faad3e4ad83d97135412","id":126382185,"location_subtype":"","month":"2025-02"},{"category":"burglary","location_type":"Force","location":{"latitude":"51.555852","street":{"id":1695153,"name":"On or near Supermarket"},"longitude":"-0.009336"},"context":"","outcome_status":{"category":"Investigation complete; no suspect identified","date":"2025-02"},"persistent_id":"a5fe80803366028e8825c315d34d6389948166c997c9fe0c949ff103eea96086","id":126381985,"location_subtype":"","month":"2025-02"},{"category":"burglary","location_type":"Force","location":{"latitude":"51.554909","street":{"id":1695929,"name":"On or near Brierley Road"},"longitude":"0.000607"},"context":"","outcome_status":{"category":"Investigation complete; no suspect identified","date":"2025-02"},"persistent_id":"73fdccfdf8e710065304d49f1660085bb5b1e000a21480588f2c40dd2391d39c","id":126379681,"location_subtype":"","month":"2025-02"},{"category":"burglary","location_type":"Force","location":{"latitude":"51.548458","street":{"id":1695235,"name":"On or near Cheering Lane"},"longitude":"-0.006600"},"context":"","outcome_status":{"category":"Investigation complete; no suspect identified","date":"2025-03"},"persistent_id":"3afdd5fa951dd9c51c059a032c23d7220bdf389a6b3da1c183f5fb540f95d916","id":126379021,"location_subtype":"","month":"2025-02"},{"category":"burglary","location_type":"Force","location":{"latitude":"51.547278","street":{"id":1697055,"name":"On or near Warner Close"},"longitude":"0.009373"},"context":"","outcome_status":{"category":"Investigation complete; no suspect identified","date":"2025-06"},"persistent_id":"6cb9cc84795b132a9dbde0468555faf5fc3021946f21a51b6f4380edf655f683","id":126377877,"location_subtype":"","month":"2025-02"},{"category":"burglary","location_type":"Force","location":{"latitude":"51.535788","street":{"id":1695669,"name":"On or near Wise Road"},"longitude":"-0.003967"},"context":"","outcome_status":{"category":"Investigation complete; no suspect identified","date":"2025-04"},"persistent_id":"7723a7c8888979c06c6600bd93413600f2f5f0d53cd02b7f1a4b7d71354e929c","id":126378472,"location_subtype":"","month":"2025-02"},{"category":"burglary","location_type":"Force","location":{"latitude":"51.550375","street":{"id":1695894,"name":"On or near Chandos Road"},"longitude":"-0.000876"},"context":"","outcome_status":{"category":"Investigation complete; no suspect identified","date":"2025-06"},"persistent_id":"5fa0f4f0b6aa603e0790b6fd12b99d4b7a7285192a551b02de5f45d9c4629b70","id":126378981,"location_subtype":"","month":"2025-02"},{"category":"burglary","location_type":"Force","location":{"latitude":"51.546880","street":{"id":1694536,"name":"On or near Olympic Park Avenue"},"longitude":"-0.013765"},"context":"","outcome_status":{"category":"Investigation complete; no suspect identified","date":"2025-04"},"persistent_id":"4b887383d7279a841ddd9a74ff743701800b30bec222856871c0616ba6146064","id":126379207,"location_subtype":"","month":"2025-02"},{"category":"burglary","location_type":"Force","location":{"latitude":"51.546501","street":{"id":1697085,"name":"On or near Keogh Road"},"longitude":"0.010103"},"context":"","outcome_status":{"category":"Investigation complete; no suspect identified","date":"2025-07"},"persistent_id":"2cdf3df2cd1a575520e393b40230dde22eb9aa339f1935ceef75376cccdba1e2","id":126380088,"location_subtype":"","month":"2025-02"},{"category":"burglary","location_type":"Force","location":{"latitude":"51.548057","street":{"id":1695462,"name":"On or near Liberty Bridge Road"},"longitude":"-0.006257"},"context":"","outcome_status":{"category":"Investigation complete; no suspect identified","date":"2025-03"},"persistent_id":"5307679087cc28f83bea997db274395c101b5c82ce87e92a8f27f126bb017d26","id":126380254,"location_subtype":"","month":"2025-02"},{"category":"burglary","location_type":"Force","location":{"latitude":"51.545720","street":{"id":1695083,"name":"On or near Stratford International"},"longitude":"-0.009474"},"context":"","outcome_status":{"category":"Investigation complete; no suspect identified","date":"2025-05"},"persistent_id":"06b9a7588e6211bf9bec8fd2bf3bda357fae53383a9b321deafffa6d2e71a246","id":126381849,"location_subtype":"","month":"2025-02"},{"category":"burglary","location_type":"Force","location":{"latitude":"51.540695","street":{"id":1696215,"name":"On or near Tramway Avenue"},"longitude":"0.002536"},"context":"","outcome_status":{"category":"Status update unavailable","date":"2025-06"},"persistent_id":"62dffc5ea5b4ed5d42e5612b4287b76dd9c1293ca1d78e83a78ad3a7e70a973c","id":126382116,"location_subtype":"","month":"2025-02"},{"category":"burglary","location_type":"Force","location":{"latitude":"51.543293","street":{"id":1695343,"name":"On or near Shopping Area"},"longitude":"-0.006898"},"context":"","outcome_status":{"category":"Awaiting court outcome","date":"2025-11"},"persistent_id":"cc5fb392d4c6324402521e41d45628cf054d9b413b32cf7fefe06fe8cccc1c7e","id":126382221,"location_subtype":"","month":"2025-02"},{"category":"burglary","location_type":"Force","location":{"latitude":"51.541032","street":{"id":1696022,"name":"On or near Service Route No 1"},"longitude":"-0.000363"},"context":"","outcome_status":{"category":"Investigation complete; no suspect identified","date":"2025-06"},"persistent_id":"e5e8e21574e5b835e72b86deca698e9d23381e3c050c5ba9524506e8ada2df98","id":126381974,"location_subtype":"","month":"2025-02"},{"category":"burglary","location_type":"Force","location":{"latitude":"51.544612","street":{"id":1696698,"name":"On or near Manbey Road"},"longitude":"0.005938"},"context":"","outcome_status":{"category":"Investigation complete; no suspect identified","date":"2025-06"},"persistent_id":"237d72e38bbc91dafb7cb7e7d5f095267ba10cc5faef0ead89e8e8af487ad504","id":126380216,"location_subtype":"","month":"2025-02"},{"category":"burglary","location_type":"Force","location":{"latitude":"51.551347","street":{"id":1695997,"name":"On or near Colegrave Road"},"longitude":"-0.000906"},"context":"","outcome_status":{"category":"Investigation complete; no suspect identified","date":"2025-05"},"persistent_id":"55fff5ad0c27f9029a2a230d393e2b2cd1fd4d4e5538616da5eff5bd3d775af9","id":126379001,"location_subtype":"","month":"2025-02"},{"category":"burglary","location_type":"Force","location":{"latitude":"51.559596","street":{"id":1695741,"name":"On or near Warren Avenue"},"longitude":"-0.003198"},"context":"","outcome_status":{"category":"Investigation complete; no suspect identified","date":"2025-11"},"persistent_id":"c38bf8dfaaea4f3cff773b59959413744dd9dd9f6b10d03182c1631b1872f5de","id":126380108,"location_subtype":"","month":"2025-02"},{"category":"burglary","location_type":"Force","location":{"latitude":"51.543293","street":{"id":1695343,"name":"On or near Shopping Area"},"longitude":"-0.006898"},"context":"","outcome_status":{"category":"Court result unavailable","date":"2026-01"},"persistent_id":"00d088c85ae5b5f7afd788332cd01ff2b358df2f74955054db9ec06ca1893e30","id":126382001,"location_subtype":"","month":"2025-02"},{"category":"burglary","location_type":"Force","location":{"latitude":"51.543293","street":{"id":1695343,"name":"On or near Shopping Area"},"longitude":"-0.006898"},"context":"","outcome_status":{"category":"Status update unavailable","date":"2025-06"},"persistent_id":"5e3776faf0d2653cb98ba80ddedb06710e10b71c4be219a097eabe162c9a4c23","id":126381989,"location_subtype":"","month":"2025-02"},{"category":"burglary","location_type":"Force","location":{"latitude":"51.543293","street":{"id":1695343,"name":"On or near Shopping Area"},"longitude":"-0.006898"},"context":"","outcome_status":{"category":"Awaiting court outcome","date":"2025-09"},"persistent_id":"8c58127c0c9703f0bd644d69fe130dcb3a071b7356854a092420206f4b75b874","id":126382258,"location_subtype":"","month":"2025-02"},{"category":"burglary","location_type":"Force","location":{"latitude":"51.560184","street":{"id":1695125,"name":"On or near Sidmouth Road"},"longitude":"-0.008684"},"context":"","outcome_status":{"category":"Investigation complete; no suspect identified","date":"2025-05"},"persistent_id":"ee09a8497f258dcbea7fb66ebdf3fa8749f0eb2dde25e05b209edad490fabf95","id":126379075,"location_subtype":"","month":"2025-02"},{"category":"criminal-damage-arson","location_type":"Force","location":{"latitude":"51.542240","street":{"id":1697153,"name":"On or near Flint Close"},"longitude":"0.011040"},"context":"","outcome_status":{"category":"Investigation complete; no suspect identified","date":"2025-02"},"persistent_id":"f603d316c257d40a3c393c0a903fc4ab17e15c09c3d9942f9d6f484fa6341ea1","id":126372310,"location_subtype":"","month":"2025-02"},{"category":"criminal-damage-arson","location_type":"Force","location":{"latitude":"51.555496","street":{"id":1695903,"name":"On or near Frith Road"},"longitude":"-0.002181"},"context":"","outcome_status":{"category":"Investigation complete; no suspect identified","date":"2025-02"},"persistent_id":"c94ffc0e0c4f0513b1eb09ce8314c6496ce19e5cc5feda528d2826b7ec73dd8f","id":126371163,"location_subtype":"","month":"2025-02"},{"category":"criminal-damage-arson","location_type":"Force","location":{"latitude":"51.552300","street":{"id":1697078,"name":"On or near Devonshire Close"},"longitude":"0.010171"},"context":"","outcome_status":{"category":"Investigation complete; no suspect identified","date":"2025-03"},"persistent_id":"c6b29ddc32e4278c3ce8080d8c696996b90d1f23bdb4cef5628532932af328c7","id":126371213,"location_subtype":"","month":"2025-02"},{"category":"criminal-damage-arson","location_type":"Force","location":{"latitude":"51.554841","street":{"id":1695890,"name":"On or near Millais Road"},"longitude":"-0.002209"},"context":"","outcome_status":{"category":"Unable to prosecute suspect","date":"2025-03"},"persistent_id":"85986d7b6c9db14d0b642d4a5f2ca61b3caa2047999a13117a6b022fa8d316c8","id":126373442,"location_subtype":"","month":"2025-02"},{"category":"criminal-damage-arson","location_type":"Force","location":{"latitude":"51.542240","street":{"id":1697153,"name":"On or near Flint Close"},"longitude":"0.011040"},"context":"","outcome_status":{"category":"Investigation complete; no suspect identified","date":"2025-02"},"persistent_id":"5011852ab7bbdbe2c1d10fb760715653ed23547999d685131e685f40350eeaa8","id":126372321,"location_subtype":"","month":"2025-02"},{"category":"criminal-damage-arson","location_type":"Force","location":{"latitude":"51.552898","street":{"id":1695918,"name":"On or near Stewart Road"},"longitude":"-0.001689"},"context":"","outcome_status":{"category":"Investigation complete; no suspect identified","date":"2025-02"},"persistent_id":"d3c64dae1bb66a2e8e0fbc29f03ce69dd265dad07420479a19ae37f9f9382b94","id":126372210,"location_subtype":"","month":"2025-02"},{"category":"criminal-damage-arson","location_type":"Force","location":{"latitude":"51.552360","street":{"id":1696794,"name":"On or near Borthwick Road"},"longitude":"0.007721"},"context":"","outcome_status":{"category":"Unable to prosecute suspect","date":"2025-02"},"persistent_id":"94754470f81322c8529bca678af4471ceb462ba2b54bfa9219e22b33372f4f8e","id":126371973,"location_subtype":"","month":"2025-02"},{"category":"criminal-damage-arson","location_type":"Force","location":{"latitude":"51.553850","street":{"id":1696495,"name":"On or near Victoria Road"},"longitude":"0.004166"},"context":"","outcome_status":{"category":"Court result unavailable","date":"2025-12"},"persistent_id":"589589ee8526b45daf0a679898662f9ce0661438ba122d1028f49781580004a4","id":126372576,"location_subtype":"","month":"2025-02"},{"category":"criminal-damage-arson","location_type":"Force","location":{"latitude":"51.555890","street":{"id":1696291,"name":"On or near Oakum Square"},"longitude":"0.002698"},"context":"","outcome_status":{"category":"Investigation complete; no suspect identified","date":"2025-02"},"persistent_id":"5e133b83a2153f081ebae28fa4b96026437ac733a422cadb014e021ba3e3d280","id":126373170,"location_subtype":"","month":"2025-02"},{"category":"criminal-damage-arson","location_type":"Force","location":{"latitude":"51.542240","street":{"id":1697153,"name":"On or near Flint Close"},"longitude":"0.011040"},"context":"","outcome_status":{"category":"Investigation complete; no suspect identified","date":"2025-02"},"persistent_id":"e3054f2e5394dfeb561a69ccd34015a97d89b1e55fe2516bab664b83e334a17a","id":126372917,"location_subtype":"","month":"2025-02"},{"category":"criminal-damage-arson","location_type":"Force","location":{"latitude":"51.554841","street":{"id":1695890,"name":"On or near Millais Road"},"longitude":"-0.002209"},"context":"","outcome_status":{"category":"Investigation complete; no suspect identified","date":"2025-02"},"persistent_id":"8ce60f58539c2d54d34c4b11c4fb5abf569e8122372ab7c5dab048b7fbd5ab84","id":126371586,"location_subtype":"","month":"2025-02"},{"category":"criminal-damage-arson","location_type":"Force","location":{"latitude":"51.547452","street":{"id":1695205,"name":"On or near Celebration Avenue"},"longitude":"-0.008201"},"context":"","outcome_status":{"category":"Investigation complete; no suspect identified","date":"2025-02"},"persistent_id":"e8909e285b7e37db1fc5372f7ef4abc1652ff735b16dfaae372a2b20f3c632a3","id":126371405,"location_subtype":"","month":"2025-02"},{"category":"criminal-damage-arson","location_type":"Force","location":{"latitude":"51.542672","street":{"id":1694989,"name":"On or near Westfield Avenue"},"longitude":"-0.009549"},"context":"","outcome_status":{"category":"Investigation complete; no suspect identified","date":"2025-04"},"persistent_id":"706c991642cde2d3c63f3cf00c3497cb46211c953d4cf4235b81d5a36497fe8f","id":126373584,"location_subtype":"","month":"2025-02"},{"category":"criminal-damage-arson","location_type":"Force","location":{"latitude":"51.548376","street":{"id":1696924,"name":"On or near Albert Square"},"longitude":"0.009277"},"context":"","outcome_status":{"category":"Investigation complete; no suspect identified","date":"2025-02"},"persistent_id":"a8946258a99d26d2f950f3d04424437078f7438fc321443cd9337ec243c8d440","id":126373578,"location_subtype":"","month":"2025-02"},{"category":"criminal-damage-arson","location_type":"Force","location":{"latitude":"51.557658","street":{"id":1695384,"name":"On or near Alexandra Road"},"longitude":"-0.007135"},"context":"","outcome_status":{"category":"Investigation complete; no suspect identified","date":"2025-03"},"persistent_id":"ff14c07407a19d59ba6f404206401a2213e4d4e22984625c9eb34c71ae326da3","id":126374754,"location_subtype":"","month":"2025-02"},{"category":"criminal-damage-arson","location_type":"Force","location":{"latitude":"51.553033","street":{"id":1695502,"name":"On or near Gordon Road"},"longitude":"-0.006429"},"context":"","outcome_status":{"category":"Unable to prosecute suspect","date":"2025-03"},"persistent_id":"c30b0f20ec68f0823dd0094311605bf4995db4df81cad7a4495dc16ade829dc8","id":126371019,"location_subtype":"","month":"2025-02"},{"category":"criminal-damage-arson","location_type":"Force","location":{"latitude":"51.554841","street":{"id":1695890,"name":"On or near Millais Road"},"longitude":"-0.002209"},"context":"","outcome_status":{"category":"Investigation complete; no suspect identified","date":"2025-03"},"persistent_id":"156ddd5a19fa19465c6dddbe90f5bda503e4fb4637767f2e9b1c0f9959d0d608","id":126371570,"location_subtype":"","month":"2025-02"},{"category":"criminal-damage-arson","location_type":"Force","location":{"latitude":"51.546036","street":{"id":1692868,"name":"On or near Lavington Close"},"longitude":"-0.029796"},"context":"","outcome_status":{"category":"Investigation complete; no suspect identified","date":"2025-04"},"persistent_id":"5bb85cc3d5c2b66d67f19b2542131c3ecb66401da16288ec076ca56c10f81f23","id":126374516,"location_subtype":"","month":"2025-02"},{"category":"criminal-damage-arson","location_type":"Force","location":{"latitude":"51.545021","street":{"id":1693153,"name":"On or near Brinkworth Way"},"longitude":"-0.027230"},"context":"","outcome_status":{"category":"Investigation complete; no suspect identified","date":"2025-04"},"persistent_id":"b1cd8a5bbf604ab2d58a4b2d13e81ae84ac2461acd4afe2b451c4f43481dce9c","id":126371882,"location_subtype":"","month":"2025-02"},{"category":"criminal-damage-arson","location_type":"Force","location":{"latitude":"51.555852","street":{"id":1695153,"name":"On or near Supermarket"},"longitude":"-0.009336"},"context":"","outcome_status":{"category":"Investigation complete; no suspect identified","date":"2025-03"},"persistent_id":"a62567d7288fe1ba13cbfdaff7b4e1a40b6afa1d962ef59921a5718567f8f7b5","id":126372487,"location_subtype":"","month":"2025-02"},{"category":"criminal-damage-arson","location_type":"Force","location":{"latitude":"51.542503","street":{"id":1697013,"name":"On or near Further/higher Educational Building"},"longitude":"0.009719"},"context":"","outcome_status":{"category":"Status update unavailable","date":"2025-06"},"persistent_id":"ca55afeac63c4a5a92c2e477fdb2610b0d7390c36c3fbc392e4355480a309b0e","id":126372852,"location_subtype":"","month":"2025-02"},{"category":"criminal-damage-arson","location_type":"Force","location":{"latitude":"51.555496","street":{"id":1695903,"name":"On or near Frith Road"},"longitude":"-0.002181"},"context":"","outcome_status":{"category":"Investigation complete; no suspect identified","date":"2025-02"},"persistent_id":"f6d7e4658b3942d6e4b19d95c8fdaffd4494a57759287b9457d4b163e3f26dfc","id":126374664,"location_subtype":"","month":"2025-02"},{"category":"criminal-damage-arson","location_type":"Force","location":{"latitude":"51.546745","street":{"id":1692767,"name":"On or near Shalbourne Square"},"longitude":"-0.030242"},"context":"","outcome_status":{"category":"Investigation complete; no suspect identified","date":"2025-03"},"persistent_id":"5ad9ce46b5eaf910c0b1eaae485384f13c5e71501dae54cc93c0be8c3dbd5ec8","id":126310235,"location_subtype":"","month":"2025-02"},{"category":"criminal-damage-arson","location_type":"Force","location":{"latitude":"51.555496","street":{"id":1695903,"name":"On or near Frith Road"},"longitude":"-0.002181"},"context":"","outcome_status":{"category":"Investigation complete; no suspect identified","date":"2025-02"},"persistent_id":"56b6526a3be9ee8a938c1e8b2d917c00c62e24c807723ae4c8644c72ae80c212","id":126373794,"location_subtype":"","month":"2025-02"},{"category":"criminal-damage-arson","location_type":"Force","location":{"latitude":"51.540695","street":{"id":1696215,"name":"On or near Tramway Avenue"},"longitude":"0.002536"},"context":"","outcome_status":{"category":"Investigation complete; no suspect identified","date":"2025-03"},"persistent_id":"d3950179539c90a68f71aa28e9408a3d881681332b4ff2ac89d6a1f60be97972","id":126374577,"location_subtype":"","month":"2025-02"},{"category":"criminal-damage-arson","location_type":"Force","location":{"latitude":"51.542575","street":{"id":1696618,"name":"On or near Litchfield Avenue"},"longitude":"0.005675"},"context":"","outcome_status":{"category":"Investigation complete; no suspect identified","date":"2025-02"},"persistent_id":"b032f2147d58f779c59a403a7a6a59ef8913d1ecf4d5da3e9165b3a2d0d0e56b","id":126373852,"location_subtype":"","month":"2025-02"},{"category":"criminal-damage-arson","location_type":"Force","location":{"latitude":"51.555496","street":{"id":1695903,"name":"On or near Frith Road"},"longitude":"-0.002181"},"context":"","outcome_status":{"category":"Local resolution","date":"2025-03"},"persistent_id":"110207e5fbb37b25cd4601e63bb08dc3694c5b6e56780d0fca08eaf4e0032554","id":126373936,"location_subtype":"","month":"2025-02"},{"category":"criminal-damage-arson","location_type":"Force","location":{"latitude":"51.543293","street":{"id":1695343,"name":"On or near Shopping Area"},"longitude":"-0.006898"},"context":"","outcome_status":{"category":"Investigation complete; no suspect identified","date":"2025-03"},"persistent_id":"cf5eb261219405ed4b46b207104a314486815f268f1a3219ca62c85538e89a55","id":126373363,"location_subtype":"","month":"2025-02"},{"category":"criminal-damage-arson","location_type":"Force","location":{"latitude":"51.539282","street":{"id":1693370,"name":"On or near Remus Road"},"longitude":"-0.024983"},"context":"","outcome_status":{"category":"Investigation complete; no suspect identified","date":"2025-05"},"persistent_id":"3064f725e6891ab00da25f7ee4c57f226207bdc8dae14b1ed949aca9ede69a43","id":126373277,"location_subtype":"","month":"2025-02"},{"category":"criminal-damage-arson","location_type":"Force","location":{"latitude":"51.542575","street":{"id":1696618,"name":"On or near Litchfield Avenue"},"longitude":"0.005675"},"context":"","outcome_status":{"category":"Investigation complete; no suspect identified","date":"2025-03"},"persistent_id":"61b0db1d88223f4f4653d8b897cc384d809f681bd995c2eb4c293656007fb77f","id":126373497,"location_subtype":"","month":"2025-02"},{"category":"criminal-damage-arson","location_type":"Force","location":{"latitude":"51.546788","street":{"id":1696325,"name":"On or near David Street"},"longitude":"0.002760"},"context":"","outcome_status":{"category":"Unable to prosecute suspect","date":"2025-04"},"persistent_id":"4e169d818b24f79a3b4f9ddf5d469a89e4529894ef9a13c49d63146427980ead","id":126373424,"location_subtype":"","month":"2025-02"},{"category":"criminal-damage-arson","location_type":"Force","location":{"latitude":"51.553702","street":{"id":1696607,"name":"On or near Belton Road"},"longitude":"0.005516"},"context":"","outcome_status":{"category":"Investigation complete; no suspect identified","date":"2025-03"},"persistent_id":"a3efb47f58d451dfb909879c1901c0b4d62ed2a8f69441ebf319760f5eb448cb","id":126372969,"location_subtype":"","month":"2025-02"},{"category":"criminal-damage-arson","location_type":"Force","location":{"latitude":"51.545576","street":{"id":1696248,"name":"On or near Windmill Lane"},"longitude":"0.002130"},"context":"","outcome_status":{"category":"Investigation complete; no suspect identified","date":"2025-04"},"persistent_id":"7f6e0a0a0e2f94fe38c2782628a7708b450550818feb74614e6fb2e69a385a61","id":126372673,"location_subtype":"","month":"2025-02"},{"category":"criminal-damage-arson","location_type":"Force","location":{"latitude":"51.542251","street":{"id":1695524,"name":"On or near Shopping Area"},"longitude":"-0.005047"},"context":"","outcome_status":{"category":"Local resolution","date":"2025-02"},"persistent_id":"fbdb18d4a115fdb8340ffdfedf5da6fbf1f62d466517b0308481a903671f79f8","id":126374136,"location_subtype":"","month":"2025-02"},{"category":"criminal-damage-arson","location_type":"Force","location":{"latitude":"51.542251","street":{"id":1695524,"name":"On or near Shopping Area"},"longitude":"-0.005047"},"context":"","outcome_status":{"category":"Investigation complete; no suspect identified","date":"2025-02"},"persistent_id":"31d61bca14c283abb691420ab9c40d1cb31a1e3c2745179b8838f415046c2683","id":126374186,"location_subtype":"","month":"2025-02"},{"category":"criminal-damage-arson","location_type":"Force","location":{"latitude":"51.560184","street":{"id":1695125,"name":"On or near Sidmouth Road"},"longitude":"-0.008684"},"context":"","outcome_status":{"category":"Investigation complete; no suspect identified","date":"2025-02"},"persistent_id":"66d20af2a16e251abf9a20104fb839d63628affb7e3e3629739775b13037d559","id":126374196,"location_subtype":"","month":"2025-02"},{"category":"criminal-damage-arson","location_type":"Force","location":{"latitude":"51.549134","street":{"id":1693392,"name":"On or near Parking Area"},"longitude":"-0.023677"},"context":"","outcome_status":{"category":"Investigation complete; no suspect identified","date":"2025-03"},"persistent_id":"262b9303bf355c9bb1a603801aa7d341f666beac82807e37cc2185623adc8171","id":126373652,"location_subtype":"","month":"2025-02"},{"category":"criminal-damage-arson","location_type":"Force","location":{"latitude":"51.543483","street":{"id":1695160,"name":"On or near Shopping Area"},"longitude":"-0.009647"},"context":"","outcome_status":{"category":"Investigation complete; no suspect identified","date":"2025-04"},"persistent_id":"ad3bde300d513290351b8a391141c1a6a17cefcdc60adfb9aad1d34b52e6d137","id":126373676,"location_subtype":"","month":"2025-02"},{"category":"criminal-damage-arson","location_type":"Force","location":{"latitude":"51.555852","street":{"id":1695153,"name":"On or near Supermarket"},"longitude":"-0.009336"},"context":"","outcome_status":{"category":"Investigation complete; no suspect identified","date":"2025-07"},"persistent_id":"cbbe437260e55b1d0fc4f9a0f0f2cfe043e7ddb41c019bb142edf0b3b8e3e3ca","id":126374625,"location_subtype":"","month":"2025-02"},{"category":"criminal-damage-arson","location_type":"Force","location":{"latitude":"51.557365","street":{"id":1696124,"name":"On or near North Birkbeck Road"},"longitude":"0.001652"},"context":"","outcome_status":{"category":"Investigation complete; no suspect identified","date":"2025-03"},"persistent_id":"894a21acf53c4dd4190fc46b4336d3ca646d0c6ddc064dfa24ed178f059cc834","id":126374214,"location_subtype":"","month":"2025-02"},{"category":"drugs","location_type":"Force","location":{"latitude":"51.542251","street":{"id":1695524,"name":"On or near Shopping Area"},"longitude":"-0.005047"},"context":"","outcome_status":{"category":"Local resolution","date":"2025-03"},"persistent_id":"55040271ccd142257e8295d5e82c2697041559063f7b70cc04421c2a67da205e","id":126428037,"location_subtype":"","month":"2025-02"},{"category":"drugs","location_type":"Force","location":{"latitude":"51.549115","street":{"id":1697149,"name":"On or near Gawsworth Close"},"longitude":"0.010766"},"context":"","outcome_status":{"category":"Status update unavailable","date":"2025-06"},"persistent_id":"434e6776e8c58ad4faed0df86611df9185941f73235e9382bbbb054f4c36995d","id":126428014,"location_subtype":"","month":"2025-02"},{"category":"drugs","location_type":"Force","location":{"latitude":"51.539368","street":{"id":1696151,"name":"On or near Chant Street"},"longitude":"0.001266"},"context":"","outcome_status":{"category":"Local resolution","date":"2025-03"},"persistent_id":"b9e6433bf88d58d3827c28230065e88c9246cb3ce515d28d7b3bf5b59089a186","id":126427628,"location_subtype":"","month":"2025-02"},{"category":"drugs","location_type":"Force","location":{"latitude":"51.540695","street":{"id":1696215,"name":"On or near Tramway Avenue"},"longitude":"0.002536"},"context":"","outcome_status":{"category":"Status update unavailable","date":"2025-06"},"persistent_id":"fd110b91ffeb02366840774217078689d2019b822fb40e6c4638044908f35092","id":126427594,"location_subtype":"","month":"2025-02"},{"category":"drugs","location_type":"Force","location":{"latitude":"51.543293","street":{"id":1695343,"name":"On or near Shopping Area"},"longitude":"-0.006898"},"context":"","outcome_status":{"category":"Local resolution","date":"2025-02"},"persistent_id":"754b5b80dd725be2b04ed1ff4e0dc25cdd95fe54b4a62368d54fbeb6a197f7ea","id":126427598,"location_subtype":"","month":"2025-02"},{"category":"drugs","location_type":"Force","location":{"latitude":"51.547278","street":{"id":1697055,"name":"On or near Warner Close"},"longitude":"0.009373"},"context":"","outcome_status":{"category":"Offender given penalty notice","date":"2025-03"},"persistent_id":"5dbcb04c84faa3a78f6d57c89132687d5d3fad387032bc207d613b6d51160bd3","id":126427414,"location_subtype":"","month":"2025-02"},{"category":"drugs","location_type":"Force","location":{"latitude":"51.542251","street":{"id":1695524,"name":"On or near Shopping Area"},"longitude":"-0.005047"},"context":"","outcome_status":{"category":"Local resolution","date":"2025-02"},"persistent_id":"ac72f51d093ba24a95b62f998491f483127b0fe3dc06c496ce815b5eeeda3ebb","id":126427393,"location_subtype":"","month":"2025-02"},{"category":"drugs","location_type":"Force","location":{"latitude":"51.541032","street":{"id":1696022,"name":"On or near Service Route No 1"},"longitude":"-0.000363"},"context":"","outcome_status":{"category":"Local resolution","date":"2025-02"},"persistent_id":"b6b0a7a23e0fc5affd1a9ce019b9d5b7203b23cc910c8581f1152a0453a84c2e","id":126427392,"location_subtype":"","month":"2025-02"},{"category":"drugs","location_type":"Force","location":{"latitude":"51.542251","street":{"id":1695524,"name":"On or near Shopping Area"},"longitude":"-0.005047"},"context":"","outcome_status":{"category":"Local resolution","date":"2025-03"},"persistent_id":"c3728399687e0df006c4e0264c5a10b304a415f8ecb52388f4fd84f8e159888a","id":126427378,"location_subtype":"","month":"2025-02"},{"category":"drugs","location_type":"Force","location":{"latitude":"51.543293","street":{"id":1695343,"name":"On or near Shopping Area"},"longitude":"-0.006898"},"context":"","outcome_status":{"category":"Local resolution","date":"2025-02"},"persistent_id":"ed2e4b09428839ef2216df98753f3fc5a13a4b16d5d32c9d8bc1789b6d201ab4","id":126427296,"location_subtype":"","month":"2025-02"},{"category":"drugs","location_type":"Force","location":{"latitude":"51.539566","street":{"id":1696105,"name":"On or near Chant Square"},"longitude":"0.001751"},"context":"","outcome_status":{"category":"Status update unavailable","date":"2025-06"},"persistent_id":"1e8cc1ff1c52a978381326c84dab060ec4a793ff7ad0ed1a78651f07fd4a5756","id":126427272,"location_subtype":"","month":"2025-02"},{"category":"drugs","location_type":"Force","location":{"latitude":"51.551000","street":{"id":1696603,"name":"On or near Petrol Station"},"longitude":"0.005209"},"context":"","outcome_status":{"category":"Status update unavailable","date":"2025-06"},"persistent_id":"0c3c05a126fe68e7c49b82b8a6bb6538343b646c6ca7e6e8450984130fc65d20","id":126426948,"location_subtype":"","month":"2025-02"},{"category":"drugs","location_type":"Force","location":{"latitude":"51.538705","street":{"id":1696529,"name":"On or near West Ham Lane"},"longitude":"0.004813"},"context":"","outcome_status":{"category":"Court result unavailable","date":"2025-10"},"persistent_id":"af551b6d244c176fbcfe10290221b84f1f46d6d5c65d0823545b552160d3a4ca","id":126426859,"location_subtype":"","month":"2025-02"},{"category":"drugs","location_type":"Force","location":{"latitude":"51.535360","street":{"id":1696163,"name":"On or near Asland Road"},"longitude":"0.002705"},"context":"","outcome_status":{"category":"Status update unavailable","date":"2025-06"},"persistent_id":"341fd51529ac31340e9ecde2b641f0f936ff8048afbadb132a3cfd25b9d1b654","id":126426831,"location_subtype":"","month":"2025-02"},{"category":"drugs","location_type":"Force","location":{"latitude":"51.540025","street":{"id":1696611,"name":"On or near Faringford Road"},"longitude":"0.007049"},"context":"","outcome_status":{"category":"Local resolution","date":"2025-02"},"persistent_id":"55ccfeeaa2b55d3ca60f890a84971c2926ec9deaacd477bbd42a093c46a10587","id":126427225,"location_subtype":"","month":"2025-02"},{"category":"drugs","location_type":"Force","location":{"latitude":"51.542147","street":{"id":1693363,"name":"On or near Rothbury Road"},"longitude":"-0.025840"},"context":"","outcome_status":{"category":"Local resolution","date":"2025-02"},"persistent_id":"f7c11758511edef9ef408f361e3484bf4046b17cf199343a5df8b2f20e73ee87","id":126427089,"location_subtype":"","month":"2025-02"},{"category":"drugs","location_type":"Force","location":{"latitude":"51.548458","street":{"id":1695235,"name":"On or near Cheering Lane"},"longitude":"-0.006600"},"context":"","outcome_status":{"category":"Investigation complete; no suspect identified","date":"2025-02"},"persistent_id":"4f971bd26013f08e8926de0c8d8edccb2afe657630cfdea140307f842a6406e4","id":126425364,"location_subtype":"","month":"2025-02"},{"category":"drugs","location_type":"Force","location":{"latitude":"51.546862","street":{"id":1695585,"name":"On or near Mirabelle Gardens"},"longitude":"-0.005242"},"context":"","outcome_status":{"category":"Unable to prosecute suspect","date":"2025-02"},"persistent_id":"c829ba73a19e91ec578ba09e292635d2f6e175e3cb45cc5c72febec19631a1a8","id":126425407,"location_subtype":"","month":"2025-02"},{"category":"drugs","location_type":"Force","location":{"latitude":"51.542251","street":{"id":1695524,"name":"On or near Shopping Area"},"longitude":"-0.005047"},"context":"","outcome_status":{"category":"Local resolution","date":"2025-04"},"persistent_id":"d1a2ed482f7d6f221577fa608a8f6956fd6f6cf7ef53146e8d2ca6423453c94f","id":126427295,"location_subtype":"","month":"2025-02"},{"category":"drugs","location_type":"Force","location":{"latitude":"51.538662","street":{"id":1694144,"name":"On or near Sports/recreation Area"},"longitude":"-0.015392"},"context":"","outcome_status":{"category":"Local resolution","date":"2025-03"},"persistent_id":"1d66b4c91bea598472e2bb253b885071c987cfebbe2cf877ccd20d38f86b9e93","id":126428712,"location_subtype":"","month":"2025-02"},{"category":"drugs","location_type":"Force","location":{"latitude":"51.556387","street":{"id":1696277,"name":"On or near South Birkbeck Road"},"longitude":"0.001999"},"context":"","outcome_status":{"category":"Unable to prosecute suspect","date":"2025-02"},"persistent_id":"8dd599b7f5f557b02ab76a5332b4b5046f807934b37b999844c06da219dba28d","id":126425435,"location_subtype":"","month":"2025-02"},{"category":"drugs","location_type":"Force","location":{"latitude":"51.542963","street":{"id":1696079,"name":"On or near Great Eastern Road"},"longitude":"0.000356"},"context":"","outcome_status":{"category":"Offender given penalty notice","date":"2025-03"},"persistent_id":"328ab506e75ed008c95f6d73376b020680d80ffb14417466b523adb947841738","id":126427223,"location_subtype":"","month":"2025-02"},{"category":"drugs","location_type":"Force","location":{"latitude":"51.542147","street":{"id":1693363,"name":"On or near Rothbury Road"},"longitude":"-0.025840"},"context":"","outcome_status":{"category":"Local resolution","date":"2025-02"},"persistent_id":"aac7e32c1e1784499bbd41700d6b2f01c2e84e37638cbed0cffbe8f28c229afa","id":126427092,"location_subtype":"","month":"2025-02"},{"category":"drugs","location_type":"Force","location":{"latitude":"51.559432","street":{"id":1695636,"name":"On or near Warren Road"},"longitude":"-0.004648"},"context":"","outcome_status":{"category":"Unable to prosecute suspect","date":"2025-02"},"persistent_id":"f488f55f20c68dffe55e96e509616437f71c744854391081254ebacb0d1e5310","id":126425983,"location_subtype":"","month":"2025-02"},{"category":"drugs","location_type":"Force","location":{"latitude":"51.560166","street":{"id":1694606,"name":"On or near Oliver Road"},"longitude":"-0.013951"},"context":"","outcome_status":{"category":"Unable to prosecute suspect","date":"2025-02"},"persistent_id":"5ff7f111ca9176cc2afec3e86040c7dab4188bd22783eeb797b33a4df7c04250","id":126425951,"location_subtype":"","month":"2025-02"},{"category":"drugs","location_type":"Force","location":{"latitude":"51.556387","street":{"id":1696277,"name":"On or near South Birkbeck Road"},"longitude":"0.001999"},"context":"","outcome_status":{"category":"Unable to prosecute suspect","date":"2025-02"},"persistent_id":"def1d4abf87fb565448dd99e41b751ff86a9fbc09064a6db55749c00f0f0c942","id":126426220,"location_subtype":"","month":"2025-02"},{"category":"drugs","location_type":"Force","location":{"latitude":"51.549254","street":{"id":1695184,"name":"On or near Sunrise Close"},"longitude":"-0.009493"},"context":"","outcome_status":{"category":"Unable to prosecute suspect","date":"2025-02"},"persistent_id":"b461c705dbc724358e553ea58cec1959726084290b90fe9f16b20beca7def351","id":126425330,"location_subtype":"","month":"2025-02"},{"category":"drugs","location_type":"Force","location":{"latitude":"51.551000","street":{"id":1696603,"name":"On or near Petrol Station"},"longitude":"0.005209"},"context":"","outcome_status":{"category":"Local resolution","date":"2025-02"},"persistent_id":"15e55ed10029e2320b9bfba3fa1afbdd1357c8aef055804860c8e98c11bfda95","id":126427070,"location_subtype":"","month":"2025-02"},{"category":"drugs","location_type":"Force","location":{"latitude":"51.556387","street":{"id":1696277,"name":"On or near South Birkbeck Road"},"longitude":"0.001999"},"context":"","outcome_status":{"category":"Unable to prosecute suspect","date":"2025-02"},"persistent_id":"482a46fee23672790b72b6bec4e89e9d0f9011282b1ac86b937ea31926a8d764","id":126426484,"location_subtype":"","month":"2025-02"},{"category":"drugs","location_type":"Force","location":{"latitude":"51.546977","street":{"id":1696262,"name":"On or near Store Street"},"longitude":"0.001730"},"context":"","outcome_status":{"category":"Court result unavailable","date":"2025-10"},"persistent_id":"b82e5dab058ee94a0c7f3ff43ba743eb5b87e75b6f24dc913201362ef2f57e8b","id":126426770,"location_subtype":"","month":"2025-02"},{"category":"drugs","location_type":"Force","location":{"latitude":"51.542251","street":{"id":1695524,"name":"On or near Shopping Area"},"longitude":"-0.005047"},"context":"","outcome_status":{"category":"Local resolution","date":"2025-06"},"persistent_id":"c43217ed748d301d97f01ec42bad69e5c128fc31e59dcf6491b46974e7701bdf","id":126427616,"location_subtype":"","month":"2025-02"},{"category":"drugs","location_type":"Force","location":{"latitude":"51.538662","street":{"id":1694144,"name":"On or near Sports/recreation Area"},"longitude":"-0.015392"},"context":"","outcome_status":{"category":"Local resolution","date":"2025-03"},"persistent_id":"33b6e800a3d8bd7730caa02fb03827e30a51344dde0d4be859f077525caa331f","id":126427946,"location_subtype":"","month":"2025-02"},{"category":"drugs","location_type":"Force","location":{"latitude":"51.542251","street":{"id":1695524,"name":"On or near Shopping Area"},"longitude":"-0.005047"},"context":"","outcome_status":{"category":"Local resolution","date":"2025-03"},"persistent_id":"eba5370b629f2c612d572a92f1ef850d70b976f11be018363282eaadc52a3cb2","id":126427587,"location_subtype":"","month":"2025-02"},{"category":"drugs","location_type":"Force","location":{"latitude":"51.545720","street":{"id":1695083,"name":"On or near Stratford International"},"longitude":"-0.009474"},"context":"","outcome_status":{"category":"Status update unavailable","date":"2025-06"},"persistent_id":"e24a388cd090518cd925e1178cff3e833802c63273f6859e955e3886f1ec6c14","id":126428076,"location_subtype":"","month":"2025-02"},{"category":"drugs","location_type":"Force","location":{"latitude":"51.536805","street":{"id":1696244,"name":"On or near Mcewen Way"},"longitude":"0.001802"},"context":"","outcome_status":{"category":"Court result unavailable","date":"2025-10"},"persistent_id":"b1dcedf2c4736bca99433c1ea001fa57f12f7555efb127ff6761d02b1a1460d1","id":126428832,"location_subtype":"","month":"2025-02"},{"category":"drugs","location_type":"Force","location":{"latitude":"51.558124","street":{"id":1694693,"name":"On or near Auckland Road"},"longitude":"-0.013376"},"context":"","outcome_status":{"category":"Local resolution","date":"2025-03"},"persistent_id":"b7d1d912f3de1e428a1d59b1fad510ff477a1b2b41d479186850cdced12ea43a","id":126428801,"location_subtype":"","month":"2025-02"},{"category":"drugs","location_type":"Force","location":{"latitude":"51.542251","street":{"id":1695524,"name":"On or near Shopping Area"},"longitude":"-0.005047"},"context":"","outcome_status":{"category":"Local resolution","date":"2025-02"},"persistent_id":"32ec9c8fa88e1a1ae098991ec8982d115ec41e3e4f4b17fc31ff4c9d2a2d8840","id":126428523,"location_subtype":"","month":"2025-02"},{"category":"drugs","location_type":"Force","location":{"latitude":"51.542251","street":{"id":1695524,"name":"On or near Shopping Area"},"longitude":"-0.005047"},"context":"","outcome_status":{"category":"Local resolution","date":"2025-02"},"persistent_id":"cc03af9b36c6affeb02e3465b6ecc7c58c16d156f8381bf7af2dd91b8bc517ea","id":126428524,"location_subtype":"","month":"2025-02"},{"category":"drugs","location_type":"Force","location":{"latitude":"51.547989","street":{"id":1695934,"name":"On or near Ashton Road"},"longitude":"-0.001226"},"context":"","outcome_status":{"category":"Offender given penalty notice","date":"2025-03"},"persistent_id":"bdd1f40853611062f93f6bd15aa01e016f2811a0381868bd36910ccf8a57134d","id":126428662,"location_subtype":"","month":"2025-02"},{"category":"drugs","location_type":"Force","location":{"latitude":"51.541170","street":{"id":1695761,"name":"On or near Docklands Light Railway"},"longitude":"-0.003183"},"context":"","outcome_status":{"category":"Local resolution","date":"2025-02"},