[{"category":"anti-social-behaviour","location_type":"Force","location":{"latitude":"50.750012","street":{"id":1790920,"name":"On or near Tumbling Weir Way"},"longitude":"-3.285278"},"context":"","outcome_status":null,"persistent_id":"","id":126132622,"location_subtype":"","month":"2025-02"},{"category":"anti-social-behaviour","location_type":"Force","location":{"latitude":"50.749063","street":{"id":1790899,"name":"On or near Albert Close"},"longitude":"-3.284883"},"context":"","outcome_status":null,"persistent_id":"","id":126134005,"location_subtype":"","month":"2025-02"},{"category":"anti-social-behaviour","location_type":"Force","location":{"latitude":"50.750806","street":{"id":1791019,"name":"On or near Higher Spring Gardens"},"longitude":"-3.271946"},"context":"","outcome_status":null,"persistent_id":"","id":126132624,"location_subtype":"","month":"2025-02"},{"category":"public-order","location_type":"Force","location":{"latitude":"50.755734","street":{"id":1791053,"name":"On or near Abbott Close"},"longitude":"-3.271924"},"context":"","outcome_status":{"category":"Unable to prosecute suspect","date":"2025-03"},"persistent_id":"4753c8ff66dbc945b71a489a9c32a74e182f8e4ca5f297bdb0c20a571492126e","id":126113565,"location_subtype":"","month":"2025-02"},{"category":"violent-crime","location_type":"Force","location":{"latitude":"50.751071","street":{"id":1791014,"name":"On or near Yonder Close"},"longitude":"-3.275639"},"context":"","outcome_status":{"category":"Unable to prosecute suspect","date":"2025-03"},"persistent_id":"bd156e4aefbf91cd4b13410feb8ddc55f2f0f933de041d5cb876f7a14922b0ca","id":126115039,"location_subtype":"","month":"2025-02"},{"category":"violent-crime","location_type":"Force","location":{"latitude":"50.742942","street":{"id":1790871,"name":"On or near Salston Ride"},"longitude":"-3.291079"},"context":"","outcome_status":{"category":"Unable to prosecute suspect","date":"2025-02"},"persistent_id":"df81fadf94d4cfd267e4361ce3445fad76a420e0204905ba4de082529a6c8eb0","id":126125130,"location_subtype":"","month":"2025-02"},{"category":"violent-crime","location_type":"Force","location":{"latitude":"50.747785","street":{"id":1790887,"name":"On or near Edward Drive"},"longitude":"-3.291482"},"context":"","outcome_status":{"category":"Unable to prosecute suspect","date":"2025-02"},"persistent_id":"d349530d60bc1a279d452664fca200eddab27e7af4d7a85c1a6df70ca6cde760","id":126125393,"location_subtype":"","month":"2025-02"},{"category":"violent-crime","location_type":"Force","location":{"latitude":"50.749456","street":{"id":1790970,"name":"On or near Winter's Lane"},"longitude":"-3.280230"},"context":"","outcome_status":{"category":"Unable to prosecute suspect","date":"2025-02"},"persistent_id":"aa85cae6659784f1a55414e4021d0d04564ae9dafc9d9d23d8a94210b41d3394","id":126131295,"location_subtype":"","month":"2025-02"},{"category":"violent-crime","location_type":"Force","location":{"latitude":"50.747785","street":{"id":1790887,"name":"On or near Edward Drive"},"longitude":"-3.291482"},"context":"","outcome_status":{"category":"Unable to prosecute suspect","date":"2025-02"},"persistent_id":"67780dc689488e74c82197a0fd8559d740a548f86e2d79574110130ffc179d8d","id":126125400,"location_subtype":"","month":"2025-02"},{"category":"violent-crime","location_type":"Force","location":{"latitude":"50.749456","street":{"id":1790970,"name":"On or near Winter's Lane"},"longitude":"-3.280230"},"context":"","outcome_status":{"category":"Unable to prosecute suspect","date":"2025-02"},"persistent_id":"174725208528cd99bf68f435e11f332fc236721228795c25a33dd14a481fedec","id":126120307,"location_subtype":"","month":"2025-02"},{"category":"violent-crime","location_type":"Force","location":{"latitude":"50.748839","street":{"id":1790884,"name":"On or near Harold Close"},"longitude":"-3.292149"},"context":"","outcome_status":{"category":"Investigation complete; no suspect identified","date":"2025-02"},"persistent_id":"cefcd14075e05fb637526c19ac10b9856f80cd85c71586b999a1bbd8152ff40c","id":126122858,"location_subtype":"","month":"2025-02"},{"category":"violent-crime","location_type":"Force","location":{"latitude":"50.751141","street":{"id":1790991,"name":"On or near B3174"},"longitude":"-3.279114"},"context":"","outcome_status":{"category":"Unable to prosecute suspect","date":"2025-08"},"persistent_id":"317c89c0989ed114ee6451f406dc998857c373be8592b0bc0c790b754f1d5023","id":126130901,"location_subtype":"","month":"2025-02"},{"category":"violent-crime","location_type":"Force","location":{"latitude":"50.751925","street":{"id":1790910,"name":"On or near Canaan Way"},"longitude":"-3.283062"},"context":"","outcome_status":{"category":"Local resolution","date":"2025-04"},"persistent_id":"076537a16a8ed807ccc177661409f98e2c951f8153797b7da49090f8ec7e19dd","id":126130054,"location_subtype":"","month":"2025-02"},{"category":"violent-crime","location_type":"Force","location":{"latitude":"50.751074","street":{"id":1791011,"name":"On or near Jesu Street"},"longitude":"-3.277836"},"context":"","outcome_status":{"category":"Unable to prosecute suspect","date":"2025-03"},"persistent_id":"cc3b47507f476ea81e8327744db4c91f88180630acc54f8de3758de9349dec4f","id":126127373,"location_subtype":"","month":"2025-02"}]