[{"category":"anti-social-behaviour","location_type":"Force","location":{"latitude":"51.648201","street":{"id":1979048,"name":"On or near Jackson Court"},"longitude":"-0.710106"},"context":"","outcome_status":null,"persistent_id":"","id":131288037,"location_subtype":"","month":"2025-09"},{"category":"anti-social-behaviour","location_type":"Force","location":{"latitude":"51.645562","street":{"id":1979516,"name":"On or near Firs Close"},"longitude":"-0.703951"},"context":"","outcome_status":null,"persistent_id":"","id":131288013,"location_subtype":"","month":"2025-09"},{"category":"anti-social-behaviour","location_type":"Force","location":{"latitude":"51.655953","street":{"id":1978601,"name":"On or near Toms Turn"},"longitude":"-0.715957"},"context":"","outcome_status":null,"persistent_id":"","id":131288101,"location_subtype":"","month":"2025-09"},{"category":"anti-social-behaviour","location_type":"Force","location":{"latitude":"51.663775","street":{"id":1980054,"name":"On or near Turners Place"},"longitude":"-0.695479"},"context":"","outcome_status":null,"persistent_id":"","id":131288186,"location_subtype":"","month":"2025-09"},{"category":"anti-social-behaviour","location_type":"Force","location":{"latitude":"51.663265","street":{"id":1978465,"name":"On or near George's Hill"},"longitude":"-0.719351"},"context":"","outcome_status":null,"persistent_id":"","id":131288178,"location_subtype":"","month":"2025-09"},{"category":"burglary","location_type":"Force","location":{"latitude":"51.667408","street":{"id":1979957,"name":"On or near The Rosary"},"longitude":"-0.698686"},"context":"","outcome_status":{"category":"Unable to prosecute suspect","date":"2025-12"},"persistent_id":"620bc93750febf6647cc38e1396477d4fe864be302f072daed98981d08962709","id":131288302,"location_subtype":"","month":"2025-09"},{"category":"burglary","location_type":"Force","location":{"latitude":"51.652653","street":{"id":1978791,"name":"On or near Beaumont Way"},"longitude":"-0.715053"},"context":"","outcome_status":{"category":"Status update unavailable","date":"2026-01"},"persistent_id":"cf363997059f71a6ed9717abdf8edb5dffe83de63484ba68ffc92e59b76ecd08","id":131288083,"location_subtype":"","month":"2025-09"},{"category":"criminal-damage-arson","location_type":"Force","location":{"latitude":"51.655821","street":{"id":1979350,"name":"On or near Eastern Dene"},"longitude":"-0.706347"},"context":"","outcome_status":{"category":"Unable to prosecute suspect","date":"2025-09"},"persistent_id":"1efabc7f38ee48385904cb7ed71bc53fcbe9e21381178a16ce723fb0ac5419bb","id":131288095,"location_subtype":"","month":"2025-09"},{"category":"criminal-damage-arson","location_type":"Force","location":{"latitude":"51.663775","street":{"id":1980054,"name":"On or near Turners Place"},"longitude":"-0.695479"},"context":"","outcome_status":{"category":"Unable to prosecute suspect","date":"2025-09"},"persistent_id":"72333faba8f5c4d26f483205148f97e8d9927790711536a0300a70a52362f25f","id":131288199,"location_subtype":"","month":"2025-09"},{"category":"criminal-damage-arson","location_type":"Force","location":{"latitude":"51.649089","street":{"id":1979223,"name":"On or near Lime Close"},"longitude":"-0.709011"},"context":"","outcome_status":{"category":"Status update unavailable","date":"2026-01"},"persistent_id":"881741eeea30bfc41cbe30bc80516d3c00d8c1cc6cae820b79eaf8196145e87a","id":131288046,"location_subtype":"","month":"2025-09"},{"category":"drugs","location_type":"Force","location":{"latitude":"51.649217","street":{"id":1978221,"name":"On or near Parking Area"},"longitude":"-0.720715"},"context":"","outcome_status":{"category":"Local resolution","date":"2025-09"},"persistent_id":"427ea3703540dc00a05ee1f30007fcc72eeeeeff018fdd140779f979b37d80d2","id":131288049,"location_subtype":"","month":"2025-09"},{"category":"drugs","location_type":"Force","location":{"latitude":"51.649217","street":{"id":1978221,"name":"On or near Parking Area"},"longitude":"-0.720715"},"context":"","outcome_status":{"category":"Local resolution","date":"2025-09"},"persistent_id":"06c355690a96a75edc85dcb709a9bfa7398b631d581c73c5428f0ddd6a854cc8","id":131288050,"location_subtype":"","month":"2025-09"},{"category":"other-theft","location_type":"Force","location":{"latitude":"51.661992","street":{"id":1979438,"name":"On or near Brackley Road"},"longitude":"-0.705752"},"context":"","outcome_status":{"category":"Investigation complete; no suspect identified","date":"2025-09"},"persistent_id":"e648f7e9ef5e71c7bd13f2794da206efa947b27b957d66425578e379e4b85d70","id":131288170,"location_subtype":"","month":"2025-09"},{"category":"other-theft","location_type":"Force","location":{"latitude":"51.664518","street":{"id":1979432,"name":"On or near Harvest Place"},"longitude":"-0.704885"},"context":"","outcome_status":{"category":"Investigation complete; no suspect identified","date":"2025-09"},"persistent_id":"6d8ac68ce27c3b4a4211efd2290582c120f03a48a9870b3db68ba917c1b396de","id":131288185,"location_subtype":"","month":"2025-09"},{"category":"other-theft","location_type":"Force","location":{"latitude":"51.663773","street":{"id":1980146,"name":"On or near Forge Close"},"longitude":"-0.694409"},"context":"","outcome_status":{"category":"Investigation complete; no suspect identified","date":"2025-09"},"persistent_id":"d6683dd6e4be3fe721b30dd5859a3c6ef206aad329a8e7d6d426a61629e143eb","id":131288187,"location_subtype":"","month":"2025-09"},{"category":"public-order","location_type":"Force","location":{"latitude":"51.653118","street":{"id":1979040,"name":"On or near Lester Grove"},"longitude":"-0.710732"},"context":"","outcome_status":{"category":"Investigation complete; no suspect identified","date":"2025-11"},"persistent_id":"338aadce1babd12c421181955f7e6d4983ca7d1a290a1e499e65310833c196cf","id":131288077,"location_subtype":"","month":"2025-09"},{"category":"shoplifting","location_type":"Force","location":{"latitude":"51.651056","street":{"id":1978795,"name":"On or near Amersham Road"},"longitude":"-0.713725"},"context":"","outcome_status":{"category":"Unable to prosecute suspect","date":"2025-10"},"persistent_id":"520a0f93b2f77f360eaf6ce429b64167d90d81b7bbbbc245326ec330b07961e9","id":131288065,"location_subtype":"","month":"2025-09"},{"category":"shoplifting","location_type":"Force","location":{"latitude":"51.651056","street":{"id":1978795,"name":"On or near Amersham Road"},"longitude":"-0.713725"},"context":"","outcome_status":{"category":"Status update unavailable","date":"2026-01"},"persistent_id":"a7fb46ca089e6d4c47526a29021d96cd8e3a65fb075d251c66c4f421ac5bd7e0","id":131288066,"location_subtype":"","month":"2025-09"},{"category":"shoplifting","location_type":"Force","location":{"latitude":"51.658555","street":{"id":1979118,"name":"On or near Parking Area"},"longitude":"-0.709696"},"context":"","outcome_status":{"category":"Investigation complete; no suspect identified","date":"2025-09"},"persistent_id":"4ff41e0adaca13fbe45edfc5e82b23977d7055fb58c54311d0292eda7157f67a","id":131288131,"location_subtype":"","month":"2025-09"},{"category":"shoplifting","location_type":"Force","location":{"latitude":"51.658555","street":{"id":1979118,"name":"On or near Parking Area"},"longitude":"-0.709696"},"context":"","outcome_status":{"category":"Awaiting court outcome","date":"2025-11"},"persistent_id":"42fd9a65cf922dd9488fe1faa4aee1cfa19f2c9a25571f26c3bf9ef6a83d60ed","id":131288132,"location_subtype":"","month":"2025-09"},{"category":"shoplifting","location_type":"Force","location":{"latitude":"51.651056","street":{"id":1978795,"name":"On or near Amersham Road"},"longitude":"-0.713725"},"context":"","outcome_status":{"category":"Awaiting court outcome","date":"2026-01"},"persistent_id":"fbde5393a2352a5c3bbcd0940ce3acdc54b0428c8782f89501470e829564584b","id":131288067,"location_subtype":"","month":"2025-09"},{"category":"vehicle-crime","location_type":"Force","location":{"latitude":"51.655221","street":{"id":1978981,"name":"On or near Holmer Green Road"},"longitude":"-0.711511"},"context":"","outcome_status":{"category":"Investigation complete; no suspect identified","date":"2025-10"},"persistent_id":"9e8dd90846bba8c0e259bdfa6e2d3f96e039135a0396d7d731ab513d94005454","id":131288102,"location_subtype":"","month":"2025-09"},{"category":"vehicle-crime","location_type":"Force","location":{"latitude":"51.667321","street":{"id":1979523,"name":"On or near Stevens Close"},"longitude":"-0.702202"},"context":"","outcome_status":{"category":"Investigation complete; no suspect identified","date":"2025-11"},"persistent_id":"9db8ca6263623a9446a9757c095fe9e7447461e3bb0ea6172bd4887786f39401","id":131288270,"location_subtype":"","month":"2025-09"},{"category":"vehicle-crime","location_type":"Force","location":{"latitude":"51.665065","street":{"id":1980116,"name":"On or near Pond Approach"},"longitude":"-0.694199"},"context":"","outcome_status":{"category":"Investigation complete; no suspect identified","date":"2025-11"},"persistent_id":"f6b9c491d3940ac5374afaba29b055d91e834c0cf4caa7c200c286d471628632","id":131288226,"location_subtype":"","month":"2025-09"},{"category":"vehicle-crime","location_type":"Force","location":{"latitude":"51.658654","street":{"id":1979517,"name":"On or near Sanctuary Road"},"longitude":"-0.703925"},"context":"","outcome_status":{"category":"Investigation complete; no suspect identified","date":"2025-09"},"persistent_id":"c86c780bc2114ab77b052b7fac1ae9f0d2456f89b0d40c6b03889479f1c5acd8","id":131288137,"location_subtype":"","month":"2025-09"},{"category":"vehicle-crime","location_type":"Force","location":{"latitude":"51.655821","street":{"id":1979350,"name":"On or near Eastern Dene"},"longitude":"-0.706347"},"context":"","outcome_status":{"category":"Investigation complete; no suspect identified","date":"2025-09"},"persistent_id":"940617f4182f232801d706d3e2c79a2918656b059053fbdedbe997a22e44d82e","id":131288109,"location_subtype":"","month":"2025-09"},{"category":"vehicle-crime","location_type":"Force","location":{"latitude":"51.658654","street":{"id":1979517,"name":"On or near Sanctuary Road"},"longitude":"-0.703925"},"context":"","outcome_status":{"category":"Investigation complete; no suspect identified","date":"2025-09"},"persistent_id":"957647cdb81a0bff41410330780758526c1e4bf27ca93a9da04a690874077e3c","id":131288138,"location_subtype":"","month":"2025-09"},{"category":"vehicle-crime","location_type":"Force","location":{"latitude":"51.662386","street":{"id":1979892,"name":"On or near Gardener Walk"},"longitude":"-0.699134"},"context":"","outcome_status":{"category":"Investigation complete; no suspect identified","date":"2025-09"},"persistent_id":"8d396e88331167cc0ec1c980b41ef279968268af832f6faed57a3004834e9c92","id":131288173,"location_subtype":"","month":"2025-09"},{"category":"violent-crime","location_type":"Force","location":{"latitude":"51.667396","street":{"id":1979812,"name":"On or near Glebe Close"},"longitude":"-0.700046"},"context":"","outcome_status":{"category":"Unable to prosecute suspect","date":"2025-09"},"persistent_id":"47565e6c3ddc85c831510ef1ba5fdf14c47c36caa9581f5d8034a720640fcbdb","id":131288314,"location_subtype":"","month":"2025-09"},{"category":"violent-crime","location_type":"Force","location":{"latitude":"51.645779","street":{"id":1979627,"name":"On or near Tylers Crescent"},"longitude":"-0.702398"},"context":"","outcome_status":{"category":"Unable to prosecute suspect","date":"2025-09"},"persistent_id":"a81f6417d67b72223487bca77b25160a69e03867ad71e5048187982df1914ddb","id":131288011,"location_subtype":"","month":"2025-09"},{"category":"violent-crime","location_type":"Force","location":{"latitude":"51.648948","street":{"id":1979532,"name":"On or near Briarswood"},"longitude":"-0.704447"},"context":"","outcome_status":{"category":"Unable to prosecute suspect","date":"2025-09"},"persistent_id":"56fa5dcbe19ea084884c71cd09f3286d3b8cce366fb09dc9376da6c6c8a46ec0","id":131288045,"location_subtype":"","month":"2025-09"},{"category":"violent-crime","location_type":"Force","location":{"latitude":"51.659908","street":{"id":1979472,"name":"On or near Laceys Drive"},"longitude":"-0.705118"},"context":"","outcome_status":{"category":"Status update unavailable","date":"2026-01"},"persistent_id":"db50f458fabaa4a8f4ce5bd447e86fa042e96b6ca088e2960c566c0bfa3f3ea5","id":131288147,"location_subtype":"","month":"2025-09"},{"category":"violent-crime","location_type":"Force","location":{"latitude":"51.663106","street":{"id":1979504,"name":"On or near Harries Way"},"longitude":"-0.703248"},"context":"","outcome_status":{"category":"Status update unavailable","date":"2026-01"},"persistent_id":"c93db3988c171d8161bb73c93aeeac9ddaebf3720470c533a2560a2a0dafba50","id":131288175,"location_subtype":"","month":"2025-09"},{"category":"violent-crime","location_type":"Force","location":{"latitude":"51.663106","street":{"id":1979504,"name":"On or near Harries Way"},"longitude":"-0.703248"},"context":"","outcome_status":{"category":"Investigation complete; no suspect identified","date":"2025-09"},"persistent_id":"7f8aaa10d50bcea7f37c07b87d20f087b7e5c21d7ccb87cf75260405a4c6af00","id":131288180,"location_subtype":"","month":"2025-09"},{"category":"violent-crime","location_type":"Force","location":{"latitude":"51.667396","street":{"id":1979812,"name":"On or near Glebe Close"},"longitude":"-0.700046"},"context":"","outcome_status":{"category":"Unable to prosecute suspect","date":"2025-09"},"persistent_id":"0bf3c47662395b03e633741680c4894e2d738ddbd2f8d81bd4c48d61400580f7","id":131288315,"location_subtype":"","month":"2025-09"},{"category":"violent-crime","location_type":"Force","location":{"latitude":"51.664308","street":{"id":1979628,"name":"On or near Todd Close"},"longitude":"-0.702968"},"context":"","outcome_status":{"category":"Unable to prosecute suspect","date":"2026-01"},"persistent_id":"25157e81b67df3c7fb2874ff1ba4fa17dc7bc78b4b6ba1a763753c28b0be5d18","id":131288191,"location_subtype":"","month":"2025-09"},{"category":"violent-crime","location_type":"Force","location":{"latitude":"51.648201","street":{"id":1979048,"name":"On or near Jackson Court"},"longitude":"-0.710106"},"context":"","outcome_status":{"category":"Status update unavailable","date":"2026-01"},"persistent_id":"4ec6fd9ed406c08ae647bc4e8cd47ffb88b1f6bd7d28159302eb1b32cc1c71c6","id":131288036,"location_subtype":"","month":"2025-09"},{"category":"violent-crime","location_type":"Force","location":{"latitude":"51.663775","street":{"id":1980054,"name":"On or near Turners Place"},"longitude":"-0.695479"},"context":"","outcome_status":{"category":"Unable to prosecute suspect","date":"2025-09"},"persistent_id":"a594c760b3f0f9e99f4a4cea4e0a27ae82cb5816e763df75b30e3925ea035b29","id":131288200,"location_subtype":"","month":"2025-09"},{"category":"violent-crime","location_type":"Force","location":{"latitude":"51.667396","street":{"id":1979812,"name":"On or near Glebe Close"},"longitude":"-0.700046"},"context":"","outcome_status":{"category":"Status update unavailable","date":"2026-01"},"persistent_id":"0f0cb127accf82efb17f20c1ca07f27b2291106f641b35062580c559c29799f2","id":131288312,"location_subtype":"","month":"2025-09"},{"category":"violent-crime","location_type":"Force","location":{"latitude":"51.663106","street":{"id":1979504,"name":"On or near Harries Way"},"longitude":"-0.703248"},"context":"","outcome_status":{"category":"Investigation complete; no suspect identified","date":"2025-09"},"persistent_id":"e595184910735b8817db9e227c9fbaa7e27177de3d64a9ac48f4eae836e74e34","id":131288181,"location_subtype":"","month":"2025-09"},{"category":"violent-crime","location_type":"Force","location":{"latitude":"51.664762","street":{"id":1978602,"name":"On or near Georges Hill"},"longitude":"-0.716446"},"context":"","outcome_status":{"category":"Unable to prosecute suspect","date":"2025-09"},"persistent_id":"1963fcbf6d90fe05ae9d1cbecabeb2b6caf8e77c23dbc9099bd5f326c3accd29","id":131288224,"location_subtype":"","month":"2025-09"},{"category":"violent-crime","location_type":"Force","location":{"latitude":"51.664308","street":{"id":1979628,"name":"On or near Todd Close"},"longitude":"-0.702968"},"context":"","outcome_status":{"category":"Unable to prosecute suspect","date":"2025-09"},"persistent_id":"903402fbcd27324e99601512196c68b46ebcb0ab8ddd0878bcd0737b7ac2dc1c","id":131288190,"location_subtype":"","month":"2025-09"},{"category":"violent-crime","location_type":"Force","location":{"latitude":"51.667396","street":{"id":1979812,"name":"On or near Glebe Close"},"longitude":"-0.700046"},"context":"","outcome_status":{"category":"Unable to prosecute suspect","date":"2025-10"},"persistent_id":"aaf7ad1d203143e2cb1fd756f0b2dce07ef2757f137ee8bcd32398d946b69e67","id":131288313,"location_subtype":"","month":"2025-09"},{"category":"violent-crime","location_type":"Force","location":{"latitude":"51.667396","street":{"id":1979812,"name":"On or near Glebe Close"},"longitude":"-0.700046"},"context":"","outcome_status":{"category":"Investigation complete; no suspect identified","date":"2025-09"},"persistent_id":"66d0622f4118c4a1931c4ce1cb9a291116a2a0bebafb365d9a4d15f06a969b88","id":131288306,"location_subtype":"","month":"2025-09"},{"category":"violent-crime","location_type":"Force","location":{"latitude":"51.667396","street":{"id":1979812,"name":"On or near Glebe Close"},"longitude":"-0.700046"},"context":"","outcome_status":{"category":"Unable to prosecute suspect","date":"2025-09"},"persistent_id":"0ef47615bf188f3bead67cd9deb7ab8baeeee6a0e3a7bd56ed63d9498263d741","id":131288307,"location_subtype":"","month":"2025-09"},{"category":"violent-crime","location_type":"Force","location":{"latitude":"51.667396","street":{"id":1979812,"name":"On or near Glebe Close"},"longitude":"-0.700046"},"context":"","outcome_status":{"category":"Unable to prosecute suspect","date":"2025-09"},"persistent_id":"ccb040ddad09450a49c32bfa95639f241c5bd3b2cb856b574bc0aea8ea68aca4","id":131288308,"location_subtype":"","month":"2025-09"},{"category":"violent-crime","location_type":"Force","location":{"latitude":"51.667396","street":{"id":1979812,"name":"On or near Glebe Close"},"longitude":"-0.700046"},"context":"","outcome_status":{"category":"Unable to prosecute suspect","date":"2025-09"},"persistent_id":"71f7932b8cf697bf79aebe2dcbbb805dde325184a53ef5cb4af77efe17a15e6d","id":131288309,"location_subtype":"","month":"2025-09"},{"category":"violent-crime","location_type":"Force","location":{"latitude":"51.667396","street":{"id":1979812,"name":"On or near Glebe Close"},"longitude":"-0.700046"},"context":"","outcome_status":{"category":"Unable to prosecute suspect","date":"2025-09"},"persistent_id":"b076a662806942483f198e858eb5be50af8c29c56f6ba7e1802968dffe0c5f26","id":131288310,"location_subtype":"","month":"2025-09"},{"category":"violent-crime","location_type":"Force","location":{"latitude":"51.667396","street":{"id":1979812,"name":"On or near Glebe Close"},"longitude":"-0.700046"},"context":"","outcome_status":{"category":"Unable to prosecute suspect","date":"2025-09"},"persistent_id":"fef52e035e8aaf9f00c2f142f82b060a6600ff2ec8f7d3193a446d6c2aa652b9","id":131288311,"location_subtype":"","month":"2025-09"},{"category":"violent-crime","location_type":"Force","location":{"latitude":"51.648201","street":{"id":1979048,"name":"On or near Jackson Court"},"longitude":"-0.710106"},"context":"","outcome_status":{"category":"Action to be taken by another organisation","date":"2025-11"},"persistent_id":"e5b4db1156e5849d65928f45319d190689ef2f2e793b57a8de885ee1a74ca481","id":131288033,"location_subtype":"","month":"2025-09"},{"category":"violent-crime","location_type":"Force","location":{"latitude":"51.645779","street":{"id":1979627,"name":"On or near Tylers Crescent"},"longitude":"-0.702398"},"context":"","outcome_status":{"category":"Unable to prosecute suspect","date":"2025-10"},"persistent_id":"f5650332e156a7f459408554a0cc71ca7de8b2f167644f687a752a90ac7dfead","id":131288012,"location_subtype":"","month":"2025-09"},{"category":"violent-crime","location_type":"Force","location":{"latitude":"51.648201","street":{"id":1979048,"name":"On or near Jackson Court"},"longitude":"-0.710106"},"context":"","outcome_status":{"category":"Unable to prosecute suspect","date":"2025-10"},"persistent_id":"9b0d660ca111d5ff264394dbb7073209297a0caf00dfc6c6a978cf5bdbf99774","id":131288035,"location_subtype":"","month":"2025-09"},{"category":"other-crime","location_type":"Force","location":{"latitude":"51.657546","street":{"id":1979586,"name":"On or near Badger Way"},"longitude":"-0.702178"},"context":"","outcome_status":{"category":"Awaiting court outcome","date":"2025-09"},"persistent_id":"3457ff21de8bde8626a10af2b9d6db868ddf1d1ec6e03ae1a7c2320218d7b725","id":131288113,"location_subtype":"","month":"2025-09"}]