[{"category":"anti-social-behaviour","location_type":"Force","location":{"latitude":"53.775733","street":{"id":1497417,"name":"On or near Abbots Walk"},"longitude":"-0.418009"},"context":"","outcome_status":null,"persistent_id":"","id":128174165,"location_subtype":"","month":"2025-05"},{"category":"anti-social-behaviour","location_type":"Force","location":{"latitude":"53.775267","street":{"id":1497353,"name":"On or near Fimber Avenue"},"longitude":"-0.420865"},"context":"","outcome_status":null,"persistent_id":"","id":128173494,"location_subtype":"","month":"2025-05"},{"category":"anti-social-behaviour","location_type":"Force","location":{"latitude":"53.784534","street":{"id":1497596,"name":"On or near Wasdale Green"},"longitude":"-0.411910"},"context":"","outcome_status":null,"persistent_id":"","id":128174168,"location_subtype":"","month":"2025-05"},{"category":"anti-social-behaviour","location_type":"Force","location":{"latitude":"53.776047","street":{"id":1497389,"name":"On or near Nalton Court"},"longitude":"-0.416616"},"context":"","outcome_status":null,"persistent_id":"","id":128174166,"location_subtype":"","month":"2025-05"},{"category":"anti-social-behaviour","location_type":"Force","location":{"latitude":"53.782941","street":{"id":1497439,"name":"On or near Crescent Street"},"longitude":"-0.417222"},"context":"","outcome_status":null,"persistent_id":"","id":128174138,"location_subtype":"","month":"2025-05"},{"category":"anti-social-behaviour","location_type":"Force","location":{"latitude":"53.776550","street":{"id":1497509,"name":"On or near Saner's Close"},"longitude":"-0.415171"},"context":"","outcome_status":null,"persistent_id":"","id":128174113,"location_subtype":"","month":"2025-05"},{"category":"anti-social-behaviour","location_type":"Force","location":{"latitude":"53.775267","street":{"id":1497353,"name":"On or near Fimber Avenue"},"longitude":"-0.420865"},"context":"","outcome_status":null,"persistent_id":"","id":128174112,"location_subtype":"","month":"2025-05"},{"category":"anti-social-behaviour","location_type":"Force","location":{"latitude":"53.776290","street":{"id":1497812,"name":"On or near The Covert"},"longitude":"-0.403040"},"context":"","outcome_status":null,"persistent_id":"","id":128173999,"location_subtype":"","month":"2025-05"},{"category":"anti-social-behaviour","location_type":"Force","location":{"latitude":"53.785385","street":{"id":1497412,"name":"On or near Spencer Way"},"longitude":"-0.415111"},"context":"","outcome_status":null,"persistent_id":"","id":128173968,"location_subtype":"","month":"2025-05"},{"category":"anti-social-behaviour","location_type":"Force","location":{"latitude":"53.785892","street":{"id":1497356,"name":"On or near Grange Drive"},"longitude":"-0.420845"},"context":"","outcome_status":null,"persistent_id":"","id":128173786,"location_subtype":"","month":"2025-05"},{"category":"anti-social-behaviour","location_type":"Force","location":{"latitude":"53.776550","street":{"id":1497509,"name":"On or near Saner's Close"},"longitude":"-0.415171"},"context":"","outcome_status":null,"persistent_id":"","id":128173768,"location_subtype":"","month":"2025-05"},{"category":"anti-social-behaviour","location_type":"Force","location":{"latitude":"53.776524","street":{"id":1497733,"name":"On or near Hornbeam Walk"},"longitude":"-0.407842"},"context":"","outcome_status":null,"persistent_id":"","id":128173661,"location_subtype":"","month":"2025-05"},{"category":"bicycle-theft","location_type":"Force","location":{"latitude":"53.784254","street":{"id":1497537,"name":"On or near Supermarket"},"longitude":"-0.414319"},"context":"","outcome_status":{"category":"Investigation complete; no suspect identified","date":"2025-05"},"persistent_id":"3fdcf5483ad58967197723bb167f2a541372d4126e1a20b8754642883f423ceb","id":128169265,"location_subtype":"","month":"2025-05"},{"category":"bicycle-theft","location_type":"Force","location":{"latitude":"53.776548","street":{"id":1497650,"name":"On or near Priory Road"},"longitude":"-0.409662"},"context":"","outcome_status":{"category":"Investigation complete; no suspect identified","date":"2025-05"},"persistent_id":"b516ae32af8715207f7a74283e72bfd15ec0785d06a3cc556323cfb1f4bfe270","id":128166874,"location_subtype":"","month":"2025-05"},{"category":"burglary","location_type":"Force","location":{"latitude":"53.780724","street":{"id":1497361,"name":"On or near Wainfleet Avenue"},"longitude":"-0.420174"},"context":"","outcome_status":{"category":"Investigation complete; no suspect identified","date":"2025-06"},"persistent_id":"411153be679d87ed5b560435266c76c9c9a36c94cc2bc8b4b958e38c8fd0d475","id":128173329,"location_subtype":"","month":"2025-05"},{"category":"burglary","location_type":"Force","location":{"latitude":"53.787573","street":{"id":1497197,"name":"On or near Ferens Gardens"},"longitude":"-0.423545"},"context":"","outcome_status":{"category":"Unable to prosecute suspect","date":"2025-07"},"persistent_id":"fac08e0630fc1cfc4c0f669f29d50af230e3d3873868293c45acdd8dc710842f","id":128168034,"location_subtype":"","month":"2025-05"},{"category":"criminal-damage-arson","location_type":"Force","location":{"latitude":"53.774136","street":{"id":1497072,"name":"On or near Travis Road"},"longitude":"-0.424382"},"context":"","outcome_status":{"category":"Unable to prosecute suspect","date":"2025-07"},"persistent_id":"45c3f331a92c75ed83d24891cb361c70a23a3c8072a8b73de2501056e360d335","id":128168257,"location_subtype":"","month":"2025-05"},{"category":"criminal-damage-arson","location_type":"Force","location":{"latitude":"53.785164","street":{"id":1497387,"name":"On or near Park Avenue"},"longitude":"-0.419521"},"context":"","outcome_status":{"category":"Investigation complete; no suspect identified","date":"2025-05"},"persistent_id":"ca517d057c39e945c96c3be92337a4060bb6266aca8d631bca7b1de60293f546","id":128172821,"location_subtype":"","month":"2025-05"},{"category":"criminal-damage-arson","location_type":"Force","location":{"latitude":"53.774136","street":{"id":1497072,"name":"On or near Travis Road"},"longitude":"-0.424382"},"context":"","outcome_status":{"category":"Investigation complete; no suspect identified","date":"2025-05"},"persistent_id":"58b58f13e056850c3f8016d304f88c5c6917b4a6ae1037185531417b57d61571","id":128171173,"location_subtype":"","month":"2025-05"},{"category":"criminal-damage-arson","location_type":"Force","location":{"latitude":"53.783966","street":{"id":1497409,"name":"On or near Knowsley Avenue"},"longitude":"-0.418580"},"context":"","outcome_status":{"category":"Investigation complete; no suspect identified","date":"2025-06"},"persistent_id":"759b4ae361ed544d402d1215c7972914db2a166b26887f81eef773b6fe6dcd2a","id":128172366,"location_subtype":"","month":"2025-05"},{"category":"criminal-damage-arson","location_type":"Force","location":{"latitude":"53.787178","street":{"id":1497322,"name":"On or near Park Lane"},"longitude":"-0.421601"},"context":"","outcome_status":{"category":"Investigation complete; no suspect identified","date":"2025-05"},"persistent_id":"e3ec883ac9bfc44c5b392c1ec103729f7473006be3ebd4f81519d7bab366b423","id":128166869,"location_subtype":"","month":"2025-05"},{"category":"criminal-damage-arson","location_type":"Force","location":{"latitude":"53.780349","street":{"id":1497526,"name":"On or near Royal Courts"},"longitude":"-0.414937"},"context":"","outcome_status":{"category":"Investigation complete; no suspect identified","date":"2025-05"},"persistent_id":"1951cd681008c54594e151eafcaac840ad2916f729707dce6fe023bb70bf5490","id":128166364,"location_subtype":"","month":"2025-05"},{"category":"criminal-damage-arson","location_type":"Force","location":{"latitude":"53.786309","street":{"id":1496638,"name":"On or near Brigade Drive"},"longitude":"-0.435523"},"context":"","outcome_status":{"category":"Unable to prosecute suspect","date":"2025-06"},"persistent_id":"e2fcb9c501b383eea38615581523f109753422cdf8adda0e81f4cb5a84a1e074","id":128170661,"location_subtype":"","month":"2025-05"},{"category":"drugs","location_type":"Force","location":{"latitude":"53.785826","street":{"id":1497634,"name":"On or near Lawson Avenue"},"longitude":"-0.410435"},"context":"","outcome_status":{"category":"Local resolution","date":"2025-06"},"persistent_id":"2c74b80c742c6446d95e0a7acc1c62782e992ac877a8fecce2ec0ea591d1364c","id":128170157,"location_subtype":"","month":"2025-05"},{"category":"other-theft","location_type":"Force","location":{"latitude":"53.774736","street":{"id":1497222,"name":"On or near Ramsden Place"},"longitude":"-0.424223"},"context":"","outcome_status":{"category":"Investigation complete; no suspect identified","date":"2025-05"},"persistent_id":"5d1ea4fd671cdc01146adef9b13627ff4b56f28cc7deca4838f86ab22fc0deac","id":128170407,"location_subtype":"","month":"2025-05"},{"category":"other-theft","location_type":"Force","location":{"latitude":"53.784419","street":{"id":1497550,"name":"On or near Petrol Station"},"longitude":"-0.413448"},"context":"","outcome_status":{"category":"Investigation complete; no suspect identified","date":"2025-05"},"persistent_id":"e516d69d85c3f38218ae9dcfea01d543e3796029ae6fedd0a8738491bd3d311f","id":128166366,"location_subtype":"","month":"2025-05"},{"category":"other-theft","location_type":"Force","location":{"latitude":"53.777203","street":{"id":1497291,"name":"On or near Langdale Crescent"},"longitude":"-0.421809"},"context":"","outcome_status":{"category":"Investigation complete; no suspect identified","date":"2025-05"},"persistent_id":"7eab6db6b1e8c0556effda324174e2551e3875354e8df24ed3100d6ccf0fb9ae","id":128172587,"location_subtype":"","month":"2025-05"},{"category":"possession-of-weapons","location_type":"Force","location":{"latitude":"53.775856","street":{"id":1497316,"name":"On or near Lea Crescent"},"longitude":"-0.421222"},"context":"","outcome_status":{"category":"Court result unavailable","date":"2025-11"},"persistent_id":"f4194152e8b05c5b8c37380e931c1c58664e330de08b60c283ccbd42ffcf2793","id":128166360,"location_subtype":"","month":"2025-05"},{"category":"possession-of-weapons","location_type":"Force","location":{"latitude":"53.776002","street":{"id":1496432,"name":"On or near Edmond Close"},"longitude":"-0.439184"},"context":"","outcome_status":{"category":"Status update unavailable","date":"2025-09"},"persistent_id":"a8e237c67394130dd57d8ee30cb96d39783e15f1ec26233993a022c1d2708e54","id":128169709,"location_subtype":"","month":"2025-05"},{"category":"possession-of-weapons","location_type":"Force","location":{"latitude":"53.776316","street":{"id":1496650,"name":"On or near Sawden Grove"},"longitude":"-0.435713"},"context":"","outcome_status":{"category":"Court result unavailable","date":"2025-11"},"persistent_id":"a8e237c67394130dd57d8ee30cb96d39783e15f1ec26233993a022c1d2708e54","id":128169712,"location_subtype":"","month":"2025-05"},{"category":"public-order","location_type":"Force","location":{"latitude":"53.776550","street":{"id":1497509,"name":"On or near Saner's Close"},"longitude":"-0.415171"},"context":"","outcome_status":{"category":"Status update unavailable","date":"2025-09"},"persistent_id":"35b46fcddb417129015db6cf2906192854a5eff0cd30a4a48f1b5a1aa846247d","id":128169264,"location_subtype":"","month":"2025-05"},{"category":"public-order","location_type":"Force","location":{"latitude":"53.781721","street":{"id":1497024,"name":"On or near Parkside Close"},"longitude":"-0.427680"},"context":"","outcome_status":{"category":"Unable to prosecute suspect","date":"2025-05"},"persistent_id":"b649a677abe06f29019f2a4931210ac5e31c8dcf7f921a0c68702a9062764f8a","id":128170404,"location_subtype":"","month":"2025-05"},{"category":"public-order","location_type":"Force","location":{"latitude":"53.775856","street":{"id":1497316,"name":"On or near Lea Crescent"},"longitude":"-0.421222"},"context":"","outcome_status":{"category":"Unable to prosecute suspect","date":"2025-06"},"persistent_id":"abf852261e79dafdf485427191f5d25baf62ad3441aa06fda8239f97702c3130","id":128171437,"location_subtype":"","month":"2025-05"},{"category":"public-order","location_type":"Force","location":{"latitude":"53.776733","street":{"id":1495970,"name":"On or near Hospital"},"longitude":"-0.444985"},"context":"","outcome_status":{"category":"Investigation complete; no suspect identified","date":"2025-05"},"persistent_id":"7a00cdfc171fb5f3b68c68affb209197c5138d0af435791d9f0dcc28136a5a0c","id":128170655,"location_subtype":"","month":"2025-05"},{"category":"public-order","location_type":"Force","location":{"latitude":"53.774608","street":{"id":1497262,"name":"On or near Muston Avenue"},"longitude":"-0.422680"},"context":"","outcome_status":{"category":"Investigation complete; no suspect identified","date":"2025-05"},"persistent_id":"84bc0efddc2b27fcd2d62d6b75afe79edadffcfcb5d2af117679a99014e1de46","id":128168259,"location_subtype":"","month":"2025-05"},{"category":"public-order","location_type":"Force","location":{"latitude":"53.776550","street":{"id":1497509,"name":"On or near Saner's Close"},"longitude":"-0.415171"},"context":"","outcome_status":{"category":"Further investigation is not in the public interest","date":"2025-06"},"persistent_id":"e4b693c0cdfaf6e913f1b76c207f559ef25485636609a85a117372a3269762b9","id":128168733,"location_subtype":"","month":"2025-05"},{"category":"public-order","location_type":"Force","location":{"latitude":"53.776122","street":{"id":1497243,"name":"On or near The Parkway"},"longitude":"-0.422972"},"context":"","outcome_status":{"category":"Investigation complete; no suspect identified","date":"2025-05"},"persistent_id":"e1fb83b6440b32fbb66b0d2e8f0dc5b816d219956a3666138ac9843550fd727c","id":128170931,"location_subtype":"","month":"2025-05"},{"category":"public-order","location_type":"Force","location":{"latitude":"53.780303","street":{"id":1497540,"name":"On or near Parking Area"},"longitude":"-0.413512"},"context":"","outcome_status":{"category":"Unable to prosecute suspect","date":"2025-05"},"persistent_id":"1bfd4980939b8a4f23d330ca116c171b170577004a31d4b68bc6a2740ac398c7","id":128167784,"location_subtype":"","month":"2025-05"},{"category":"public-order","location_type":"Force","location":{"latitude":"53.782122","street":{"id":1497548,"name":"On or near King Street"},"longitude":"-0.413747"},"context":"","outcome_status":{"category":"Investigation complete; no suspect identified","date":"2025-05"},"persistent_id":"3240cf3468dec2cbd16ccd02e426fd870705ed7ff70a82c889f27d5bc80a62e8","id":128166365,"location_subtype":"","month":"2025-05"},{"category":"public-order","location_type":"Force","location":{"latitude":"53.784254","street":{"id":1497537,"name":"On or near Supermarket"},"longitude":"-0.414319"},"context":"","outcome_status":{"category":"Investigation complete; no suspect identified","date":"2025-05"},"persistent_id":"356bc77d6565242a4bfa76d7329127d0ae3a889ecab1268981cc44f359ca9f00","id":128168265,"location_subtype":"","month":"2025-05"},{"category":"shoplifting","location_type":"Force","location":{"latitude":"53.784419","street":{"id":1497550,"name":"On or near Petrol Station"},"longitude":"-0.413448"},"context":"","outcome_status":{"category":"Investigation complete; no suspect identified","date":"2025-05"},"persistent_id":"53502b591dbb805c983eff7a88f43a95bb31bf388e249b270008991ccd34585f","id":128168736,"location_subtype":"","month":"2025-05"},{"category":"shoplifting","location_type":"Force","location":{"latitude":"53.780303","street":{"id":1497540,"name":"On or near Parking Area"},"longitude":"-0.413512"},"context":"","outcome_status":{"category":"Investigation complete; no suspect identified","date":"2025-05"},"persistent_id":"bde7cb14c0b37c1e108ff11422f37e005ed121ad8a80bf0a9bd28cff745a3d85","id":128173334,"location_subtype":"","month":"2025-05"},{"category":"shoplifting","location_type":"Force","location":{"latitude":"53.784419","street":{"id":1497550,"name":"On or near Petrol Station"},"longitude":"-0.413448"},"context":"","outcome_status":{"category":"Investigation complete; no suspect identified","date":"2025-05"},"persistent_id":"e94dbd4658b780fe5d8dde39cd0ca6a1df6cc2367ef9580e36861e77f109e8fc","id":128169266,"location_subtype":"","month":"2025-05"},{"category":"shoplifting","location_type":"Force","location":{"latitude":"53.780303","street":{"id":1497540,"name":"On or near Parking Area"},"longitude":"-0.413512"},"context":"","outcome_status":{"category":"Court result unavailable","date":"2026-01"},"persistent_id":"53e8493441fd6790a585647cd58cafd5498e9c557c6e45e2b9a6cdeb33869861","id":128172594,"location_subtype":"","month":"2025-05"},{"category":"vehicle-crime","location_type":"Force","location":{"latitude":"53.777044","street":{"id":1497495,"name":"On or near Link Road"},"longitude":"-0.415213"},"context":"","outcome_status":{"category":"Investigation complete; no suspect identified","date":"2025-05"},"persistent_id":"f77799ac6f615959d218f02d537e65028a12d9c70075745730e4de7e8ab496c9","id":128170413,"location_subtype":"","month":"2025-05"},{"category":"vehicle-crime","location_type":"Force","location":{"latitude":"53.783966","street":{"id":1497409,"name":"On or near Knowsley Avenue"},"longitude":"-0.418580"},"context":"","outcome_status":{"category":"Investigation complete; no suspect identified","date":"2025-05"},"persistent_id":"dccdcc05fab7fcc11391d50cab96ae014c0cf99928dd4d9716d3113281ff89a9","id":128168486,"location_subtype":"","month":"2025-05"},{"category":"vehicle-crime","location_type":"Force","location":{"latitude":"53.781471","street":{"id":1497764,"name":"On or near Parking Area"},"longitude":"-0.406714"},"context":"","outcome_status":{"category":"Investigation complete; no suspect identified","date":"2025-05"},"persistent_id":"64d647bdc44d9a82b841036292ca043865b9447aacffb2529ab8c73d7d880aa8","id":128170158,"location_subtype":"","month":"2025-05"},{"category":"vehicle-crime","location_type":"Force","location":{"latitude":"53.784254","street":{"id":1497537,"name":"On or near Supermarket"},"longitude":"-0.414319"},"context":"","outcome_status":{"category":"Investigation complete; no suspect identified","date":"2025-05"},"persistent_id":"b1f3be34ad1cec8d99eb1689df03845ec9c9ee4d41234883afa74382ce174b81","id":128173332,"location_subtype":"","month":"2025-05"},{"category":"vehicle-crime","location_type":"Force","location":{"latitude":"53.784419","street":{"id":1497550,"name":"On or near Petrol Station"},"longitude":"-0.413448"},"context":"","outcome_status":{"category":"Investigation complete; no suspect identified","date":"2025-05"},"persistent_id":"c79d0d0fa6809f56a95ed66c3f99b8c4f797536d4d79a93922b15ce059328839","id":128173333,"location_subtype":"","month":"2025-05"},{"category":"vehicle-crime","location_type":"Force","location":{"latitude":"53.780303","street":{"id":1497540,"name":"On or near Parking Area"},"longitude":"-0.413512"},"context":"","outcome_status":{"category":"Investigation complete; no suspect identified","date":"2025-05"},"persistent_id":"2631d95ed94c0204d4459229e9ec0f1b62c2f798a20c57a7d71a586701463534","id":128170412,"location_subtype":"","month":"2025-05"},{"category":"violent-crime","location_type":"Force","location":{"latitude":"53.782450","street":{"id":1496740,"name":"On or near Stewart Garth"},"longitude":"-0.432585"},"context":"","outcome_status":{"category":"Action to be taken by another organisation","date":"2025-05"},"persistent_id":"e437a7118a1a01a3f8123a51c7f4d1a249abf3d47617e5fcbf8c6df375689b76","id":128171163,"location_subtype":"","month":"2025-05"},{"category":"violent-crime","location_type":"Force","location":{"latitude":"53.775856","street":{"id":1497316,"name":"On or near Lea Crescent"},"longitude":"-0.421222"},"context":"","outcome_status":{"category":"Unable to prosecute suspect","date":"2025-05"},"persistent_id":"71235d3936b364654ab8aaf22175e6854fd4e350262f3989d8457ad715f107da","id":128171438,"location_subtype":"","month":"2025-05"},{"category":"violent-crime","location_type":"Force","location":{"latitude":"53.774210","street":{"id":1497310,"name":"On or near Ganton Avenue"},"longitude":"-0.421830"},"context":"","outcome_status":{"category":"Unable to prosecute suspect","date":"2025-05"},"persistent_id":"0842e38132a9b321db97d018f11cf8f10285d94eb6e8fa4cd2f5c81ada527a72","id":128171891,"location_subtype":"","month":"2025-05"},{"category":"violent-crime","location_type":"Force","location":{"latitude":"53.787998","street":{"id":1496585,"name":"On or near Harland Way"},"longitude":"-0.436158"},"context":"","outcome_status":{"category":"Unable to prosecute suspect","date":"2025-07"},"persistent_id":"b928f6b2582c59db476f22ae5ebf9f288e146bda409cbedd9d1f35a0b8ce4930","id":128168027,"location_subtype":"","month":"2025-05"},{"category":"violent-crime","location_type":"Force","location":{"latitude":"53.776550","street":{"id":1497509,"name":"On or near Saner's Close"},"longitude":"-0.415171"},"context":"","outcome_status":{"category":"Unable to prosecute suspect","date":"2025-05"},"persistent_id":"89d253df269dd394d35b79c52badaabe1614bca2ec2763350e18447ab07b13c3","id":128172593,"location_subtype":"","month":"2025-05"},{"category":"violent-crime","location_type":"Force","location":{"latitude":"53.781150","street":{"id":1497535,"name":"On or near Parking Area"},"longitude":"-0.414345"},"context":"","outcome_status":{"category":"Status update unavailable","date":"2025-09"},"persistent_id":"148503786705cba7cf11e4d004ff489981e5b533ff8a2514f620a02c3b38d08c","id":128172825,"location_subtype":"","month":"2025-05"},{"category":"violent-crime","location_type":"Force","location":{"latitude":"53.783966","street":{"id":1497409,"name":"On or near Knowsley Avenue"},"longitude":"-0.418580"},"context":"","outcome_status":{"category":"Unable to prosecute suspect","date":"2025-07"},"persistent_id":"cdd802769ad17253efb3717f3ae9f1d9bb2c1f99a5bce0dd65707e32b2b98236","id":128171665,"location_subtype":"","month":"2025-05"},{"category":"violent-crime","location_type":"Force","location":{"latitude":"53.776316","street":{"id":1496650,"name":"On or near Sawden Grove"},"longitude":"-0.435713"},"context":"","outcome_status":{"category":"Court result unavailable","date":"2025-12"},"persistent_id":"9c9844f73c95cf2b9f3b08d31cd298a7b63c843e02271a4aefb0b6cf6bf7495c","id":128169476,"location_subtype":"","month":"2025-05"},{"category":"violent-crime","location_type":"Force","location":{"latitude":"53.780303","street":{"id":1497540,"name":"On or near Parking Area"},"longitude":"-0.413512"},"context":"","outcome_status":{"category":"Investigation complete; no suspect identified","date":"2025-07"},"persistent_id":"74f6ce8a733921bb4ffc17ebe6f805d331d81477cb8dc29e12a732ae66e75777","id":128168735,"location_subtype":"","month":"2025-05"},{"category":"violent-crime","location_type":"Force","location":{"latitude":"53.777775","street":{"id":1497381,"name":"On or near Cottage Green"},"longitude":"-0.419496"},"context":"","outcome_status":{"category":"Local resolution","date":"2025-08"},"persistent_id":"0a8075d7deb90e0a3a17a52139a24f2aef2c8e4cbd6862dbbddc5ca88cb1ed69","id":128169724,"location_subtype":"","month":"2025-05"},{"category":"violent-crime","location_type":"Force","location":{"latitude":"53.776550","street":{"id":1497509,"name":"On or near Saner's Close"},"longitude":"-0.415171"},"context":"","outcome_status":{"category":"Action to be taken by another organisation","date":"2025-06"},"persistent_id":"5c3e1e9a4f093a6c49e6fa045c70e59abbf5014a8d7bcbfae3fbf0136bb84f90","id":128168038,"location_subtype":"","month":"2025-05"},{"category":"violent-crime","location_type":"Force","location":{"latitude":"53.781065","street":{"id":1496880,"name":"On or near St Margarets Close"},"longitude":"-0.431150"},"context":"","outcome_status":{"category":"Unable to prosecute suspect","date":"2025-06"},"persistent_id":"7e1a7d3e9ea56634225c2203f47ca748c87e5d64d9ab3487ab963b32b461a3ae","id":128170400,"location_subtype":"","month":"2025-05"},{"category":"violent-crime","location_type":"Force","location":{"latitude":"53.776733","street":{"id":1495970,"name":"On or near Hospital"},"longitude":"-0.444985"},"context":"","outcome_status":{"category":"Local resolution","date":"2025-06"},"persistent_id":"7cd539a6a355e37a52a45d3557907817e721e21fa856bafe147e4919235e5d69","id":128167263,"location_subtype":"","month":"2025-05"},{"category":"violent-crime","location_type":"Force","location":{"latitude":"53.776316","street":{"id":1496650,"name":"On or near Sawden Grove"},"longitude":"-0.435713"},"context":"","outcome_status":{"category":"Status update unavailable","date":"2025-09"},"persistent_id":"b9a5d5cc9821d60071d380c5e83e7c569ab1b128aa226c9c07f1a5dbfbae8318","id":128166629,"location_subtype":"","month":"2025-05"},{"category":"violent-crime","location_type":"Force","location":{"latitude":"53.776733","street":{"id":1495970,"name":"On or near Hospital"},"longitude":"-0.444985"},"context":"","outcome_status":{"category":"Unable to prosecute suspect","date":"2025-06"},"persistent_id":"907be53236d7c551d946e1d794ffd5c27b3f5d0300361a69c0a75f7fc0acc4db","id":128166621,"location_subtype":"","month":"2025-05"},{"category":"violent-crime","location_type":"Force","location":{"latitude":"53.785892","street":{"id":1497356,"name":"On or near Grange Drive"},"longitude":"-0.420845"},"context":"","outcome_status":{"category":"Unable to prosecute suspect","date":"2025-07"},"persistent_id":"1fa634192e8ec48eda032cc69a102215a8624a5c2aa763df124d9abb9284dea8","id":128167781,"location_subtype":"","month":"2025-05"},{"category":"violent-crime","location_type":"Force","location":{"latitude":"53.786860","street":{"id":1497638,"name":"On or near Millhouse Woods Lane"},"longitude":"-0.409105"},"context":"","outcome_status":{"category":"Action to be taken by another organisation","date":"2025-05"},"persistent_id":"36403d445b4eee1ef5f713958960d6943636d3a09fe2994f25f03eaae26b4e7a","id":128166369,"location_subtype":"","month":"2025-05"},{"category":"violent-crime","location_type":"Force","location":{"latitude":"53.774136","street":{"id":1497072,"name":"On or near Travis Road"},"longitude":"-0.424382"},"context":"","outcome_status":{"category":"Investigation complete; no suspect identified","date":"2025-05"},"persistent_id":"9f7fe48edfa7b3c412ce854c593da54ff952c21dbe1f02e8d038e93b89fd2747","id":128166632,"location_subtype":"","month":"2025-05"},{"category":"violent-crime","location_type":"Force","location":{"latitude":"53.782334","street":{"id":1496690,"name":"On or near Sancton Close"},"longitude":"-0.434715"},"context":"","outcome_status":{"category":"Unable to prosecute suspect","date":"2025-05"},"persistent_id":"5b51262b563a700e3cfeb156cce4fd6647a16599ceb3b82f3274ff3413c460ed","id":128166867,"location_subtype":"","month":"2025-05"},{"category":"violent-crime","location_type":"Force","location":{"latitude":"53.787129","street":{"id":1496717,"name":"On or near Harland Way"},"longitude":"-0.432882"},"context":"","outcome_status":{"category":"Unable to prosecute suspect","date":"2025-10"},"persistent_id":"313c83253bd69dc8492a9b6ad1947e13b5c35d5a588742cb6887db954d7db340","id":128171429,"location_subtype":"","month":"2025-05"},{"category":"violent-crime","location_type":"Force","location":{"latitude":"53.775495","street":{"id":1496594,"name":"On or near Dinsdale Croft"},"longitude":"-0.435515"},"context":"","outcome_status":{"category":"Status update unavailable","date":"2025-09"},"persistent_id":"c3e40ce8abdba945ff01f1f7bef12ed5f968ef5eea057368b56809faa5fd1009","id":128170923,"location_subtype":"","month":"2025-05"},{"category":"violent-crime","location_type":"Force","location":{"latitude":"53.779281","street":{"id":1497391,"name":"On or near Elmfield Drive"},"longitude":"-0.419135"},"context":"","outcome_status":{"category":"Unable to prosecute suspect","date":"2025-05"},"persistent_id":"29914e60d61226575848a6f7dc231fc1068207d3957629e3a4d74b53a9efbd36","id":128168261,"location_subtype":"","month":"2025-05"},{"category":"violent-crime","location_type":"Force","location":{"latitude":"53.776316","street":{"id":1496650,"name":"On or near Sawden Grove"},"longitude":"-0.435713"},"context":"","outcome_status":{"category":"Status update unavailable","date":"2025-09"},"persistent_id":"51604825ec392102b1c4124533d16cad23cf1aed6c101667a58f2072f9ffdfd3","id":128169475,"location_subtype":"","month":"2025-05"},{"category":"violent-crime","location_type":"Force","location":{"latitude":"53.776316","street":{"id":1496650,"name":"On or near Sawden Grove"},"longitude":"-0.435713"},"context":"","outcome_status":{"category":"Court result unavailable","date":"2025-11"},"persistent_id":"aa7f8485cd76df6915aecf1c93d6ad0ecb20668a567cf1d5440407fa7ae4ec99","id":128169477,"location_subtype":"","month":"2025-05"},{"category":"violent-crime","location_type":"Force","location":{"latitude":"53.776212","street":{"id":1497242,"name":"On or near The Close"},"longitude":"-0.423637"},"context":"","outcome_status":{"category":"Investigation complete; no suspect identified","date":"2025-05"},"persistent_id":"98be8c9355340ea961e28f0946fb38262cdb9c06eff52b64a6fb0e05f2cb034e","id":128169721,"location_subtype":"","month":"2025-05"},{"category":"violent-crime","location_type":"Force","location":{"latitude":"53.776283","street":{"id":1497342,"name":"On or near Home Green"},"longitude":"-0.419506"},"context":"","outcome_status":{"category":"Unable to prosecute suspect","date":"2025-05"},"persistent_id":"617ada84e98d0099800ba5f12718198c597669f1de9136f03e4d3b760b9584de","id":128169945,"location_subtype":"","month":"2025-05"},{"category":"violent-crime","location_type":"Force","location":{"latitude":"53.774608","street":{"id":1497262,"name":"On or near Muston Avenue"},"longitude":"-0.422680"},"context":"","outcome_status":{"category":"Unable to prosecute suspect","date":"2025-05"},"persistent_id":"df7c6358bcf58676126b707d976493ee04069925ad2acdc69991cdf5c7da5a9f","id":128170155,"location_subtype":"","month":"2025-05"},{"category":"violent-crime","location_type":"Force","location":{"latitude":"53.782122","street":{"id":1497548,"name":"On or near King Street"},"longitude":"-0.413747"},"context":"","outcome_status":{"category":"Unable to prosecute suspect","date":"2025-06"},"persistent_id":"46243366b5c63a0516ac93a05fb462d33ab680c0139d0ba736b2b803a970321d","id":128172143,"location_subtype":"","month":"2025-05"},{"category":"violent-crime","location_type":"Force","location":{"latitude":"53.782450","street":{"id":1496740,"name":"On or near Stewart Garth"},"longitude":"-0.432585"},"context":"","outcome_status":{"category":"Unable to prosecute suspect","date":"2025-05"},"persistent_id":"6fe869ef95949d6a24e9df82e267abf59f275580ebca80f3c7c72f87596261e0","id":128170663,"location_subtype":"","month":"2025-05"},{"category":"violent-crime","location_type":"Force","location":{"latitude":"53.785385","street":{"id":1497412,"name":"On or near Spencer Way"},"longitude":"-0.415111"},"context":"","outcome_status":{"category":"Investigation complete; no suspect identified","date":"2025-06"},"persistent_id":"1a155bc604fc9948689919262e2ee76c6910b0f9400e7b91b8805345a8def640","id":128173087,"location_subtype":"","month":"2025-05"},{"category":"violent-crime","location_type":"Force","location":{"latitude":"53.776385","street":{"id":1496253,"name":"On or near Castle Road"},"longitude":"-0.440308"},"context":"","outcome_status":{"category":"Unable to prosecute suspect","date":"2025-06"},"persistent_id":"89ad20ad9e1b133d090488fc251b3f594124e711dd3d3c77a2872c8d25a657eb","id":128173318,"location_subtype":"","month":"2025-05"},{"category":"other-crime","location_type":"Force","location":{"latitude":"53.775354","street":{"id":1497148,"name":"On or near Burton Road"},"longitude":"-0.426097"},"context":"","outcome_status":{"category":"Local resolution","date":"2025-06"},"persistent_id":"f66cf2c1174c844f2b0bd7576ad1b259d3c0fbf7b2a1564bf052bd65e87a66f0","id":128167500,"location_subtype":"","month":"2025-05"},{"category":"other-crime","location_type":"Force","location":{"latitude":"53.787129","street":{"id":1496717,"name":"On or near Harland Way"},"longitude":"-0.432882"},"context":"","outcome_status":{"category":"Status update unavailable","date":"2025-09"},"persistent_id":"f66cf2c1174c844f2b0bd7576ad1b259d3c0fbf7b2a1564bf052bd65e87a66f0","id":128167496,"location_subtype":"","month":"2025-05"},{"category":"other-crime","location_type":"Force","location":{"latitude":"53.783966","street":{"id":1497409,"name":"On or near Knowsley Avenue"},"longitude":"-0.418580"},"context":"","outcome_status":{"category":"Unable to prosecute suspect","date":"2025-05"},"persistent_id":"acc9f6abac598032ee33c703b83be4475c1d3a077e1043fcb89f09133b83e174","id":128167782,"location_subtype":"","month":"2025-05"},{"category":"other-crime","location_type":"Force","location":{"latitude":"53.787129","street":{"id":1496717,"name":"On or near Harland Way"},"longitude":"-0.432882"},"context":"","outcome_status":{"category":"Action to be taken by another organisation","date":"2025-05"},"persistent_id":"75bfe364bd846a5acdb7dd01a2e6d8d52aa555e9c8124b06c081769ed054df9f","id":128167270,"location_subtype":"","month":"2025-05"}]