[{"category":"anti-social-behaviour","location_type":"Force","location":{"latitude":"51.606168","street":{"id":1702747,"name":"On or near Shakespeare Square"},"longitude":"0.078679"},"context":"","outcome_status":null,"persistent_id":"","id":132880736,"location_subtype":"","month":"2025-12"},{"category":"anti-social-behaviour","location_type":"Force","location":{"latitude":"51.618071","street":{"id":2134739,"name":"On or near Daylop Drive"},"longitude":"0.116131"},"context":"","outcome_status":null,"persistent_id":"","id":132879419,"location_subtype":"","month":"2025-12"},{"category":"anti-social-behaviour","location_type":"Force","location":{"latitude":"51.609214","street":{"id":1704068,"name":"On or near Karina Close"},"longitude":"0.097030"},"context":"","outcome_status":null,"persistent_id":"","id":132877380,"location_subtype":"","month":"2025-12"},{"category":"anti-social-behaviour","location_type":"Force","location":{"latitude":"51.609214","street":{"id":1704068,"name":"On or near Karina Close"},"longitude":"0.097030"},"context":"","outcome_status":null,"persistent_id":"","id":132878663,"location_subtype":"","month":"2025-12"},{"category":"anti-social-behaviour","location_type":"Force","location":{"latitude":"51.604780","street":{"id":1702874,"name":"On or near Montfort Gardens"},"longitude":"0.080911"},"context":"","outcome_status":null,"persistent_id":"","id":132867650,"location_subtype":"","month":"2025-12"},{"category":"anti-social-behaviour","location_type":"Force","location":{"latitude":"51.610644","street":{"id":2134164,"name":"On or near St Winifred's Close"},"longitude":"0.083375"},"context":"","outcome_status":null,"persistent_id":"","id":132968477,"location_subtype":"","month":"2025-12"},{"category":"anti-social-behaviour","location_type":"Force","location":{"latitude":"51.607410","street":{"id":2134283,"name":"On or near Copperfield"},"longitude":"0.088758"},"context":"","outcome_status":null,"persistent_id":"","id":132968242,"location_subtype":"","month":"2025-12"},{"category":"anti-social-behaviour","location_type":"Force","location":{"latitude":"51.607448","street":{"id":2134253,"name":"On or near Limes Avenue"},"longitude":"0.085121"},"context":"","outcome_status":null,"persistent_id":"","id":132967637,"location_subtype":"","month":"2025-12"},{"category":"anti-social-behaviour","location_type":"Force","location":{"latitude":"51.605226","street":{"id":2134304,"name":"On or near Copperfield"},"longitude":"0.088701"},"context":"","outcome_status":null,"persistent_id":"","id":132967605,"location_subtype":"","month":"2025-12"},{"category":"anti-social-behaviour","location_type":"Force","location":{"latitude":"51.605337","street":{"id":1703537,"name":"On or near Amanda Close"},"longitude":"0.090050"},"context":"","outcome_status":null,"persistent_id":"","id":132874551,"location_subtype":"","month":"2025-12"},{"category":"anti-social-behaviour","location_type":"Force","location":{"latitude":"51.605337","street":{"id":1703537,"name":"On or near Amanda Close"},"longitude":"0.090050"},"context":"","outcome_status":null,"persistent_id":"","id":132874547,"location_subtype":"","month":"2025-12"},{"category":"anti-social-behaviour","location_type":"Force","location":{"latitude":"51.610681","street":{"id":1705474,"name":"On or near Branch Road"},"longitude":"0.118474"},"context":"","outcome_status":null,"persistent_id":"","id":132872950,"location_subtype":"","month":"2025-12"},{"category":"anti-social-behaviour","location_type":"Force","location":{"latitude":"51.609214","street":{"id":1704068,"name":"On or near Karina Close"},"longitude":"0.097030"},"context":"","outcome_status":null,"persistent_id":"","id":132872259,"location_subtype":"","month":"2025-12"},{"category":"anti-social-behaviour","location_type":"Force","location":{"latitude":"51.613074","street":{"id":1704961,"name":"On or near Verderers Road"},"longitude":"0.110482"},"context":"","outcome_status":null,"persistent_id":"","id":132875225,"location_subtype":"","month":"2025-12"},{"category":"anti-social-behaviour","location_type":"Force","location":{"latitude":"51.603464","street":{"id":1703423,"name":"On or near Hughes Road"},"longitude":"0.089169"},"context":"","outcome_status":null,"persistent_id":"","id":132875095,"location_subtype":"","month":"2025-12"},{"category":"anti-social-behaviour","location_type":"Force","location":{"latitude":"51.610807","street":{"id":2134159,"name":"On or near Petrol Station"},"longitude":"0.081288"},"context":"","outcome_status":null,"persistent_id":"","id":132967578,"location_subtype":"","month":"2025-12"},{"category":"anti-social-behaviour","location_type":"Force","location":{"latitude":"51.609214","street":{"id":1704068,"name":"On or near Karina Close"},"longitude":"0.097030"},"context":"","outcome_status":null,"persistent_id":"","id":132879854,"location_subtype":"","month":"2025-12"},{"category":"anti-social-behaviour","location_type":"Force","location":{"latitude":"51.603651","street":{"id":1703189,"name":"On or near Supermarket"},"longitude":"0.084831"},"context":"","outcome_status":null,"persistent_id":"","id":132878499,"location_subtype":"","month":"2025-12"},{"category":"anti-social-behaviour","location_type":"Force","location":{"latitude":"51.611087","street":{"id":1705318,"name":"On or near Newton Road"},"longitude":"0.115445"},"context":"","outcome_status":null,"persistent_id":"","id":132878496,"location_subtype":"","month":"2025-12"},{"category":"anti-social-behaviour","location_type":"Force","location":{"latitude":"51.603464","street":{"id":1703423,"name":"On or near Hughes Road"},"longitude":"0.089169"},"context":"","outcome_status":null,"persistent_id":"","id":132877236,"location_subtype":"","month":"2025-12"},{"category":"anti-social-behaviour","location_type":"Force","location":{"latitude":"51.606574","street":{"id":1704726,"name":"On or near Stoke Avenue"},"longitude":"0.107885"},"context":"","outcome_status":null,"persistent_id":"","id":132877179,"location_subtype":"","month":"2025-12"},{"category":"anti-social-behaviour","location_type":"Force","location":{"latitude":"51.605676","street":{"id":1704664,"name":"On or near Dryden Close"},"longitude":"0.105778"},"context":"","outcome_status":null,"persistent_id":"","id":132877022,"location_subtype":"","month":"2025-12"},{"category":"anti-social-behaviour","location_type":"Force","location":{"latitude":"51.608753","street":{"id":1704582,"name":"On or near Fallow Close"},"longitude":"0.104693"},"context":"","outcome_status":null,"persistent_id":"","id":132875976,"location_subtype":"","month":"2025-12"},{"category":"anti-social-behaviour","location_type":"Force","location":{"latitude":"51.606914","street":{"id":1704576,"name":"On or near Kesteven Close"},"longitude":"0.104463"},"context":"","outcome_status":null,"persistent_id":"","id":132875942,"location_subtype":"","month":"2025-12"},{"category":"anti-social-behaviour","location_type":"Force","location":{"latitude":"51.605835","street":{"id":1704004,"name":"On or near Clinton Crescent"},"longitude":"0.097394"},"context":"","outcome_status":null,"persistent_id":"","id":132875893,"location_subtype":"","month":"2025-12"},{"category":"anti-social-behaviour","location_type":"Force","location":{"latitude":"51.603464","street":{"id":1703423,"name":"On or near Hughes Road"},"longitude":"0.089169"},"context":"","outcome_status":null,"persistent_id":"","id":132869447,"location_subtype":"","month":"2025-12"},{"category":"anti-social-behaviour","location_type":"Force","location":{"latitude":"51.612179","street":{"id":1703796,"name":"On or near Long Green"},"longitude":"0.094134"},"context":"","outcome_status":null,"persistent_id":"","id":132869278,"location_subtype":"","month":"2025-12"},{"category":"anti-social-behaviour","location_type":"Force","location":{"latitude":"51.609820","street":{"id":1704991,"name":"On or near Manford Cross"},"longitude":"0.111400"},"context":"","outcome_status":null,"persistent_id":"","id":132868746,"location_subtype":"","month":"2025-12"},{"category":"anti-social-behaviour","location_type":"Force","location":{"latitude":"51.607500","street":{"id":1704365,"name":"On or near Covert Road"},"longitude":"0.101876"},"context":"","outcome_status":null,"persistent_id":"","id":132868552,"location_subtype":"","month":"2025-12"},{"category":"anti-social-behaviour","location_type":"Force","location":{"latitude":"51.613288","street":{"id":1705055,"name":"On or near Bearing Way"},"longitude":"0.112543"},"context":"","outcome_status":null,"persistent_id":"","id":132871773,"location_subtype":"","month":"2025-12"},{"category":"anti-social-behaviour","location_type":"Force","location":{"latitude":"51.603899","street":{"id":1702784,"name":"On or near Boleyn Way"},"longitude":"0.079875"},"context":"","outcome_status":null,"persistent_id":"","id":132867228,"location_subtype":"","month":"2025-12"},{"category":"anti-social-behaviour","location_type":"Force","location":{"latitude":"51.611370","street":{"id":1704453,"name":"On or near Holt Way"},"longitude":"0.102199"},"context":"","outcome_status":null,"persistent_id":"","id":132865958,"location_subtype":"","month":"2025-12"},{"category":"anti-social-behaviour","location_type":"Force","location":{"latitude":"51.611370","street":{"id":1704453,"name":"On or near Holt Way"},"longitude":"0.102199"},"context":"","outcome_status":null,"persistent_id":"","id":132865929,"location_subtype":"","month":"2025-12"},{"category":"anti-social-behaviour","location_type":"Force","location":{"latitude":"51.608753","street":{"id":1704582,"name":"On or near Fallow Close"},"longitude":"0.104693"},"context":"","outcome_status":null,"persistent_id":"","id":132865608,"location_subtype":"","month":"2025-12"},{"category":"anti-social-behaviour","location_type":"Force","location":{"latitude":"51.604755","street":{"id":1702954,"name":"On or near Anne Way"},"longitude":"0.082311"},"context":"","outcome_status":null,"persistent_id":"","id":132870174,"location_subtype":"","month":"2025-12"},{"category":"anti-social-behaviour","location_type":"Force","location":{"latitude":"51.603651","street":{"id":1703189,"name":"On or near Supermarket"},"longitude":"0.084831"},"context":"","outcome_status":null,"persistent_id":"","id":132869690,"location_subtype":"","month":"2025-12"},{"category":"burglary","location_type":"Force","location":{"latitude":"51.613074","street":{"id":1704961,"name":"On or near Verderers Road"},"longitude":"0.110482"},"context":"","outcome_status":{"category":"Investigation complete; no suspect identified","date":"2026-01"},"persistent_id":"59041441fcb3543449ff21f1406403cdded484af447173cc5c75e0b493ceb3dc","id":132954883,"location_subtype":"","month":"2025-12"},{"category":"burglary","location_type":"Force","location":{"latitude":"51.614521","street":{"id":2134114,"name":"On or near Hainault Grove"},"longitude":"0.079783"},"context":"","outcome_status":{"category":"Investigation complete; no suspect identified","date":"2026-01"},"persistent_id":"7d863e555fdf923856e41994ca4f3cc2ccb8092c0f42b04a87076ed689dafaeb","id":132958338,"location_subtype":"","month":"2025-12"},{"category":"burglary","location_type":"Force","location":{"latitude":"51.605226","street":{"id":2134304,"name":"On or near Copperfield"},"longitude":"0.088701"},"context":"","outcome_status":{"category":"Under investigation","date":"2025-12"},"persistent_id":"ae3672b418fb071ce65d0d007c88899b3a3edaaddd105521fb5f7852285300a4","id":132961107,"location_subtype":"","month":"2025-12"},{"category":"burglary","location_type":"Force","location":{"latitude":"51.621681","street":{"id":2134149,"name":"On or near Parklands"},"longitude":"0.082190"},"context":"","outcome_status":{"category":"Under investigation","date":"2025-12"},"persistent_id":"28e618b5d6fcdc349141d6062c2229154016327de8fbf9a219d74f5f98512e83","id":132956742,"location_subtype":"","month":"2025-12"},{"category":"burglary","location_type":"Force","location":{"latitude":"51.610644","street":{"id":2134164,"name":"On or near St Winifred's Close"},"longitude":"0.083375"},"context":"","outcome_status":{"category":"Under investigation","date":"2025-12"},"persistent_id":"8c49fa108476d7b8f8e2d368ab43c1909d31a742105f297c621084f7b563aa45","id":132957164,"location_subtype":"","month":"2025-12"},{"category":"burglary","location_type":"Force","location":{"latitude":"51.610810","street":{"id":1704103,"name":"On or near Stanway Close"},"longitude":"0.097797"},"context":"","outcome_status":{"category":"Investigation complete; no suspect identified","date":"2025-12"},"persistent_id":"f97e9d1ed8e6ff21595f302341f6fff1e6224f2b122bb8b4dbf1fefee8181ce0","id":132896746,"location_subtype":"","month":"2025-12"},{"category":"burglary","location_type":"Force","location":{"latitude":"51.622389","street":{"id":2134132,"name":"On or near Meadow Way"},"longitude":"0.081313"},"context":"","outcome_status":{"category":"Under investigation","date":"2025-12"},"persistent_id":"10de20ffddcec05e1f2aa81b945cc4741ed3f07c6a6278653b836d53456b2c26","id":132967570,"location_subtype":"","month":"2025-12"},{"category":"criminal-damage-arson","location_type":"Force","location":{"latitude":"51.605226","street":{"id":2134304,"name":"On or near Copperfield"},"longitude":"0.088701"},"context":"","outcome_status":{"category":"Investigation complete; no suspect identified","date":"2025-12"},"persistent_id":"612e96af7419c297496e7c8926e222cccd92cce1591d5edb5d01345d052d23c0","id":132960765,"location_subtype":"","month":"2025-12"},{"category":"criminal-damage-arson","location_type":"Force","location":{"latitude":"51.606620","street":{"id":1702765,"name":"On or near Tudor Crescent"},"longitude":"0.080071"},"context":"","outcome_status":{"category":"Investigation complete; no suspect identified","date":"2025-12"},"persistent_id":"fdf84def571d104b9243a776b6db7de9a456c5478757819a275de6133e740637","id":132957999,"location_subtype":"","month":"2025-12"},{"category":"criminal-damage-arson","location_type":"Force","location":{"latitude":"51.607823","street":{"id":2134237,"name":"On or near Orange Grove"},"longitude":"0.084762"},"context":"","outcome_status":{"category":"Investigation complete; no suspect identified","date":"2025-12"},"persistent_id":"31c1f0d4bac4d02325d5d10525e635bec147f4a05ff7c280af90304d29fd2f98","id":132958000,"location_subtype":"","month":"2025-12"},{"category":"criminal-damage-arson","location_type":"Force","location":{"latitude":"51.607410","street":{"id":2134283,"name":"On or near Copperfield"},"longitude":"0.088758"},"context":"","outcome_status":{"category":"Investigation complete; no suspect identified","date":"2025-12"},"persistent_id":"38d469a18f48fd2e4b4d948cc3f1e32a5886dd381a917fb69781fa5d92863ab1","id":132958002,"location_subtype":"","month":"2025-12"},{"category":"criminal-damage-arson","location_type":"Force","location":{"latitude":"51.607410","street":{"id":2134283,"name":"On or near Copperfield"},"longitude":"0.088758"},"context":"","outcome_status":{"category":"Investigation complete; no suspect identified","date":"2025-12"},"persistent_id":"ebf940be3c755b78c146fe90079d9b29927c202a067d4aa90583149468522927","id":132961487,"location_subtype":"","month":"2025-12"},{"category":"criminal-damage-arson","location_type":"Force","location":{"latitude":"51.620237","street":{"id":2134672,"name":"On or near Maypole Drive"},"longitude":"0.112202"},"context":"","outcome_status":{"category":"Unable to prosecute suspect","date":"2025-12"},"persistent_id":"e8b997bf0fa897139a5cd2a8eaf70ec810b1bc854b9ea32d924fc4962b6e5d47","id":132962232,"location_subtype":"","month":"2025-12"},{"category":"criminal-damage-arson","location_type":"Force","location":{"latitude":"51.607267","street":{"id":2134155,"name":"On or near Murtwell Drive"},"longitude":"0.081632"},"context":"","outcome_status":{"category":"Unable to prosecute suspect","date":"2025-12"},"persistent_id":"f4c3568ceea4b2ee000ef06ecade1c7f6fec91af0370e1f3496a95d05e468225","id":132962652,"location_subtype":"","month":"2025-12"},{"category":"criminal-damage-arson","location_type":"Force","location":{"latitude":"51.619131","street":{"id":2134533,"name":"On or near Grove Lane"},"longitude":"0.104696"},"context":"","outcome_status":{"category":"Investigation complete; no suspect identified","date":"2025-12"},"persistent_id":"495387d2afc9ad16aa11c310dedb5a1e093fa92983187def069c1c4a70c364a7","id":132966472,"location_subtype":"","month":"2025-12"},{"category":"criminal-damage-arson","location_type":"Force","location":{"latitude":"51.623896","street":{"id":2134110,"name":"On or near King's Mews"},"longitude":"0.080500"},"context":"","outcome_status":{"category":"Investigation complete; no suspect identified","date":"2025-12"},"persistent_id":"ba140f78b2606e65ca26ce3989c6e9c703c79561557c9d76dae6aaeada0df850","id":132961485,"location_subtype":"","month":"2025-12"},{"category":"criminal-damage-arson","location_type":"Force","location":{"latitude":"51.609820","street":{"id":1704991,"name":"On or near Manford Cross"},"longitude":"0.111400"},"context":"","outcome_status":{"category":"Under investigation","date":"2025-12"},"persistent_id":"16bd3d415600824d3fc0c0f32b46a285a70ac09b6123e97b0dcdf109b74f4b41","id":132946661,"location_subtype":"","month":"2025-12"},{"category":"criminal-damage-arson","location_type":"Force","location":{"latitude":"51.613586","street":{"id":1705273,"name":"On or near Manford Close"},"longitude":"0.114478"},"context":"","outcome_status":{"category":"Under investigation","date":"2025-12"},"persistent_id":"d86c656ca214312651784d9fff8cf137a03b111af7a42f074a17697c38fd4503","id":132905296,"location_subtype":"","month":"2025-12"},{"category":"criminal-damage-arson","location_type":"Force","location":{"latitude":"51.613288","street":{"id":1705055,"name":"On or near Bearing Way"},"longitude":"0.112543"},"context":"","outcome_status":{"category":"Under investigation","date":"2025-12"},"persistent_id":"a1f3a19e0c2d34afdd53c7673b49b46d428b2af1ea08b65b34efc0e15b67e8a8","id":132906952,"location_subtype":"","month":"2025-12"},{"category":"criminal-damage-arson","location_type":"Force","location":{"latitude":"51.613288","street":{"id":1705055,"name":"On or near Bearing Way"},"longitude":"0.112543"},"context":"","outcome_status":{"category":"Under investigation","date":"2025-12"},"persistent_id":"af48b0a9f618bc464d5b4ff18124b4ef7e9a2089ef99aa3595d03c47f3da155b","id":132909089,"location_subtype":"","month":"2025-12"},{"category":"criminal-damage-arson","location_type":"Force","location":{"latitude":"51.615065","street":{"id":1705390,"name":"On or near George Livings Close"},"longitude":"0.117263"},"context":"","outcome_status":{"category":"Under investigation","date":"2025-12"},"persistent_id":"055abde9867522c42ac6f10cf926d5c2b618c2ddee038ddadc0fed1a81ec6ad1","id":132888465,"location_subtype":"","month":"2025-12"},{"category":"criminal-damage-arson","location_type":"Force","location":{"latitude":"51.607931","street":{"id":1704006,"name":"On or near Woodman Path"},"longitude":"0.097347"},"context":"","outcome_status":{"category":"Investigation complete; no suspect identified","date":"2026-01"},"persistent_id":"e6b8e219deff131f6bfe5485f9264e64b55bd94e592c3bfb05074b15a9e833f5","id":132889524,"location_subtype":"","month":"2025-12"},{"category":"criminal-damage-arson","location_type":"Force","location":{"latitude":"51.604110","street":{"id":1703086,"name":"On or near Greenside Close"},"longitude":"0.083711"},"context":"","outcome_status":{"category":"Unable to prosecute suspect","date":"2025-12"},"persistent_id":"ad56438575fbc1bb51fde29af3f135211f3354df70709e62ff7e4f8694ad9a27","id":132942017,"location_subtype":"","month":"2025-12"},{"category":"criminal-damage-arson","location_type":"Force","location":{"latitude":"51.610810","street":{"id":1704103,"name":"On or near Stanway Close"},"longitude":"0.097797"},"context":"","outcome_status":{"category":"Investigation complete; no suspect identified","date":"2025-12"},"persistent_id":"32228360e576ed0d8d1f9cb9f420627076a15b5b05d10314d0a16b09e057c591","id":132944217,"location_subtype":"","month":"2025-12"},{"category":"criminal-damage-arson","location_type":"Force","location":{"latitude":"51.607292","street":{"id":1704744,"name":"On or near Kielder Close"},"longitude":"0.106445"},"context":"","outcome_status":{"category":"Investigation complete; no suspect identified","date":"2025-12"},"persistent_id":"c2683cc837a5b223f9ffa4af42cf852fd1f9fff113e3d6fc8b286c8f92724abb","id":132892456,"location_subtype":"","month":"2025-12"},{"category":"drugs","location_type":"Force","location":{"latitude":"51.611581","street":{"id":1704265,"name":"On or near Tine Road"},"longitude":"0.099941"},"context":"","outcome_status":{"category":"Unable to prosecute suspect","date":"2025-12"},"persistent_id":"5721dbd897cffa89df7fba13cf960a8b62c5d9c2cc9aea41770f8147be0f5447","id":132938909,"location_subtype":"","month":"2025-12"},{"category":"drugs","location_type":"Force","location":{"latitude":"51.610644","street":{"id":2134164,"name":"On or near St Winifred's Close"},"longitude":"0.083375"},"context":"","outcome_status":{"category":"Local resolution","date":"2025-12"},"persistent_id":"df747f8998383ead4988e169c6366cf51e7c7b384413396b59be651a3caa522e","id":132955979,"location_subtype":"","month":"2025-12"},{"category":"drugs","location_type":"Force","location":{"latitude":"51.608970","street":{"id":1703957,"name":"On or near Madeleine Court"},"longitude":"0.095618"},"context":"","outcome_status":{"category":"Unable to prosecute suspect","date":"2025-12"},"persistent_id":"a74b25dedd17e9343370b32d7bb8359cf0e1d499bb3d6a2bce786d17008ab00b","id":132928076,"location_subtype":"","month":"2025-12"},{"category":"drugs","location_type":"Force","location":{"latitude":"51.607524","street":{"id":1703772,"name":"On or near Robinia Close"},"longitude":"0.095508"},"context":"","outcome_status":{"category":"Unable to prosecute suspect","date":"2025-12"},"persistent_id":"01941c099aa2d4e1696b40c9fbb3c79a366957e4929712ce95b5c893dbe7926b","id":132883786,"location_subtype":"","month":"2025-12"},{"category":"drugs","location_type":"Force","location":{"latitude":"51.619009","street":{"id":2134003,"name":"On or near High Road"},"longitude":"0.074152"},"context":"","outcome_status":{"category":"Investigation complete; no suspect identified","date":"2025-12"},"persistent_id":"46c97e00d9b8c9ee09aab2780ed4c0bcb3b2449210a20c97b989c1c183c928fc","id":132961165,"location_subtype":"","month":"2025-12"},{"category":"drugs","location_type":"Force","location":{"latitude":"51.612794","street":{"id":1705472,"name":"On or near Yellowpine Way"},"longitude":"0.118515"},"context":"","outcome_status":{"category":"Unable to prosecute suspect","date":"2025-12"},"persistent_id":"9fe593b28122ccfd3ba935f229060a80c22f4cb40a9734ad2874fd4102dab7ef","id":132884063,"location_subtype":"","month":"2025-12"},{"category":"drugs","location_type":"Force","location":{"latitude":"51.610681","street":{"id":1705474,"name":"On or near Branch Road"},"longitude":"0.118474"},"context":"","outcome_status":{"category":"Under investigation","date":"2025-12"},"persistent_id":"980371f4f6d66f31c1e70fbeebb6b677a811eb528d170d21b357600543ee6f6b","id":132944889,"location_subtype":"","month":"2025-12"},{"category":"drugs","location_type":"Force","location":{"latitude":"51.612794","street":{"id":1705472,"name":"On or near Yellowpine Way"},"longitude":"0.118515"},"context":"","outcome_status":{"category":"Unable to prosecute suspect","date":"2025-12"},"persistent_id":"05266e5967cddd7327c2ef1112a194875fa6948bfc99d75dd323a85ee33f3ce3","id":132896236,"location_subtype":"","month":"2025-12"},{"category":"drugs","location_type":"Force","location":{"latitude":"51.609649","street":{"id":1704745,"name":"On or near Fletcher Road"},"longitude":"0.106366"},"context":"","outcome_status":{"category":"Unable to prosecute suspect","date":"2025-12"},"persistent_id":"0a638c64302e6101fdf436d554331d917903c354e8dacecf278750a0faa23db7","id":132941816,"location_subtype":"","month":"2025-12"},{"category":"drugs","location_type":"Force","location":{"latitude":"51.608677","street":{"id":1704690,"name":"On or near Hursley Road"},"longitude":"0.106408"},"context":"","outcome_status":{"category":"Unable to prosecute suspect","date":"2025-12"},"persistent_id":"4264fe7792918727cf7d78ac9c2c515e4c67450720fe23a11c2fc0c0ffa2c0ce","id":132909060,"location_subtype":"","month":"2025-12"},{"category":"other-theft","location_type":"Force","location":{"latitude":"51.612916","street":{"id":1704761,"name":"On or near Brocket Way"},"longitude":"0.107225"},"context":"","outcome_status":{"category":"Investigation complete; no suspect identified","date":"2025-12"},"persistent_id":"49a23c82c88e75cb8255086324ee8d4a1306825c76cfb07160a97a2c740eee55","id":132920617,"location_subtype":"","month":"2025-12"},{"category":"other-theft","location_type":"Force","location":{"latitude":"51.601359","street":{"id":1703426,"name":"On or near Trehearn Road"},"longitude":"0.088712"},"context":"","outcome_status":{"category":"Investigation complete; no suspect identified","date":"2025-12"},"persistent_id":"f07dd74a6be872fab6459f6ad637a5391160c4d95e4d95126a9d951b8ea41435","id":132916166,"location_subtype":"","month":"2025-12"},{"category":"other-theft","location_type":"Force","location":{"latitude":"51.607448","street":{"id":2134253,"name":"On or near Limes Avenue"},"longitude":"0.085121"},"context":"","outcome_status":{"category":"Investigation complete; no suspect identified","date":"2025-12"},"persistent_id":"72e655d5b0476be076bfaf82a2ad3fbfe43e41874e708e39a8e9ed37d00ef4a7","id":132957256,"location_subtype":"","month":"2025-12"},{"category":"other-theft","location_type":"Force","location":{"latitude":"51.602661","street":{"id":1703238,"name":"On or near Marion Close"},"longitude":"0.085797"},"context":"","outcome_status":{"category":"Investigation complete; no suspect identified","date":"2025-12"},"persistent_id":"287739427161d0a60381b6a9cfaff48e0074b97002a5afdfea84627b8099b091","id":132913382,"location_subtype":"","month":"2025-12"},{"category":"other-theft","location_type":"Force","location":{"latitude":"51.610807","street":{"id":2134159,"name":"On or near Petrol Station"},"longitude":"0.081288"},"context":"","outcome_status":{"category":"Under investigation","date":"2025-12"},"persistent_id":"60ffc8b4536c7fa0f87e4909c4f8a083c67f7f3126c853a4dfc10d2818f271bb","id":132956430,"location_subtype":"","month":"2025-12"},{"category":"other-theft","location_type":"Force","location":{"latitude":"51.608791","street":{"id":1704772,"name":"On or near Fernie Close"},"longitude":"0.108088"},"context":"","outcome_status":{"category":"Investigation complete; no suspect identified","date":"2025-12"},"persistent_id":"443d22535b588f0ede168e815c2cd8cbfea676ec93e8ada32d631dfe162fa0b2","id":132943284,"location_subtype":"","month":"2025-12"},{"category":"other-theft","location_type":"Force","location":{"latitude":"51.607448","street":{"id":2134253,"name":"On or near Limes Avenue"},"longitude":"0.085121"},"context":"","outcome_status":{"category":"Investigation complete; no suspect identified","date":"2025-12"},"persistent_id":"13f8ab1974e4423ab073891e1bd053c1cda074f585747d17155d994a7f9c505f","id":132957255,"location_subtype":"","month":"2025-12"},{"category":"other-theft","location_type":"Force","location":{"latitude":"51.617656","street":{"id":2134023,"name":"On or near Chigwell"},"longitude":"0.075390"},"context":"","outcome_status":{"category":"Under investigation","date":"2025-12"},"persistent_id":"5cc7b04bd3b320798cd723401f1d766f62b4d6d778fbfd7e91dbdff573ddd5ea","id":132961187,"location_subtype":"","month":"2025-12"},{"category":"other-theft","location_type":"Force","location":{"latitude":"51.623896","street":{"id":2134110,"name":"On or near King's Mews"},"longitude":"0.080500"},"context":"","outcome_status":{"category":"Investigation complete; no suspect identified","date":"2025-12"},"persistent_id":"efd0cef9ef98376c00dba453624cd942506b4927f95dc13055339534cb4ac84f","id":132957669,"location_subtype":"","month":"2025-12"},{"category":"other-theft","location_type":"Force","location":{"latitude":"51.602086","street":{"id":1703133,"name":"On or near Supermarket"},"longitude":"0.083749"},"context":"","outcome_status":{"category":"Investigation complete; no suspect identified","date":"2025-12"},"persistent_id":"7d5a010c91b0a15a58e405fa6dfa98eac2f6ef914e8915f4cbfc3b9250801114","id":132907422,"location_subtype":"","month":"2025-12"},{"category":"other-theft","location_type":"Force","location":{"latitude":"51.617656","street":{"id":2134023,"name":"On or near Chigwell"},"longitude":"0.075390"},"context":"","outcome_status":{"category":"Under investigation","date":"2025-12"},"persistent_id":"f8c457ab08dae950700ef67dfa2f525f9c761bd633671bdf38c5f4ee52cdbed4","id":132897299,"location_subtype":"","month":"2025-12"},{"category":"other-theft","location_type":"Force","location":{"latitude":"51.605549","street":{"id":1705077,"name":"On or near Elmbridge Road"},"longitude":"0.113339"},"context":"","outcome_status":{"category":"Investigation complete; no suspect identified","date":"2025-12"},"persistent_id":"a30f5094e3b2e7a2975b4ba8ca7062149bf8ef72381d55746ef23db758fe1817","id":132899186,"location_subtype":"","month":"2025-12"},{"category":"other-theft","location_type":"Force","location":{"latitude":"51.617656","street":{"id":2134023,"name":"On or near Chigwell"},"longitude":"0.075390"},"context":"","outcome_status":{"category":"Investigation complete; no suspect identified","date":"2026-01"},"persistent_id":"94cd8cb51c661dce369afee2bae5e86f6791d0033083bf31af862c1065aeb8b0","id":132966532,"location_subtype":"","month":"2025-12"},{"category":"other-theft","location_type":"Force","location":{"latitude":"51.612881","street":{"id":2134220,"name":"On or near Dacre Close"},"longitude":"0.085557"},"context":"","outcome_status":{"category":"Under investigation","date":"2025-12"},"persistent_id":"7793225be4b1f92804dc5a9f5fff12206e7262c445672c3b035726d73e31f23f","id":132965583,"location_subtype":"","month":"2025-12"},{"category":"other-theft","location_type":"Force","location":{"latitude":"51.606914","street":{"id":1704576,"name":"On or near Kesteven Close"},"longitude":"0.104463"},"context":"","outcome_status":{"category":"Investigation complete; no suspect identified","date":"2026-01"},"persistent_id":"3a23f1d2b4c5be336045e0a7c1fa632a1e7ceeef50241ec8eec3e0f5371c42da","id":132925776,"location_subtype":"","month":"2025-12"},{"category":"other-theft","location_type":"Force","location":{"latitude":"51.612541","street":{"id":2134348,"name":"On or near Eden Avenue"},"longitude":"0.092504"},"context":"","outcome_status":{"category":"Under investigation","date":"2025-12"},"persistent_id":"f96e8c0287a1b9c5d4838cb6fe7ffab393f779c8b9629a2702d881275c38b6ff","id":132957257,"location_subtype":"","month":"2025-12"},{"category":"possession-of-weapons","location_type":"Force","location":{"latitude":"51.603531","street":{"id":1703849,"name":"On or near Lancelot Road"},"longitude":"0.094992"},"context":"","outcome_status":{"category":"Under investigation","date":"2025-12"},"persistent_id":"5f1d078e035a445a65c0eab85874f0d00945c1e427517880bf375873a7a5e423","id":132895728,"location_subtype":"","month":"2025-12"},{"category":"possession-of-weapons","location_type":"Force","location":{"latitude":"51.614007","street":{"id":1705423,"name":"On or near Baywood Square"},"longitude":"0.117083"},"context":"","outcome_status":{"category":"Awaiting court outcome","date":"2025-12"},"persistent_id":"69a85d86ccb8a78fcaa2cd80f4d4e287703268cabe79bab44dff7479cf86bf48","id":132917718,"location_subtype":"","month":"2025-12"},{"category":"public-order","location_type":"Force","location":{"latitude":"51.608356","street":{"id":2134218,"name":"On or near Clayside"},"longitude":"0.084094"},"context":"","outcome_status":{"category":"Under investigation","date":"2025-12"},"persistent_id":"66d07823dcc9c3d96de36247631897b607ef831baeb266b9caf3d962c370ba13","id":132957301,"location_subtype":"","month":"2025-12"},{"category":"public-order","location_type":"Force","location":{"latitude":"51.609766","street":{"id":1704053,"name":"On or near Ravenoak Way"},"longitude":"0.096868"},"context":"","outcome_status":{"category":"Under investigation","date":"2025-12"},"persistent_id":"ce2eb94d68d5c2de72093b5a108652025ad9a57048e2255ec16c832065d5a218","id":132951713,"location_subtype":"","month":"2025-12"},{"category":"public-order","location_type":"Force","location":{"latitude":"51.610807","street":{"id":2134159,"name":"On or near Petrol Station"},"longitude":"0.081288"},"context":"","outcome_status":{"category":"Investigation complete; no suspect identified","date":"2025-12"},"persistent_id":"d3573b708f1b150f8be1cccc0d5604d0a4692637d0afce71939cf5a170ef16e1","id":132960862,"location_subtype":"","month":"2025-12"},{"category":"public-order","location_type":"Force","location":{"latitude":"51.614007","street":{"id":1705423,"name":"On or near Baywood Square"},"longitude":"0.117083"},"context":"","outcome_status":{"category":"Under investigation","date":"2025-12"},"persistent_id":"108fc8461ad5a444810f7b52e71addc4d7480f41de8a9ecdd37cbfa8facd8186","id":132935862,"location_subtype":"","month":"2025-12"},{"category":"public-order","location_type":"Force","location":{"latitude":"51.615065","street":{"id":1705390,"name":"On or near George Livings Close"},"longitude":"0.117263"},"context":"","outcome_status":{"category":"Under investigation","date":"2025-12"},"persistent_id":"9aba7d76a79ebb2d59dcaa93681223afd163c70bc848f169c970b703748c7128","id":132903409,"location_subtype":"","month":"2025-12"},{"category":"public-order","location_type":"Force","location":{"latitude":"51.610058","street":{"id":1704428,"name":"On or near Arrowsmith Close"},"longitude":"0.102659"},"context":"","outcome_status":{"category":"Under investigation","date":"2025-12"},"persistent_id":"9b7393a7a2de6975b6d73736500c751d3b2cce248ba7b1922e4befebb19f349c","id":132904932,"location_subtype":"","month":"2025-12"},{"category":"public-order","location_type":"Force","location":{"latitude":"51.602357","street":{"id":1703131,"name":"On or near Fencepiece Road"},"longitude":"0.084151"},"context":"","outcome_status":{"category":"Investigation complete; no suspect identified","date":"2025-12"},"persistent_id":"0f2b7cdc3e6b2d01b231057d712033b7e207b04994dbebc3b2c77f82c0d2d695","id":132906988,"location_subtype":"","month":"2025-12"},{"category":"public-order","location_type":"Force","location":{"latitude":"51.609052","street":{"id":2134308,"name":"On or near High Meadows"},"longitude":"0.089484"},"context":"","outcome_status":{"category":"Unable to prosecute suspect","date":"2025-12"},"persistent_id":"4f871f78a1a85498a7608cb7e0350dec4430b3eca8d4b7c71d55efc32a862e70","id":132940277,"location_subtype":"","month":"2025-12"},{"category":"public-order","location_type":"Force","location":{"latitude":"51.609766","street":{"id":1704053,"name":"On or near Ravenoak Way"},"longitude":"0.096868"},"context":"","outcome_status":{"category":"Under investigation","date":"2025-12"},"persistent_id":"ce2eb94d68d5c2de72093b5a108652025ad9a57048e2255ec16c832065d5a218","id":132951714,"location_subtype":"","month":"2025-12"},{"category":"public-order","location_type":"Force","location":{"latitude":"51.609766","street":{"id":1704053,"name":"On or near Ravenoak Way"},"longitude":"0.096868"},"context":"","outcome_status":{"category":"Unable to prosecute suspect","date":"2025-12"},"persistent_id":"ea088f2d243ccaf0f1e8948adf6695a099d28d9172848e85fcc0b6ab7a323a17","id":132928586,"location_subtype":"","month":"2025-12"},{"category":"public-order","location_type":"Force","location":{"latitude":"51.607410","street":{"id":2134283,"name":"On or near Copperfield"},"longitude":"0.088758"},"context":"","outcome_status":{"category":"Investigation complete; no suspect identified","date":"2026-01"},"persistent_id":"987103edcfb6abba4fa9ec69cdf39acc88d32990af6f94af07307366cbd3acef","id":132965101,"location_subtype":"","month":"2025-12"},{"category":"public-order","location_type":"Force","location":{"latitude":"51.601359","street":{"id":1703426,"name":"On or near Trehearn Road"},"longitude":"0.088712"},"context":"","outcome_status":{"category":"Unable to prosecute suspect","date":"2025-12"},"persistent_id":"d173537e8623e619f09d5ed1a450deca5ee70d8d7bcd85c6e38b393079578bfd","id":132893261,"location_subtype":"","month":"2025-12"},{"category":"public-order","location_type":"Force","location":{"latitude":"51.615065","street":{"id":1705390,"name":"On or near George Livings Close"},"longitude":"0.117263"},"context":"","outcome_status":{"category":"Under investigation","date":"2025-12"},"persistent_id":"15f44f6f7793b014c2d6cf38969f1d0a15c742731767f62fc916c43d40585013","id":132898144,"location_subtype":"","month":"2025-12"},{"category":"public-order","location_type":"Force","location":{"latitude":"51.608455","street":{"id":1704267,"name":"On or near Woodman Road"},"longitude":"0.099739"},"context":"","outcome_status":{"category":"Investigation complete; no suspect identified","date":"2025-12"},"persistent_id":"29a8876134e622ca32d4396c456094e8b2e79482bfe7d88a3d5329083e8ee8e5","id":132885816,"location_subtype":"","month":"2025-12"},{"category":"robbery","location_type":"Force","location":{"latitude":"51.603651","street":{"id":1703189,"name":"On or near Supermarket"},"longitude":"0.084831"},"context":"","outcome_status":{"category":"Unable to prosecute suspect","date":"2026-01"},"persistent_id":"d7dc6f717c6075941bb403429553bcea4f393db6c3a4df5fca7c84ebe317198a","id":132952328,"location_subtype":"","month":"2025-12"},{"category":"robbery","location_type":"Force","location":{"latitude":"51.603763","street":{"id":1703764,"name":"On or near Hainault"},"longitude":"0.093082"},"context":"","outcome_status":{"category":"Under investigation","date":"2025-12"},"persistent_id":"47bcc0403ca7da93a1a058e54810a6aff5664732ef61e109d4c342acaac255ea","id":132910068,"location_subtype":"","month":"2025-12"},{"category":"robbery","location_type":"Force","location":{"latitude":"51.610858","street":{"id":1705410,"name":"On or near Natasha Close"},"longitude":"0.116662"},"context":"","outcome_status":{"category":"Unable to prosecute suspect","date":"2025-12"},"persistent_id":"0ec826c1d67043ed47fc4969e99bb9c35d0ced1b261a61c687b0f5115e1ed32b","id":132886314,"location_subtype":"","month":"2025-12"},{"category":"robbery","location_type":"Force","location":{"latitude":"51.608677","street":{"id":1704690,"name":"On or near Hursley Road"},"longitude":"0.106408"},"context":"","outcome_status":{"category":"Unable to prosecute suspect","date":"2025-12"},"persistent_id":"26898e81f4b2cd5fb86fd2ca46328d04fc6bf537d9c18ba9743f5cee0708cdb1","id":132918835,"location_subtype":"","month":"2025-12"},{"category":"robbery","location_type":"Force","location":{"latitude":"51.613182","street":{"id":2134263,"name":"On or near Mount Pleasant Road"},"longitude":"0.086813"},"context":"","outcome_status":{"category":"Investigation complete; no suspect identified","date":"2025-12"},"persistent_id":"b81114c9778f7c7f66c951499ebb0ef47cc3a506145e5dd5cc6aceddfdc2c913","id":132960886,"location_subtype":"","month":"2025-12"},{"category":"shoplifting","location_type":"Force","location":{"latitude":"51.602086","street":{"id":1703133,"name":"On or near Supermarket"},"longitude":"0.083749"},"context":"","outcome_status":{"category":"Investigation complete; no suspect identified","date":"2025-12"},"persistent_id":"693dc17eb0d40f8829b90511907003de384352bd2d311cd3a64e54a1c1ac513b","id":132915871,"location_subtype":"","month":"2025-12"},{"category":"shoplifting","location_type":"Force","location":{"latitude":"51.602086","street":{"id":1703133,"name":"On or near Supermarket"},"longitude":"0.083749"},"context":"","outcome_status":{"category":"Investigation complete; no suspect identified","date":"2025-12"},"persistent_id":"7ff8f9767d4adec5350371763854d26f4ede7b2b0354801fcc97d534bbf09112","id":132921217,"location_subtype":"","month":"2025-12"},{"category":"shoplifting","location_type":"Force","location":{"latitude":"51.603713","street":{"id":1703517,"name":"On or near Andrew Close"},"longitude":"0.090350"},"context":"","outcome_status":{"category":"Investigation complete; no suspect identified","date":"2025-12"},"persistent_id":"ab97df74ca7aa66fa8b5d65a9e6aa3107155c784651357198be150c7cf32fc83","id":132905112,"location_subtype":"","month":"2025-12"},{"category":"shoplifting","location_type":"Force","location":{"latitude":"51.619009","street":{"id":2134003,"name":"On or near High Road"},"longitude":"0.074152"},"context":"","outcome_status":{"category":"Investigation complete; no suspect identified","date":"2025-12"},"persistent_id":"53904459459e118ef1630fed0091b38dcdc8401abea8677098e6677bdf0305d0","id":132960890,"location_subtype":"","month":"2025-12"},{"category":"shoplifting","location_type":"Force","location":{"latitude":"51.608677","street":{"id":1704690,"name":"On or near Hursley Road"},"longitude":"0.106408"},"context":"","outcome_status":{"category":"Investigation complete; no suspect identified","date":"2025-12"},"persistent_id":"29a6e30e0ab72489d1c64c95fc39bf7bfb318260269cb78e118558b7f65c2fbb","id":132942248,"location_subtype":"","month":"2025-12"},{"category":"shoplifting","location_type":"Force","location":{"latitude":"51.602086","street":{"id":1703133,"name":"On or near Supermarket"},"longitude":"0.083749"},"context":"","outcome_status":{"category":"Investigation complete; no suspect identified","date":"2025-12"},"persistent_id":"e0d6e4e045f05715d8e85a96c5a6a900e28dd5bbcb067961a7ebdec6620f75ce","id":132917773,"location_subtype":"","month":"2025-12"},{"category":"shoplifting","location_type":"Force","location":{"latitude":"51.608753","street":{"id":1704582,"name":"On or near Fallow Close"},"longitude":"0.104693"},"context":"","outcome_status":{"category":"Investigation complete; no suspect identified","date":"2025-12"},"persistent_id":"6f38f1fbc8fbe122b7a9e8ea534034fdcdfcd5972d1dffcc97f07be02e422274","id":132883704,"location_subtype":"","month":"2025-12"},{"category":"shoplifting","location_type":"Force","location":{"latitude":"51.607448","street":{"id":2134253,"name":"On or near Limes Avenue"},"longitude":"0.085121"},"context":"","outcome_status":{"category":"Investigation complete; no suspect identified","date":"2026-01"},"persistent_id":"f35ade9a39389452ad511aeeefdbb670be3d795ba7d2f942be3c2d0105dcd942","id":132963925,"location_subtype":"","month":"2025-12"},{"category":"shoplifting","location_type":"Force","location":{"latitude":"51.610807","street":{"id":2134159,"name":"On or near Petrol Station"},"longitude":"0.081288"},"context":"","outcome_status":{"category":"Investigation complete; no suspect identified","date":"2025-12"},"persistent_id":"e019c610c03099f6b773480b18b34ceb0e68b290398150ce0ee73c27d594ad57","id":132961652,"location_subtype":"","month":"2025-12"},{"category":"shoplifting","location_type":"Force","location":{"latitude":"51.610807","street":{"id":2134159,"name":"On or near Petrol Station"},"longitude":"0.081288"},"context":"","outcome_status":{"category":"Under investigation","date":"2025-12"},"persistent_id":"8a07e50ed7a120c6e6a390914bbaeb107ab94ea424d44fc8016ff1f456585d80","id":132964774,"location_subtype":"","month":"2025-12"},{"category":"shoplifting","location_type":"Force","location":{"latitude":"51.602086","street":{"id":1703133,"name":"On or near Supermarket"},"longitude":"0.083749"},"context":"","outcome_status":{"category":"Investigation complete; no suspect identified","date":"2025-12"},"persistent_id":"a49333c0018832b8f7aed1fa55c43fbbe9e86352867190e577226c02d364c048","id":132936653,"location_subtype":"","month":"2025-12"},{"category":"shoplifting","location_type":"Force","location":{"latitude":"51.602086","street":{"id":1703133,"name":"On or near Supermarket"},"longitude":"0.083749"},"context":"","outcome_status":{"category":"Investigation complete; no suspect identified","date":"2025-12"},"persistent_id":"b7700ab6f85f28b68e5085ccb3085308c06d5e81b327a30c84b3c45bfbb5f1b0","id":132921083,"location_subtype":"","month":"2025-12"},{"category":"shoplifting","location_type":"Force","location":{"latitude":"51.619009","street":{"id":2134003,"name":"On or near High Road"},"longitude":"0.074152"},"context":"","outcome_status":{"category":"Investigation complete; no suspect identified","date":"2025-12"},"persistent_id":"4044af45fae5d01af8c5b5568cfb5ace9a97772563d284a66bf57934fde10b1c","id":132958897,"location_subtype":"","month":"2025-12"},{"category":"theft-from-the-person","location_type":"Force","location":{"latitude":"51.603651","street":{"id":1703189,"name":"On or near Supermarket"},"longitude":"0.084831"},"context":"","outcome_status":{"category":"Investigation complete; no suspect identified","date":"2025-12"},"persistent_id":"bee61bb29b693aea141661bec8687dd079236800b21b62dbd7239c4136d0691d","id":132902490,"location_subtype":"","month":"2025-12"},{"category":"theft-from-the-person","location_type":"Force","location":{"latitude":"51.608677","street":{"id":1704690,"name":"On or near Hursley Road"},"longitude":"0.106408"},"context":"","outcome_status":{"category":"Investigation complete; no suspect identified","date":"2025-12"},"persistent_id":"19ca000ea9d11e61bfe63c84458ddafb94240a2377a6dafcb752f59d3d978ea5","id":132894665,"location_subtype":"","month":"2025-12"},{"category":"vehicle-crime","location_type":"Force","location":{"latitude":"51.605337","street":{"id":1703537,"name":"On or near Amanda Close"},"longitude":"0.090050"},"context":"","outcome_status":{"category":"Investigation complete; no suspect identified","date":"2026-01"},"persistent_id":"2bf5897525669440ddbdf01e5977b5d2227cd352ace1d7e9f5f1ec77956f6a5a","id":132967404,"location_subtype":"","month":"2025-12"},{"category":"vehicle-crime","location_type":"Force","location":{"latitude":"51.606168","street":{"id":1702747,"name":"On or near Shakespeare Square"},"longitude":"0.078679"},"context":"","outcome_status":{"category":"Unable to prosecute suspect","date":"2026-01"},"persistent_id":"dbbfc535ade4cef53005073cf7eca3480c2d9d1a72dd281f9e57ad6311c69a95","id":132933716,"location_subtype":"","month":"2025-12"},{"category":"vehicle-crime","location_type":"Force","location":{"latitude":"51.607564","street":{"id":2134332,"name":"On or near Trotwood"},"longitude":"0.091221"},"context":"","outcome_status":{"category":"Investigation complete; no suspect identified","date":"2026-01"},"persistent_id":"e0d270de133a352415e5076f6fbc6a4667070140bb20974ff912030e16d7eed9","id":132956540,"location_subtype":"","month":"2025-12"},{"category":"vehicle-crime","location_type":"Force","location":{"latitude":"51.611581","street":{"id":1704265,"name":"On or near Tine Road"},"longitude":"0.099941"},"context":"","outcome_status":{"category":"Investigation complete; no suspect identified","date":"2025-12"},"persistent_id":"cb6c45c2d1e39a751e4e56ddef890da2d7b8017ccefca631f1300651920ff333","id":132913059,"location_subtype":"","month":"2025-12"},{"category":"vehicle-crime","location_type":"Force","location":{"latitude":"51.606991","street":{"id":1704903,"name":"On or near Tunstall Avenue"},"longitude":"0.109695"},"context":"","outcome_status":{"category":"Investigation complete; no suspect identified","date":"2025-12"},"persistent_id":"181962259aa8f1460a2b4111c999a23c413572742a509fb4a9f19b7c8da9c559","id":132890449,"location_subtype":"","month":"2025-12"},{"category":"vehicle-crime","location_type":"Force","location":{"latitude":"51.619684","street":{"id":2134731,"name":"On or near Ingleby Gardens"},"longitude":"0.116423"},"context":"","outcome_status":{"category":"Investigation complete; no suspect identified","date":"2025-12"},"persistent_id":"d8298651b0c44cab135670e1a0a7eccd3137cc3c9c23348d4a8377c41bad96db","id":132960928,"location_subtype":"","month":"2025-12"},{"category":"vehicle-crime","location_type":"Force","location":{"latitude":"51.618203","street":{"id":2134779,"name":"On or near Woolhampton Way"},"longitude":"0.117279"},"context":"","outcome_status":{"category":"Investigation complete; no suspect identified","date":"2025-12"},"persistent_id":"4b9f0362a2d4dbd925f0718fd14622b48477373225e1c224b4d6840b08392a69","id":132963588,"location_subtype":"","month":"2025-12"},{"category":"vehicle-crime","location_type":"Force","location":{"latitude":"51.612638","street":{"id":1703991,"name":"On or near Rowland Crescent"},"longitude":"0.096668"},"context":"","outcome_status":{"category":"Investigation complete; no suspect identified","date":"2025-12"},"persistent_id":"589b2d8ef93ead8cbfaab3864b0ad4a1cdc0f26237eda766271bc1b36f5758d7","id":132904387,"location_subtype":"","month":"2025-12"},{"category":"vehicle-crime","location_type":"Force","location":{"latitude":"51.605226","street":{"id":2134304,"name":"On or near Copperfield"},"longitude":"0.088701"},"context":"","outcome_status":{"category":"Investigation complete; no suspect identified","date":"2025-12"},"persistent_id":"95086178f073650e51ae9460afb52a6cf587400f4fa38275a9a49a3fe665b4e7","id":132928959,"location_subtype":"","month":"2025-12"},{"category":"vehicle-crime","location_type":"Force","location":{"latitude":"51.610151","street":{"id":2134076,"name":"On or near Manor Road"},"longitude":"0.078211"},"context":"","outcome_status":{"category":"Investigation complete; no suspect identified","date":"2025-12"},"persistent_id":"08cdf5f3c47b070a218bb564e099d69ae9e4b1aa04540ece130e78d6682fc243","id":132960173,"location_subtype":"","month":"2025-12"},{"category":"vehicle-crime","location_type":"Force","location":{"latitude":"51.603651","street":{"id":1703189,"name":"On or near Supermarket"},"longitude":"0.084831"},"context":"","outcome_status":{"category":"Investigation complete; no suspect identified","date":"2025-12"},"persistent_id":"37aaebf0d1620f86fdd3e554b0ceca7990c915e934a93224cbbd96fd59c80808","id":132890395,"location_subtype":"","month":"2025-12"},{"category":"vehicle-crime","location_type":"Force","location":{"latitude":"51.606574","street":{"id":1704726,"name":"On or near Stoke Avenue"},"longitude":"0.107885"},"context":"","outcome_status":{"category":"Investigation complete; no suspect identified","date":"2025-12"},"persistent_id":"77b182bb586a15389055bbaf23d04189a1edd9bd7f70de3e2e129e7c34eeaf82","id":132904797,"location_subtype":"","month":"2025-12"},{"category":"vehicle-crime","location_type":"Force","location":{"latitude":"51.605225","street":{"id":1703183,"name":"On or near Vincent Close"},"longitude":"0.085207"},"context":"","outcome_status":{"category":"Investigation complete; no suspect identified","date":"2025-12"},"persistent_id":"52cebc18e9435d357077549eba86eb7f8e1b51c883e3d8b9008a76623adb7534","id":132958502,"location_subtype":"","month":"2025-12"},{"category":"vehicle-crime","location_type":"Force","location":{"latitude":"51.603651","street":{"id":1703189,"name":"On or near Supermarket"},"longitude":"0.084831"},"context":"","outcome_status":{"category":"Investigation complete; no suspect identified","date":"2025-12"},"persistent_id":"6ff168d27015833a1acf85bb3fa66a8d65b2d5b3cb74fe7d5b93b482bc5c54ad","id":132890577,"location_subtype":"","month":"2025-12"},{"category":"vehicle-crime","location_type":"Force","location":{"latitude":"51.605676","street":{"id":1704664,"name":"On or near Dryden Close"},"longitude":"0.105778"},"context":"","outcome_status":{"category":"Investigation complete; no suspect identified","date":"2025-12"},"persistent_id":"1eab7f5e321105970c172bc6697a33ddfe8c6e0cb4ae1a899548686ab5f045a2","id":132950427,"location_subtype":"","month":"2025-12"},{"category":"vehicle-crime","location_type":"Force","location":{"latitude":"51.612829","street":{"id":1704264,"name":"On or near Tylney Close"},"longitude":"0.102079"},"context":"","outcome_status":{"category":"Investigation complete; no suspect identified","date":"2025-12"},"persistent_id":"9316b41e95b73a2f710de319b2f7fd73143174a5c1c0d95954180974fb7015c8","id":132944546,"location_subtype":"","month":"2025-12"},{"category":"vehicle-crime","location_type":"Force","location":{"latitude":"51.607212","street":{"id":2134232,"name":"On or near Keats Close"},"longitude":"0.084734"},"context":"","outcome_status":{"category":"Investigation complete; no suspect identified","date":"2026-01"},"persistent_id":"6f6900fde7e602a996af63cce4bf943c414e5547e527bedc97a8cd292026ccab","id":132963958,"location_subtype":"","month":"2025-12"},{"category":"violent-crime","location_type":"Force","location":{"latitude":"51.611480","street":{"id":1704857,"name":"On or near Lowe Close"},"longitude":"0.109065"},"context":"","outcome_status":{"category":"Action to be taken by another organisation","date":"2026-01"},"persistent_id":"788817915f3aeb9f9f7da2aa4e4896e9ad8bad72e0185aa47efe777fcc728ed0","id":132933912,"location_subtype":"","month":"2025-12"},{"category":"violent-crime","location_type":"Force","location":{"latitude":"51.607410","street":{"id":2134283,"name":"On or near Copperfield"},"longitude":"0.088758"},"context":"","outcome_status":{"category":"Unable to prosecute suspect","date":"2025-12"},"persistent_id":"89f033714db0424f51badd800e8b766e243d52d2e59980e6e994f0d8b96972ef","id":132958538,"location_subtype":"","month":"2025-12"},{"category":"violent-crime","location_type":"Force","location":{"latitude":"51.622281","street":{"id":2134095,"name":"On or near High Mead"},"longitude":"0.079314"},"context":"","outcome_status":{"category":"Awaiting court outcome","date":"2025-12"},"persistent_id":"82e6b7cf49c541ce6b280cdfd96807a524a712d64e8231a4f8c45377ea8e7ce2","id":132958993,"location_subtype":"","month":"2025-12"},{"category":"violent-crime","location_type":"Force","location":{"latitude":"51.607410","street":{"id":2134283,"name":"On or near Copperfield"},"longitude":"0.088758"},"context":"","outcome_status":{"category":"Investigation complete; no suspect identified","date":"2025-12"},"persistent_id":"b55b5a010debafcc82df239137a1d7920d96255e6e078a6aa1bdf2d5ca5b315f","id":132965427,"location_subtype":"","month":"2025-12"},{"category":"violent-crime","location_type":"Force","location":{"latitude":"51.610644","street":{"id":2134164,"name":"On or near St Winifred's Close"},"longitude":"0.083375"},"context":"","outcome_status":{"category":"Unable to prosecute suspect","date":"2025-12"},"persistent_id":"b20e01fcede05cf31bcf49f2322f88f5a6abcaba2f010cdf60d3157cc568df61","id":132961718,"location_subtype":"","month":"2025-12"},{"category":"violent-crime","location_type":"Force","location":{"latitude":"51.607410","street":{"id":2134283,"name":"On or near Copperfield"},"longitude":"0.088758"},"context":"","outcome_status":{"category":"Investigation complete; no suspect identified","date":"2025-12"},"persistent_id":"000fb48d911f733bb303542712a5bf78980808953544028bd338392c46f3db09","id":132961723,"location_subtype":"","month":"2025-12"},{"category":"violent-crime","location_type":"Force","location":{"latitude":"51.606286","street":{"id":2134336,"name":"On or near Southdale"},"longitude":"0.091277"},"context":"","outcome_status":{"category":"Investigation complete; no suspect identified","date":"2025-12"},"persistent_id":"00f431e1436417a79b32b7ee7a1de28fa873a5b36cb48ad4ab3b90b98995c986","id":132926035,"location_subtype":"","month":"2025-12"},{"category":"violent-crime","location_type":"Force","location":{"latitude":"51.620237","street":{"id":2134672,"name":"On or near Maypole Drive"},"longitude":"0.112202"},"context":"","outcome_status":{"category":"Unable to prosecute suspect","date":"2025-12"},"persistent_id":"7cc52842390fad182474c1286cd34d2887b24759aeb3789c177b0638fb2b4812","id":132963217,"location_subtype":"","month":"2025-12"},{"category":"violent-crime","location_type":"Force","location":{"latitude":"51.607410","street":{"id":2134283,"name":"On or near Copperfield"},"longitude":"0.088758"},"context":"","outcome_status":{"category":"Unable to prosecute suspect","date":"2025-12"},"persistent_id":"745ba875b6f2a6b41f5c91e53f93a8e00c726174dfc027670d5466007f862c9a","id":132961305,"location_subtype":"","month":"2025-12"},{"category":"violent-crime","location_type":"Force","location":{"latitude":"51.604110","street":{"id":1703086,"name":"On or near Greenside Close"},"longitude":"0.083711"},"context":"","outcome_status":{"category":"Unable to prosecute suspect","date":"2025-12"},"persistent_id":"d8c941d690df7d777328029dd66c912e4c2daa99e75b4cfb048fe71171308c13","id":132899514,"location_subtype":"","month":"2025-12"},{"category":"violent-crime","location_type":"Force","location":{"latitude":"51.607564","street":{"id":2134332,"name":"On or near Trotwood"},"longitude":"0.091221"},"context":"","outcome_status":{"category":"Under investigation","date":"2025-12"},"persistent_id":"bbf249477b57a6aa3d6119d72dcb9b83f005de1036ff72ed29538074b7272861","id":132962066,"location_subtype":"","month":"2025-12"},{"category":"violent-crime","location_type":"Force","location":{"latitude":"51.607410","street":{"id":2134283,"name":"On or near Copperfield"},"longitude":"0.088758"},"context":"","outcome_status":{"category":"Under investigation","date":"2025-12"},"persistent_id":"70474e88e271c01cae3f0a7e5b1e7b2e6b568b1937bee3da136084d79b523ced","id":132962065,"location_subtype":"","month":"2025-12"},{"category":"violent-crime","location_type":"Force","location":{"latitude":"51.610644","street":{"id":2134164,"name":"On or near St Winifred's Close"},"longitude":"0.083375"},"context":"","outcome_status":{"category":"Unable to prosecute suspect","date":"2026-01"},"persistent_id":"22b3a3cc71568012b959b87c6e09f4b48e4832ecb5997661e1f5111187f47495","id":132961719,"location_subtype":"","month":"2025-12"},{"category":"violent-crime","location_type":"Force","location":{"latitude":"51.610644","street":{"id":2134164,"name":"On or near St Winifred's Close"},"longitude":"0.083375"},"context":"","outcome_status":{"category":"Unable to prosecute suspect","date":"2026-01"},"persistent_id":"b3666f4bc820c6451a8860996d9e5de40911f49b9368b4ab862eb70fe1f6577e","id":132961717,"location_subtype":"","month":"2025-12"},{"category":"violent-crime","location_type":"Force","location":{"latitude":"51.610807","street":{"id":2134159,"name":"On or near Petrol Station"},"longitude":"0.081288"},"context":"","outcome_status":{"category":"Local resolution","date":"2026-01"},"persistent_id":"33df3b37cf1acb70600162acf2a0347f10ac9188aa132f55d0cf5c9629037ac3","id":132962447,"location_subtype":"","month":"2025-12"},{"category":"violent-crime","location_type":"Force","location":{"latitude":"51.607410","street":{"id":2134283,"name":"On or near Copperfield"},"longitude":"0.088758"},"context":"","outcome_status":{"category":"Under investigation","date":"2025-12"},"persistent_id":"1bc2b102f1c4f71ea21d2bda4794dc12a38d8ef3af02c6342244645e7ee4be46","id":132958536,"location_subtype":"","month":"2025-12"},{"category":"violent-crime","location_type":"Force","location":{"latitude":"51.607410","street":{"id":2134283,"name":"On or near Copperfield"},"longitude":"0.088758"},"context":"","outcome_status":{"category":"Under investigation","date":"2025-12"},"persistent_id":"bec88198773e8e5554f1f0f3c928838e805261791c3c00b692780f01b27fe2ce","id":132958535,"location_subtype":"","month":"2025-12"},{"category":"violent-crime","location_type":"Force","location":{"latitude":"51.613642","street":{"id":2134356,"name":"On or near Woodland Road"},"longitude":"0.092309"},"context":"","outcome_status":{"category":"Under investigation","date":"2025-12"},"persistent_id":"c99abab77edbe76b19a136dce8489b46e76bae188a2e5be463e4883523b2f1a1","id":132957421,"location_subtype":"","month":"2025-12"},{"category":"violent-crime","location_type":"Force","location":{"latitude":"51.607410","street":{"id":2134283,"name":"On or near Copperfield"},"longitude":"0.088758"},"context":"","outcome_status":{"category":"Investigation complete; no suspect identified","date":"2026-01"},"persistent_id":"8e45bb5a40cc752ac37441eb41bff14e12054665ca04c3f84be9ca879dca54af","id":132956981,"location_subtype":"","month":"2025-12"},{"category":"violent-crime","location_type":"Force","location":{"latitude":"51.616710","street":{"id":2134412,"name":"On or near Vicarage Lane"},"longitude":"0.098748"},"context":"","outcome_status":{"category":"Under investigation","date":"2025-12"},"persistent_id":"bc12d617947a5c2f57a54ed4f9b26bb67ff0edd82ebc21e4f121b804fa413af7","id":132960206,"location_subtype":"","month":"2025-12"},{"category":"violent-crime","location_type":"Force","location":{"latitude":"51.618003","street":{"id":2134021,"name":"On or near Station Road"},"longitude":"0.076114"},"context":"","outcome_status":{"category":"Under investigation","date":"2025-12"},"persistent_id":"f5d751653c791978761f5b1779cefb951ed8f4eb627e9075c3bb8652a53c9c8a","id":132958992,"location_subtype":"","month":"2025-12"},{"category":"violent-crime","location_type":"Force","location":{"latitude":"51.608543","street":{"id":1705457,"name":"On or near Huntsman Road"},"longitude":"0.116887"},"context":"","outcome_status":{"category":"Unable to prosecute suspect","date":"2026-01"},"persistent_id":"442afb93d90850cdb2626bd68610183c8738bee45cdb2ad2774521f9d2b2061d","id":132949392,"location_subtype":"","month":"2025-12"},{"category":"violent-crime","location_type":"Force","location":{"latitude":"51.608455","street":{"id":1704267,"name":"On or near Woodman Road"},"longitude":"0.099739"},"context":"","outcome_status":{"category":"Formal action is not in the public interest","date":"2026-01"},"persistent_id":"4e3c407de22b48a4ae83f5433019c14827c0c55a00dd8541a1f551b9e2b2b6c8","id":132932576,"location_subtype":"","month":"2025-12"},{"category":"violent-crime","location_type":"Force","location":{"latitude":"51.601359","street":{"id":1703426,"name":"On or near Trehearn Road"},"longitude":"0.088712"},"context":"","outcome_status":{"category":"Under investigation","date":"2025-12"},"persistent_id":"496dfbd9ea68388bb2c4159b1b443077d7e930424bd7c6cb660695b050f41745","id":132928916,"location_subtype":"","month":"2025-12"},{"category":"violent-crime","location_type":"Force","location":{"latitude":"51.604975","street":{"id":1703698,"name":"On or near Thurlow Gardens"},"longitude":"0.092185"},"context":"","outcome_status":{"category":"Investigation complete; no suspect identified","date":"2025-12"},"persistent_id":"0bb16a71535b92b2cb4bba4467e42c4258ddb6d0cd26644710e705a45ea360ed","id":132926996,"location_subtype":"","month":"2025-12"},{"category":"violent-crime","location_type":"Force","location":{"latitude":"51.604975","street":{"id":1703698,"name":"On or near Thurlow Gardens"},"longitude":"0.092185"},"context":"","outcome_status":{"category":"Unable to prosecute suspect","date":"2026-01"},"persistent_id":"67f6ecfc913a3155d9cda0e972504ce7dbc606610eea2b8d30c6552ebc4a934b","id":132925875,"location_subtype":"","month":"2025-12"},{"category":"violent-crime","location_type":"Force","location":{"latitude":"51.604975","street":{"id":1703698,"name":"On or near Thurlow Gardens"},"longitude":"0.092185"},"context":"","outcome_status":{"category":"Investigation complete; no suspect identified","date":"2025-12"},"persistent_id":"7001d9367f0a084dc01141a13d85d7ccf4a30a7bdc1e585104fdd725b91f784e","id":132922372,"location_subtype":"","month":"2025-12"},{"category":"violent-crime","location_type":"Force","location":{"latitude":"51.612794","street":{"id":1705472,"name":"On or near Yellowpine Way"},"longitude":"0.118515"},"context":"","outcome_status":{"category":"Unable to prosecute suspect","date":"2025-12"},"persistent_id":"539639becb663284ed3132e0810aa9fcd75b59a7982c9f103346226cfbce39c4","id":132903304,"location_subtype":"","month":"2025-12"},{"category":"violent-crime","location_type":"Force","location":{"latitude":"51.611231","street":{"id":1704706,"name":"On or near Burrow Green"},"longitude":"0.106439"},"context":"","outcome_status":{"category":"Investigation complete; no suspect identified","date":"2025-12"},"persistent_id":"8f799ce5785e73a383fb7add585be4d9e31fe2411ab6fb57453c426452fb32ff","id":132904099,"location_subtype":"","month":"2025-12"},{"category":"violent-crime","location_type":"Force","location":{"latitude":"51.613288","street":{"id":1705055,"name":"On or near Bearing Way"},"longitude":"0.112543"},"context":"","outcome_status":{"category":"Unable to prosecute suspect","date":"2025-12"},"persistent_id":"169a3c72c6f009d97fa9ccc0cbec8df4030ca595ae1a219c7617c7f94ec3e483","id":132921044,"location_subtype":"","month":"2025-12"},{"category":"violent-crime","location_type":"Force","location":{"latitude":"51.613783","street":{"id":2134365,"name":"On or near Froghall Lane"},"longitude":"0.092980"},"context":"","outcome_status":{"category":"Investigation complete; no suspect identified","date":"2025-12"},"persistent_id":"a9cf5fb32d4c5096fb08b5c9a332173a35b35535674ce851a824f07fbc14ef99","id":132905689,"location_subtype":"","month":"2025-12"},{"category":"violent-crime","location_type":"Force","location":{"latitude":"51.606991","street":{"id":1704903,"name":"On or near Tunstall Avenue"},"longitude":"0.109695"},"context":"","outcome_status":{"category":"Unable to prosecute suspect","date":"2025-12"},"persistent_id":"35ccb69a90fe9f62cd73663bb41add7e3a639b6adcfac5c6a86fedfd95eca011","id":132908389,"location_subtype":"","month":"2025-12"},{"category":"violent-crime","location_type":"Force","location":{"latitude":"51.607931","street":{"id":1704006,"name":"On or near Woodman Path"},"longitude":"0.097347"},"context":"","outcome_status":{"category":"Action to be taken by another organisation","date":"2026-01"},"persistent_id":"57fc1b2e0faa2b5ccc4569c653b454f7dcc487ca3ecb5f7b4423dfb6fe54b540","id":132909020,"location_subtype":"","month":"2025-12"},{"category":"violent-crime","location_type":"Force","location":{"latitude":"51.603835","street":{"id":1703283,"name":"On or near Marine Crescent"},"longitude":"0.088045"},"context":"","outcome_status":{"category":"Action to be taken by another organisation","date":"2026-01"},"persistent_id":"c7157657fa1db5b98128dd112fc89270b9785775fa48d375b0486f1e25be7e26","id":132892226,"location_subtype":"","month":"2025-12"},{"category":"violent-crime","location_type":"Force","location":{"latitude":"51.605676","street":{"id":1704664,"name":"On or near Dryden Close"},"longitude":"0.105778"},"context":"","outcome_status":{"category":"Unable to prosecute suspect","date":"2025-12"},"persistent_id":"7fc36d3f776b289a7ac270c83aa6a149ef4ed33760b8315a2c00b0ba4ecf11a1","id":132893120,"location_subtype":"","month":"2025-12"},{"category":"violent-crime","location_type":"Force","location":{"latitude":"51.612638","street":{"id":1703991,"name":"On or near Rowland Crescent"},"longitude":"0.096668"},"context":"","outcome_status":{"category":"Investigation complete; no suspect identified","date":"2025-12"},"persistent_id":"d5b39f7afa71490ca6105ebc394b116044f342e4300838ce744617df92b99ec5","id":132895532,"location_subtype":"","month":"2025-12"},{"category":"violent-crime","location_type":"Force","location":{"latitude":"51.607931","street":{"id":1704006,"name":"On or near Woodman Path"},"longitude":"0.097347"},"context":"","outcome_status":{"category":"Action to be taken by another organisation","date":"2026-01"},"persistent_id":"67023ebcbd69172626f263fdcfcdb6974b923f517a64fad847379d06dc57c305","id":132918649,"location_subtype":"","month":"2025-12"},{"category":"violent-crime","location_type":"Force","location":{"latitude":"51.601359","street":{"id":1703426,"name":"On or near Trehearn Road"},"longitude":"0.088712"},"context":"","outcome_status":{"category":"Under investigation","date":"2025-12"},"persistent_id":"9ff7d36d6e9b321966a070a7167902c55e79197a07e517300ec86ea2fc3411fa","id":132897929,"location_subtype":"","month":"2025-12"},{"category":"violent-crime","location_type":"Force","location":{"latitude":"51.602953","street":{"id":1703365,"name":"On or near Maypole Crescent"},"longitude":"0.087557"},"context":"","outcome_status":{"category":"Under investigation","date":"2025-12"},"persistent_id":"2b7f470625fee7abf30a17673e59763984885cce6bc2d18985962b0ec781c578","id":132900011,"location_subtype":"","month":"2025-12"},{"category":"violent-crime","location_type":"Force","location":{"latitude":"51.610858","street":{"id":1705410,"name":"On or near Natasha Close"},"longitude":"0.116662"},"context":"","outcome_status":{"category":"Unable to prosecute suspect","date":"2025-12"},"persistent_id":"94e37d1e58415f827a2e2420d8fadddf3dc28762141db60e7c85400aee127569","id":132886777,"location_subtype":"","month":"2025-12"},{"category":"violent-crime","location_type":"Force","location":{"latitude":"51.605300","street":{"id":1704499,"name":"On or near Trentbridge Close"},"longitude":"0.103161"},"context":"","outcome_status":{"category":"Unable to prosecute suspect","date":"2026-01"},"persistent_id":"1da3be2f320c36a5c329903c9265e47d3f53bea58c54ce607293a83070d1c702","id":132888141,"location_subtype":"","month":"2025-12"},{"category":"violent-crime","location_type":"Force","location":{"latitude":"51.607292","street":{"id":1704744,"name":"On or near Kielder Close"},"longitude":"0.106445"},"context":"","outcome_status":{"category":"Unable to prosecute suspect","date":"2026-01"},"persistent_id":"7a2e1c1cfc49eb38f1fabc2e7188a4e6278a29d74b2439f7ce32fb069497daec","id":132948381,"location_subtype":"","month":"2025-12"},{"category":"violent-crime","location_type":"Force","location":{"latitude":"51.602953","street":{"id":1703365,"name":"On or near Maypole Crescent"},"longitude":"0.087557"},"context":"","outcome_status":{"category":"Unable to prosecute suspect","date":"2026-01"},"persistent_id":"bd8d5cff246b9256e7ce9559206791c31ad0cf46e577cd6e6998a3c9c02bf2e3","id":132950255,"location_subtype":"","month":"2025-12"},{"category":"violent-crime","location_type":"Force","location":{"latitude":"51.604590","street":{"id":1703687,"name":"On or near Franklyn Gardens"},"longitude":"0.091604"},"context":"","outcome_status":{"category":"Investigation complete; no suspect identified","date":"2026-01"},"persistent_id":"bc6974b3cf77736dd0229b0cb1ee920b4790f7e60ca70b0fde62fa0cddf5b4ef","id":132890078,"location_subtype":"","month":"2025-12"},{"category":"violent-crime","location_type":"Force","location":{"latitude":"51.608543","street":{"id":1705457,"name":"On or near Huntsman Road"},"longitude":"0.116887"},"context":"","outcome_status":{"category":"Unable to prosecute suspect","date":"2025-12"},"persistent_id":"07d28b283708dfe1edb379eacf1d2e8a776c14d7b18cdb93097a557be1f957b1","id":132890723,"location_subtype":"","month":"2025-12"},{"category":"violent-crime","location_type":"Force","location":{"latitude":"51.607524","street":{"id":1703772,"name":"On or near Robinia Close"},"longitude":"0.095508"},"context":"","outcome_status":{"category":"Under investigation","date":"2025-12"},"persistent_id":"e562579d752fe9dc0986791c59323739690dd3301032d6e02a5a7c8c0b540cf7","id":132890764,"location_subtype":"","month":"2025-12"},{"category":"violent-crime","location_type":"Force","location":{"latitude":"51.609820","street":{"id":1704991,"name":"On or near Manford Cross"},"longitude":"0.111400"},"context":"","outcome_status":{"category":"Under investigation","date":"2025-12"},"persistent_id":"4eaabee97f2c9d2748336c8e1f2a8c3deb6daa8cf98ba3b693d0a5408b8e16ba","id":132916753,"location_subtype":"","month":"2025-12"},{"category":"violent-crime","location_type":"Force","location":{"latitude":"51.612121","street":{"id":1705406,"name":"On or near Reservoir Way"},"longitude":"0.116923"},"context":"","outcome_status":{"category":"Under investigation","date":"2025-12"},"persistent_id":"df29e8a8a470c779b355e4b34789819efba0cb7859806a98a5d22142cbf458bf","id":132915917,"location_subtype":"","month":"2025-12"},{"category":"violent-crime","location_type":"Force","location":{"latitude":"51.602749","street":{"id":1703725,"name":"On or near Davids Way"},"longitude":"0.093945"},"context":"","outcome_status":{"category":"Under investigation","date":"2025-12"},"persistent_id":"f19e02e5a1fd6e58c5f59167c7a01d1dcb13f775e100e4755829684a1b0de13b","id":132887877,"location_subtype":"","month":"2025-12"},{"category":"violent-crime","location_type":"Force","location":{"latitude":"51.607564","street":{"id":2134332,"name":"On or near Trotwood"},"longitude":"0.091221"},"context":"","outcome_status":{"category":"Unable to prosecute suspect","date":"2025-12"},"persistent_id":"520b950e50e6f8ea5091c6af3d6686467d8115dca0a83a0631b6e8236aee23f8","id":132958168,"location_subtype":"","month":"2025-12"},{"category":"violent-crime","location_type":"Force","location":{"latitude":"51.610066","street":{"id":1704782,"name":"On or near Pollard Close"},"longitude":"0.107685"},"context":"","outcome_status":{"category":"Under investigation","date":"2025-12"},"persistent_id":"e70ae5ef4892fae703710650eb984f89693dc54fabefb64ae06828f4b11a1d11","id":132923977,"location_subtype":"","month":"2025-12"},{"category":"violent-crime","location_type":"Force","location":{"latitude":"51.610066","street":{"id":1704782,"name":"On or near Pollard Close"},"longitude":"0.107685"},"context":"","outcome_status":{"category":"Under investigation","date":"2025-12"},"persistent_id":"e9b6ad30d476706fee303e1047c9d8ab13ea0b1782ad6335ca0a158b1fa5806e","id":132923978,"location_subtype":"","month":"2025-12"},{"category":"violent-crime","location_type":"Force","location":{"latitude":"51.608455","street":{"id":1704267,"name":"On or near Woodman Road"},"longitude":"0.099739"},"context":"","outcome_status":{"category":"Under investigation","date":"2025-12"},"persistent_id":"c8cdce2f77e08d7fe1523ab9097f33b62c08a8d97a1139a109f0dc9d712f436a","id":132915388,"location_subtype":"","month":"2025-12"},{"category":"violent-crime","location_type":"Force","location":{"latitude":"51.613074","street":{"id":1704961,"name":"On or near Verderers Road"},"longitude":"0.110482"},"context":"","outcome_status":{"category":"Unable to prosecute suspect","date":"2026-01"},"persistent_id":"dd4b5f184e20bc2f42dcf7a90ac22beec083d8e18ad3e465cad7b5c6a2027290","id":132925747,"location_subtype":"","month":"2025-12"},{"category":"violent-crime","location_type":"Force","location":{"latitude":"51.609616","street":{"id":1705331,"name":"On or near Harbourer Close"},"longitude":"0.116200"},"context":"","outcome_status":{"category":"Action to be taken by another organisation","date":"2026-01"},"persistent_id":"967e73e9088df812de13e6b8c006806475a77df1352dbe43bdcca74e13d1a78f","id":132928119,"location_subtype":"","month":"2025-12"},{"category":"violent-crime","location_type":"Force","location":{"latitude":"51.610458","street":{"id":1704266,"name":"On or near Haldon Close"},"longitude":"0.099355"},"context":"","outcome_status":{"category":"Under investigation","date":"2025-12"},"persistent_id":"1d3b94f93ea41d29a4d3accacde074ac760e4d66e21c933400524144b3473f1f","id":132938228,"location_subtype":"","month":"2025-12"},{"category":"violent-crime","location_type":"Force","location":{"latitude":"51.610458","street":{"id":1704266,"name":"On or near Haldon Close"},"longitude":"0.099355"},"context":"","outcome_status":{"category":"Under investigation","date":"2025-12"},"persistent_id":"13ef8a8fba5fcdfff22800e59837296777e7611ad8bee02fdb29c14e62710c09","id":132946513,"location_subtype":"","month":"2025-12"},{"category":"violent-crime","location_type":"Force","location":{"latitude":"51.613586","street":{"id":1705273,"name":"On or near Manford Close"},"longitude":"0.114478"},"context":"","outcome_status":{"category":"Unable to prosecute suspect","date":"2026-01"},"persistent_id":"728fabbcc9b2facf0a287de471c3a03e14026d89a324f4a26727e9c92447a97a","id":132946702,"location_subtype":"","month":"2025-12"},{"category":"violent-crime","location_type":"Force","location":{"latitude":"51.608865","street":{"id":1704144,"name":"On or near Hazelwood Park Close"},"longitude":"0.097939"},"context":"","outcome_status":{"category":"Investigation complete; no suspect identified","date":"2026-01"},"persistent_id":"07fcc385f86afcb424fdcfbced2626808d11e42eeaad926fe519e8e8fd393190","id":132882981,"location_subtype":"","month":"2025-12"},{"category":"violent-crime","location_type":"Force","location":{"latitude":"51.604754","street":{"id":1703958,"name":"On or near Petrol Station"},"longitude":"0.095479"},"context":"","outcome_status":{"category":"Investigation complete; no suspect identified","date":"2026-01"},"persistent_id":"e0fa92be5ea46917c8e1bc0ff17db4fdd64fa062b78ede8cf8623e24a824fd38","id":132954985,"location_subtype":"","month":"2025-12"},{"category":"violent-crime","location_type":"Force","location":{"latitude":"51.608455","street":{"id":1704267,"name":"On or near Woodman Road"},"longitude":"0.099739"},"context":"","outcome_status":{"category":"Investigation complete; no suspect identified","date":"2025-12"},"persistent_id":"d66d02cdd524ae2772afac723623cd99017748207895fa6e88d2423943698566","id":132940417,"location_subtype":"","month":"2025-12"},{"category":"violent-crime","location_type":"Force","location":{"latitude":"51.607184","street":{"id":1704161,"name":"On or near Chestnut Grove"},"longitude":"0.097890"},"context":"","outcome_status":{"category":"Unable to prosecute suspect","date":"2025-12"},"persistent_id":"f3a22934de8f6993f46a5a7837f0d0dc70c27c21baaf7c2fe4bc4443d6e811b7","id":132926168,"location_subtype":"","month":"2025-12"},{"category":"violent-crime","location_type":"Force","location":{"latitude":"51.605337","street":{"id":1703537,"name":"On or near Amanda Close"},"longitude":"0.090050"},"context":"","outcome_status":{"category":"Unable to prosecute suspect","date":"2026-01"},"persistent_id":"6f99241ebee0fea58894e887dd148ae189af8807eb63d7a4f32042064bf234c2","id":132948626,"location_subtype":"","month":"2025-12"},{"category":"violent-crime","location_type":"Force","location":{"latitude":"51.613264","street":{"id":1705238,"name":"On or near Bearing Close"},"longitude":"0.113886"},"context":"","outcome_status":{"category":"Unable to prosecute suspect","date":"2025-12"},"persistent_id":"5622b53db60069a2d5018cb09b03f30fd2df9a8facc3bd0e4058422bdccb25a2","id":132937291,"location_subtype":"","month":"2025-12"},{"category":"violent-crime","location_type":"Force","location":{"latitude":"51.609766","street":{"id":1704053,"name":"On or near Ravenoak Way"},"longitude":"0.096868"},"context":"","outcome_status":{"category":"Unable to prosecute suspect","date":"2025-12"},"persistent_id":"47ff79d9121a44dcd5cf2498ba810b226708936325a9492e8f2776be133a1efd","id":132891019,"location_subtype":"","month":"2025-12"},{"category":"violent-crime","location_type":"Force","location":{"latitude":"51.612794","street":{"id":1705472,"name":"On or near Yellowpine Way"},"longitude":"0.118515"},"context":"","outcome_status":{"category":"Unable to prosecute suspect","date":"2025-12"},"persistent_id":"fd12800e1090b36c5c8f3f0bbe2bc3cda511b1f2b258271504937ba0b8ebfd94","id":132903302,"location_subtype":"","month":"2025-12"},{"category":"violent-crime","location_type":"Force","location":{"latitude":"51.603464","street":{"id":1703423,"name":"On or near Hughes Road"},"longitude":"0.089169"},"context":"","outcome_status":{"category":"Unable to prosecute suspect","date":"2025-12"},"persistent_id":"a6c3331e277492b6065ff9acdc106afc63192fcb1f6996a63e69662a9faed022","id":132922511,"location_subtype":"","month":"2025-12"},{"category":"violent-crime","location_type":"Force","location":{"latitude":"51.605549","street":{"id":1705077,"name":"On or near Elmbridge Road"},"longitude":"0.113339"},"context":"","outcome_status":{"category":"Under investigation","date":"2025-12"},"persistent_id":"60827f2f851ded62c3bdc3cd22f067afae3988fe6e31d9761e0547ee931c8114","id":132943160,"location_subtype":"","month":"2025-12"},{"category":"violent-crime","location_type":"Force","location":{"latitude":"51.610458","street":{"id":1704266,"name":"On or near Haldon Close"},"longitude":"0.099355"},"context":"","outcome_status":{"category":"Unable to prosecute suspect","date":"2025-12"},"persistent_id":"b2b0776e0ab95b0463b9a70f810bb8acbad96657f1cea33f67fb23794ccc4d73","id":132941067,"location_subtype":"","month":"2025-12"},{"category":"violent-crime","location_type":"Force","location":{"latitude":"51.613138","street":{"id":1705367,"name":"On or near Coppice Path"},"longitude":"0.115902"},"context":"","outcome_status":{"category":"Under investigation","date":"2025-12"},"persistent_id":"e391cb504c5921c30d4fe84d2ef8f072af2f78a2097e8a9da8f94e1fc755cdb2","id":132944118,"location_subtype":"","month":"2025-12"},{"category":"violent-crime","location_type":"Force","location":{"latitude":"51.610644","street":{"id":2134164,"name":"On or near St Winifred's Close"},"longitude":"0.083375"},"context":"","outcome_status":{"category":"Under investigation","date":"2025-12"},"persistent_id":"81e9856dd6b2c8ce5022b09d05e7f9849188ba127b6b7660d6fbec1bcfb549f6","id":132967437,"location_subtype":"","month":"2025-12"},{"category":"violent-crime","location_type":"Force","location":{"latitude":"51.607410","street":{"id":2134283,"name":"On or near Copperfield"},"longitude":"0.088758"},"context":"","outcome_status":{"category":"Unable to prosecute suspect","date":"2026-01"},"persistent_id":"2c18c7d1f2ce6a91980bc7f59e9362582a45913cb9476dd2ade9a0b108b6e9e0","id":132965954,"location_subtype":"","month":"2025-12"},{"category":"violent-crime","location_type":"Force","location":{"latitude":"51.610644","street":{"id":2134164,"name":"On or near St Winifred's Close"},"longitude":"0.083375"},"context":"","outcome_status":{"category":"Unable to prosecute suspect","date":"2025-12"},"persistent_id":"7cf7c399e20368966440646725d9b233ffd39ed1043983b195263dfcdb23fe51","id":132961720,"location_subtype":"","month":"2025-12"},{"category":"violent-crime","location_type":"Force","location":{"latitude":"51.607448","street":{"id":2134253,"name":"On or near Limes Avenue"},"longitude":"0.085121"},"context":"","outcome_status":{"category":"Action to be taken by another organisation","date":"2025-12"},"persistent_id":"ce78b944d1d2a33689f770c38074c56373deea3d0a87e5506f7bb3534c7b948d","id":132961722,"location_subtype":"","month":"2025-12"},{"category":"violent-crime","location_type":"Force","location":{"latitude":"51.605835","street":{"id":1704004,"name":"On or near Clinton Crescent"},"longitude":"0.097394"},"context":"","outcome_status":{"category":"Investigation complete; no suspect identified","date":"2026-01"},"persistent_id":"786f19fc786a8a3407b84a996156a7362b6684dea3d3018701c929d7e32d29fb","id":132884285,"location_subtype":"","month":"2025-12"},{"category":"other-crime","location_type":"Force","location":{"latitude":"51.612966","street":{"id":2134363,"name":"On or near Grange Hill"},"longitude":"0.092899"},"context":"","outcome_status":{"category":"Unable to prosecute suspect","date":"2026-01"},"persistent_id":"de63902d196e8c72914616abadcbcafed421f3c4e6673fa3e8294f721e27b635","id":132883139,"location_subtype":"","month":"2025-12"},{"category":"other-crime","location_type":"Force","location":{"latitude":"51.606404","street":{"id":2134229,"name":"On or near Westmede"},"longitude":"0.084177"},"context":"","outcome_status":{"category":"Investigation complete; no suspect identified","date":"2025-12"},"persistent_id":"e3810751e3452424e8dd52855ebd492ebb3486ec0fa820478cebdf63cc0537f9","id":132966899,"location_subtype":"","month":"2025-12"},{"category":"other-crime","location_type":"Force","location":{"latitude":"51.613586","street":{"id":1705273,"name":"On or near Manford Close"},"longitude":"0.114478"},"context":"","outcome_status":{"category":"Unable to prosecute suspect","date":"2025-12"},"persistent_id":"b43ff6c73abf14575ee39e11840aae4cc6f3f5a84665e8c5f15c307e9a42102d","id":132937443,"location_subtype":"","month":"2025-12"}]