[{"category":"anti-social-behaviour","location_type":"Force","location":{"latitude":"53.375562","street":{"id":2091171,"name":"On or near Mill Street"},"longitude":"-2.867959"},"context":"","outcome_status":null,"persistent_id":"","id":132663800,"location_subtype":"","month":"2025-12"},{"category":"anti-social-behaviour","location_type":"Force","location":{"latitude":"53.387170","street":{"id":2091397,"name":"On or near Larchwood Close"},"longitude":"-2.860045"},"context":"","outcome_status":null,"persistent_id":"","id":132655059,"location_subtype":"","month":"2025-12"},{"category":"anti-social-behaviour","location_type":"Force","location":{"latitude":"53.390863","street":{"id":2091497,"name":"On or near Shopping Area"},"longitude":"-2.858932"},"context":"","outcome_status":null,"persistent_id":"","id":132655140,"location_subtype":"","month":"2025-12"},{"category":"anti-social-behaviour","location_type":"Force","location":{"latitude":"53.381682","street":{"id":2091235,"name":"On or near Oakgrove Gardens"},"longitude":"-2.865602"},"context":"","outcome_status":null,"persistent_id":"","id":132656123,"location_subtype":"","month":"2025-12"},{"category":"anti-social-behaviour","location_type":"Force","location":{"latitude":"53.388346","street":{"id":2091643,"name":"On or near Lenton Road"},"longitude":"-2.853934"},"context":"","outcome_status":null,"persistent_id":"","id":132654532,"location_subtype":"","month":"2025-12"},{"category":"anti-social-behaviour","location_type":"Force","location":{"latitude":"53.374630","street":{"id":2091091,"name":"On or near St Mary's Street"},"longitude":"-2.869939"},"context":"","outcome_status":null,"persistent_id":"","id":132663174,"location_subtype":"","month":"2025-12"},{"category":"anti-social-behaviour","location_type":"Force","location":{"latitude":"53.373029","street":{"id":2090542,"name":"On or near Cheddar Close"},"longitude":"-2.875032"},"context":"","outcome_status":null,"persistent_id":"","id":132659470,"location_subtype":"","month":"2025-12"},{"category":"anti-social-behaviour","location_type":"Force","location":{"latitude":"53.390863","street":{"id":2091497,"name":"On or near Shopping Area"},"longitude":"-2.858932"},"context":"","outcome_status":null,"persistent_id":"","id":132659382,"location_subtype":"","month":"2025-12"},{"category":"anti-social-behaviour","location_type":"Force","location":{"latitude":"53.376971","street":{"id":2091655,"name":"On or near Reigate Close"},"longitude":"-2.853181"},"context":"","outcome_status":null,"persistent_id":"","id":132661044,"location_subtype":"","month":"2025-12"},{"category":"anti-social-behaviour","location_type":"Force","location":{"latitude":"53.388666","street":{"id":2091503,"name":"On or near Petrol Station"},"longitude":"-2.857130"},"context":"","outcome_status":null,"persistent_id":"","id":132665563,"location_subtype":"","month":"2025-12"},{"category":"anti-social-behaviour","location_type":"Force","location":{"latitude":"53.374972","street":{"id":2091196,"name":"On or near Parking Area"},"longitude":"-2.867420"},"context":"","outcome_status":null,"persistent_id":"","id":132665858,"location_subtype":"","month":"2025-12"},{"category":"anti-social-behaviour","location_type":"Force","location":{"latitude":"53.389532","street":{"id":2091491,"name":"On or near Supermarket"},"longitude":"-2.858995"},"context":"","outcome_status":null,"persistent_id":"","id":132652937,"location_subtype":"","month":"2025-12"},{"category":"anti-social-behaviour","location_type":"Force","location":{"latitude":"53.373083","street":{"id":2090990,"name":"On or near Allerton Road"},"longitude":"-2.871380"},"context":"","outcome_status":null,"persistent_id":"","id":132655091,"location_subtype":"","month":"2025-12"},{"category":"anti-social-behaviour","location_type":"Force","location":{"latitude":"53.376971","street":{"id":2091655,"name":"On or near Reigate Close"},"longitude":"-2.853181"},"context":"","outcome_status":null,"persistent_id":"","id":132661164,"location_subtype":"","month":"2025-12"},{"category":"anti-social-behaviour","location_type":"Force","location":{"latitude":"53.388273","street":{"id":2091451,"name":"On or near Besford Road"},"longitude":"-2.859030"},"context":"","outcome_status":null,"persistent_id":"","id":132654538,"location_subtype":"","month":"2025-12"},{"category":"bicycle-theft","location_type":"Force","location":{"latitude":"53.376390","street":{"id":2091550,"name":"On or near Whitney Road"},"longitude":"-2.856611"},"context":"","outcome_status":{"category":"Investigation complete; no suspect identified","date":"2025-12"},"persistent_id":"9e6296ec7475418ae6feee72872b3c0e1608207596599fbad455f6aa029cdf70","id":132655105,"location_subtype":"","month":"2025-12"},{"category":"burglary","location_type":"Force","location":{"latitude":"53.388223","street":{"id":2091224,"name":"On or near Vyner Road North"},"longitude":"-2.866021"},"context":"","outcome_status":{"category":"Investigation complete; no suspect identified","date":"2025-12"},"persistent_id":"156df82f9fdcb1f2e910cafb2d6b9723d59e65606b5fcd154f8333ae8797c610","id":132653755,"location_subtype":"","month":"2025-12"},{"category":"burglary","location_type":"Force","location":{"latitude":"53.384116","street":{"id":2091366,"name":"On or near Killester Road"},"longitude":"-2.860946"},"context":"","outcome_status":{"category":"Unable to prosecute suspect","date":"2025-12"},"persistent_id":"822bc6ad1fe10edacc59e3c4241060a0a25512e8d7cdac80f7d547c29db0f4b9","id":132651087,"location_subtype":"","month":"2025-12"},{"category":"burglary","location_type":"Force","location":{"latitude":"53.390542","street":{"id":2091084,"name":"On or near Leybourne Close"},"longitude":"-2.870955"},"context":"","outcome_status":{"category":"Under investigation","date":"2025-12"},"persistent_id":"9c4fd39ff01a697c6d168f5077489f2b2f74e4d18f5f8438412e785fbbad293a","id":132664987,"location_subtype":"","month":"2025-12"},{"category":"burglary","location_type":"Force","location":{"latitude":"53.387734","street":{"id":2091116,"name":"On or near Mountfield Crescent"},"longitude":"-2.870161"},"context":"","outcome_status":{"category":"Unable to prosecute suspect","date":"2026-01"},"persistent_id":"53ceb772528b425b4b51e070317b582621ebd85ba0f8c65a272259479bdf5a52","id":132655132,"location_subtype":"","month":"2025-12"},{"category":"criminal-damage-arson","location_type":"Force","location":{"latitude":"53.390528","street":{"id":2091620,"name":"On or near Parking Area"},"longitude":"-2.854324"},"context":"","outcome_status":{"category":"Investigation complete; no suspect identified","date":"2025-12"},"persistent_id":"3762eee532b3a01a463be104ff510de1d258d37897cfdfdbf6ead69bdb97f92b","id":132653539,"location_subtype":"","month":"2025-12"},{"category":"criminal-damage-arson","location_type":"Force","location":{"latitude":"53.389394","street":{"id":2091738,"name":"On or near Runton Road"},"longitude":"-2.851895"},"context":"","outcome_status":{"category":"Under investigation","date":"2025-12"},"persistent_id":"051d910372521ecb700f990f3ffe7d7fbaf3f92b82e5cf7f6749ea3dd47dcfd5","id":132660427,"location_subtype":"","month":"2025-12"},{"category":"criminal-damage-arson","location_type":"Force","location":{"latitude":"53.378773","street":{"id":2091514,"name":"On or near Hadfield Grove"},"longitude":"-2.857621"},"context":"","outcome_status":{"category":"Unable to prosecute suspect","date":"2025-12"},"persistent_id":"0a58b1e2ccfc6e608a5b470ec92cf8a72c6e61dc0b0b79a872357b68adc3026d","id":132660411,"location_subtype":"","month":"2025-12"},{"category":"criminal-damage-arson","location_type":"Force","location":{"latitude":"53.371793","street":{"id":2090792,"name":"On or near B5171"},"longitude":"-2.873203"},"context":"","outcome_status":{"category":"Under investigation","date":"2025-12"},"persistent_id":"281f99d1854b877419b5a0eb5b1c9c4a151144350879bf2fd1e3962fb49b3d26","id":132659976,"location_subtype":"","month":"2025-12"},{"category":"criminal-damage-arson","location_type":"Force","location":{"latitude":"53.366163","street":{"id":2091670,"name":"On or near Dawlish Close"},"longitude":"-2.852393"},"context":"","outcome_status":{"category":"Under investigation","date":"2025-12"},"persistent_id":"cab9020a229e1197d38220ceca2e9b45c9db863dd31f7776f185af11717a528c","id":132659684,"location_subtype":"","month":"2025-12"},{"category":"criminal-damage-arson","location_type":"Force","location":{"latitude":"53.372271","street":{"id":2091331,"name":"On or near Rockhill Road"},"longitude":"-2.863037"},"context":"","outcome_status":{"category":"Investigation complete; no suspect identified","date":"2025-12"},"persistent_id":"65afdade19b7b783f230d24f10fa9b7b4c1b1165445e5f2b044547ac36556f2f","id":132663688,"location_subtype":"","month":"2025-12"},{"category":"criminal-damage-arson","location_type":"Force","location":{"latitude":"53.390883","street":{"id":2091333,"name":"On or near Shopping Area"},"longitude":"-2.859468"},"context":"","outcome_status":{"category":"Unable to prosecute suspect","date":"2026-01"},"persistent_id":"94b94e586b4669dd4ad188b1078f3411bf6bcd19430f2f36cc08961f1d2d1ac8","id":132654497,"location_subtype":"","month":"2025-12"},{"category":"criminal-damage-arson","location_type":"Force","location":{"latitude":"53.390528","street":{"id":2091620,"name":"On or near Parking Area"},"longitude":"-2.854324"},"context":"","outcome_status":{"category":"Investigation complete; no suspect identified","date":"2025-12"},"persistent_id":"8cf2a3096418131120ffbdfb43f615a7936b9dc4a630e1f7d9143f7368565074","id":132653562,"location_subtype":"","month":"2025-12"},{"category":"criminal-damage-arson","location_type":"Force","location":{"latitude":"53.377060","street":{"id":2090520,"name":"On or near Rock Mount Close"},"longitude":"-2.879444"},"context":"","outcome_status":{"category":"Unable to prosecute suspect","date":"2025-12"},"persistent_id":"fc0af6d8f584c7080b96a8dc06a4dee8869fc9674926d26c8b33d41f522ad09d","id":132652109,"location_subtype":"","month":"2025-12"},{"category":"criminal-damage-arson","location_type":"Force","location":{"latitude":"53.390528","street":{"id":2091620,"name":"On or near Parking Area"},"longitude":"-2.854324"},"context":"","outcome_status":{"category":"Investigation complete; no suspect identified","date":"2025-12"},"persistent_id":"dd0b62a5324af9bf9874247788831b4e4a0fe036dd062d2d29650e7bdfbb6c9f","id":132651908,"location_subtype":"","month":"2025-12"},{"category":"criminal-damage-arson","location_type":"Force","location":{"latitude":"53.386623","street":{"id":2091441,"name":"On or near Gorsewood Road"},"longitude":"-2.859794"},"context":"","outcome_status":{"category":"Investigation complete; no suspect identified","date":"2025-12"},"persistent_id":"e7af9a957d5d298ad0637b3a807e3c21a8270d8914e6178f564a23e2a174a8c1","id":132652700,"location_subtype":"","month":"2025-12"},{"category":"criminal-damage-arson","location_type":"Force","location":{"latitude":"53.378773","street":{"id":2091514,"name":"On or near Hadfield Grove"},"longitude":"-2.857621"},"context":"","outcome_status":{"category":"Investigation complete; no suspect identified","date":"2026-01"},"persistent_id":"485c76f264bd7f8a18e82f74f4f5e4d25be574e22ae34ac413043ed2e7a38f07","id":132665328,"location_subtype":"","month":"2025-12"},{"category":"criminal-damage-arson","location_type":"Force","location":{"latitude":"53.376335","street":{"id":2091537,"name":"On or near Whitney Place"},"longitude":"-2.856760"},"context":"","outcome_status":{"category":"Under investigation","date":"2025-12"},"persistent_id":"322e4bf61897b3e55ab9265d87942f7022fa26a26083dc6ade5937855d2e0d6c","id":132665021,"location_subtype":"","month":"2025-12"},{"category":"criminal-damage-arson","location_type":"Force","location":{"latitude":"53.390528","street":{"id":2091620,"name":"On or near Parking Area"},"longitude":"-2.854324"},"context":"","outcome_status":{"category":"Investigation complete; no suspect identified","date":"2025-12"},"persistent_id":"c81306aacc323b232caf1404929a2c400bc720c9057cc98e3692980c93ec6a15","id":132659741,"location_subtype":"","month":"2025-12"},{"category":"criminal-damage-arson","location_type":"Force","location":{"latitude":"53.374819","street":{"id":2091412,"name":"On or near Heyscroft Road"},"longitude":"-2.860022"},"context":"","outcome_status":{"category":"Investigation complete; no suspect identified","date":"2026-01"},"persistent_id":"9c440a6d3d4d99b9578cb7a601f5ea2d5738211f116e64796f8e8d336739a0df","id":132656720,"location_subtype":"","month":"2025-12"},{"category":"criminal-damage-arson","location_type":"Force","location":{"latitude":"53.376390","street":{"id":2091550,"name":"On or near Whitney Road"},"longitude":"-2.856611"},"context":"","outcome_status":{"category":"Investigation complete; no suspect identified","date":"2025-12"},"persistent_id":"5fdb8218b53c9387ed9ee6751907a5b738ed5865e658b3050ac08595a6ecc822","id":132664382,"location_subtype":"","month":"2025-12"},{"category":"criminal-damage-arson","location_type":"Force","location":{"latitude":"53.372160","street":{"id":2091381,"name":"On or near Woodrock Road"},"longitude":"-2.861096"},"context":"","outcome_status":{"category":"Unable to prosecute suspect","date":"2025-12"},"persistent_id":"e7d6ec0262ca0c67e87979048d9f74b3cdb474106d8de890c36c946f6a6ae02e","id":132661365,"location_subtype":"","month":"2025-12"},{"category":"drugs","location_type":"Force","location":{"latitude":"53.387650","street":{"id":2091597,"name":"On or near Bardon Close"},"longitude":"-2.854522"},"context":"","outcome_status":{"category":"Under investigation","date":"2025-12"},"persistent_id":"e5b418dd307b55ee20092f7ab359669f87c4b602b3447d21ac43ac59804746b9","id":132665776,"location_subtype":"","month":"2025-12"},{"category":"drugs","location_type":"Force","location":{"latitude":"53.389394","street":{"id":2091738,"name":"On or near Runton Road"},"longitude":"-2.851895"},"context":"","outcome_status":{"category":"Under investigation","date":"2025-12"},"persistent_id":"f4fce63a9842b4570091ecc0b7c1bd7fa441c0d8556e41ed4a90ca40f7588ac2","id":132656814,"location_subtype":"","month":"2025-12"},{"category":"drugs","location_type":"Force","location":{"latitude":"53.387650","street":{"id":2091597,"name":"On or near Bardon Close"},"longitude":"-2.854522"},"context":"","outcome_status":{"category":"Local resolution","date":"2026-01"},"persistent_id":"d2a2ff1bf52fa16ffdaeefd98b11c9d52b537e066b692c2aa9d789e6f0060306","id":132666158,"location_subtype":"","month":"2025-12"},{"category":"drugs","location_type":"Force","location":{"latitude":"53.371793","street":{"id":2090792,"name":"On or near B5171"},"longitude":"-2.873203"},"context":"","outcome_status":{"category":"Local resolution","date":"2025-12"},"persistent_id":"58b834a860b7c8121cb8de49d7f54e71a2a61f4c6dbddca2e42a323294e6aa9d","id":132652762,"location_subtype":"","month":"2025-12"},{"category":"drugs","location_type":"Force","location":{"latitude":"53.381170","street":{"id":2091505,"name":"On or near The Nook"},"longitude":"-2.858060"},"context":"","outcome_status":{"category":"Local resolution","date":"2025-12"},"persistent_id":"2cd895e7797038f11b8a49289a7fb5debdeef930bdad30bb866fa761e4c03d22","id":132664062,"location_subtype":"","month":"2025-12"},{"category":"drugs","location_type":"Force","location":{"latitude":"53.370036","street":{"id":2091472,"name":"On or near Monica Road"},"longitude":"-2.858934"},"context":"","outcome_status":{"category":"Local resolution","date":"2025-12"},"persistent_id":"8bc1c54fad6c4d0c6e24c5a95d8163a34824fc8e4c824084cb3949953c7fe63c","id":132654328,"location_subtype":"","month":"2025-12"},{"category":"drugs","location_type":"Force","location":{"latitude":"53.376784","street":{"id":2091557,"name":"On or near Garway"},"longitude":"-2.855492"},"context":"","outcome_status":{"category":"Under investigation","date":"2025-12"},"persistent_id":"cb4e09ddf3c079a9a37d965dd04b098fe317024a05d0adc7cb0ab98a5a6a70f5","id":132653764,"location_subtype":"","month":"2025-12"},{"category":"drugs","location_type":"Force","location":{"latitude":"53.389394","street":{"id":2091738,"name":"On or near Runton Road"},"longitude":"-2.851895"},"context":"","outcome_status":{"category":"Awaiting court outcome","date":"2025-12"},"persistent_id":"bbc0b1b5d4713d6c0274bead799cb4b5d49360f00deba5f54371314954aeb063","id":132665743,"location_subtype":"","month":"2025-12"},{"category":"drugs","location_type":"Force","location":{"latitude":"53.389394","street":{"id":2091738,"name":"On or near Runton Road"},"longitude":"-2.851895"},"context":"","outcome_status":{"category":"Awaiting court outcome","date":"2026-01"},"persistent_id":"a8ad1034999cda3d74c0daedb50f7302d5019841163ece033cf4d1a634425c97","id":132665084,"location_subtype":"","month":"2025-12"},{"category":"drugs","location_type":"Force","location":{"latitude":"53.383550","street":{"id":2091307,"name":"On or near York Cottages"},"longitude":"-2.863310"},"context":"","outcome_status":{"category":"Under investigation","date":"2025-12"},"persistent_id":"6ddf7e17aa595dab3fb1d21ee202162bc2a9705f2bef7114fcc995e547c4449a","id":132665375,"location_subtype":"","month":"2025-12"},{"category":"other-theft","location_type":"Force","location":{"latitude":"53.375311","street":{"id":2090930,"name":"On or near Greenough Street"},"longitude":"-2.873966"},"context":"","outcome_status":{"category":"Unable to prosecute suspect","date":"2025-12"},"persistent_id":"656180b1824d3595e11fee8c88f22b6f39ff83a0fd5a87cb02a9213aff5b9bb1","id":132652683,"location_subtype":"","month":"2025-12"},{"category":"other-theft","location_type":"Force","location":{"latitude":"53.389173","street":{"id":2091296,"name":"On or near Lineside Close"},"longitude":"-2.863890"},"context":"","outcome_status":{"category":"Investigation complete; no suspect identified","date":"2025-12"},"persistent_id":"81fcb25e518f12536d8d9c67781303d344817689da835ba8b41c751647aff160","id":132662411,"location_subtype":"","month":"2025-12"},{"category":"other-theft","location_type":"Force","location":{"latitude":"53.376584","street":{"id":2090417,"name":"On or near The Vineries"},"longitude":"-2.882966"},"context":"","outcome_status":{"category":"Investigation complete; no suspect identified","date":"2025-12"},"persistent_id":"471b1b96d486868be3812d7b8a6655a4e9004068157c7e7fa9213a15618f580f","id":132650981,"location_subtype":"","month":"2025-12"},{"category":"other-theft","location_type":"Force","location":{"latitude":"53.374752","street":{"id":2091932,"name":"On or near Magnolia Close"},"longitude":"-2.844268"},"context":"","outcome_status":{"category":"Under investigation","date":"2025-12"},"persistent_id":"506ae3384a27b8f735f1ee47a825326c7899b32b9360edb07a42339baa0ea213","id":132651964,"location_subtype":"","month":"2025-12"},{"category":"other-theft","location_type":"Force","location":{"latitude":"53.376335","street":{"id":2091537,"name":"On or near Whitney Place"},"longitude":"-2.856760"},"context":"","outcome_status":{"category":"Investigation complete; no suspect identified","date":"2025-12"},"persistent_id":"3040d798c0216f62e0f804e5fb0c5aac57fb9a621123368580eb925ab37ab167","id":132662377,"location_subtype":"","month":"2025-12"},{"category":"possession-of-weapons","location_type":"Force","location":{"latitude":"53.376335","street":{"id":2091537,"name":"On or near Whitney Place"},"longitude":"-2.856760"},"context":"","outcome_status":{"category":"Under investigation","date":"2025-12"},"persistent_id":"d3c264b7ae54e7cf5148295c9b665c42069bd498a61d34eb172a6fac4a01ed56","id":132659975,"location_subtype":"","month":"2025-12"},{"category":"possession-of-weapons","location_type":"Force","location":{"latitude":"53.383623","street":{"id":2091569,"name":"On or near Lee Vale Road"},"longitude":"-2.855779"},"context":"","outcome_status":{"category":"Under investigation","date":"2025-12"},"persistent_id":"b98d410ec67f9c9079567e454141532beb7311f9e9d6105542fd3d978fd0e26a","id":132664452,"location_subtype":"","month":"2025-12"},{"category":"public-order","location_type":"Force","location":{"latitude":"53.379363","street":{"id":2091542,"name":"On or near Halewood Road"},"longitude":"-2.856927"},"context":"","outcome_status":{"category":"Under investigation","date":"2025-12"},"persistent_id":"db591489d098289251366c9e2d8c7ff056abb4db32982b7757d35321250c7341","id":132657578,"location_subtype":"","month":"2025-12"},{"category":"public-order","location_type":"Force","location":{"latitude":"53.371793","street":{"id":2090792,"name":"On or near B5171"},"longitude":"-2.873203"},"context":"","outcome_status":{"category":"Unable to prosecute suspect","date":"2025-12"},"persistent_id":"41f2bcc8d866a6097d5f0e095493b6053920f582c734ff7f7c40be7eec38ab31","id":132662070,"location_subtype":"","month":"2025-12"},{"category":"public-order","location_type":"Force","location":{"latitude":"53.388666","street":{"id":2091503,"name":"On or near Petrol Station"},"longitude":"-2.857130"},"context":"","outcome_status":{"category":"Investigation complete; no suspect identified","date":"2026-01"},"persistent_id":"296dfa2cf944476cc00174f697531a34b80b317334a5906fc0bd2a1c9ffcad4f","id":132664326,"location_subtype":"","month":"2025-12"},{"category":"public-order","location_type":"Force","location":{"latitude":"53.389532","street":{"id":2091491,"name":"On or near Supermarket"},"longitude":"-2.858995"},"context":"","outcome_status":{"category":"Investigation complete; no suspect identified","date":"2026-01"},"persistent_id":"4c9f244eb088f9d54a2b19771fb93eaf4e6b89ce13c4ce477feaf786250f3076","id":132659227,"location_subtype":"","month":"2025-12"},{"category":"public-order","location_type":"Force","location":{"latitude":"53.372988","street":{"id":2091401,"name":"On or near Priory Way"},"longitude":"-2.860902"},"context":"","outcome_status":{"category":"Unable to prosecute suspect","date":"2026-01"},"persistent_id":"1b9cbec6587c9595f313e99fb7b5fd47dd4920c71c579e2650260f7bfc9cd4a0","id":132663708,"location_subtype":"","month":"2025-12"},{"category":"public-order","location_type":"Force","location":{"latitude":"53.379363","street":{"id":2091542,"name":"On or near Halewood Road"},"longitude":"-2.856927"},"context":"","outcome_status":{"category":"Under investigation","date":"2025-12"},"persistent_id":"09134d78a5626647fc0412d59f78e22777ee5c31979cbcce332b81efb3f71179","id":132657594,"location_subtype":"","month":"2025-12"},{"category":"public-order","location_type":"Force","location":{"latitude":"53.376335","street":{"id":2091537,"name":"On or near Whitney Place"},"longitude":"-2.856760"},"context":"","outcome_status":{"category":"Unable to prosecute suspect","date":"2025-12"},"persistent_id":"b301e7b28bdf985019e4e5e72a055d1234fc7ba70adf10c8b4218917e7d02380","id":132665828,"location_subtype":"","month":"2025-12"},{"category":"public-order","location_type":"Force","location":{"latitude":"53.389394","street":{"id":2091738,"name":"On or near Runton Road"},"longitude":"-2.851895"},"context":"","outcome_status":{"category":"Under investigation","date":"2025-12"},"persistent_id":"d77beb7c96ffb5110caa656d0a5225e8fc5961d2b4fa87226304905eae08927e","id":132665299,"location_subtype":"","month":"2025-12"},{"category":"public-order","location_type":"Force","location":{"latitude":"53.389532","street":{"id":2091491,"name":"On or near Supermarket"},"longitude":"-2.858995"},"context":"","outcome_status":{"category":"Investigation complete; no suspect identified","date":"2025-12"},"persistent_id":"718f80c863616b9893d7f09aa24501ea4d848d8feb6a3da9501140a43029ae25","id":132659235,"location_subtype":"","month":"2025-12"},{"category":"public-order","location_type":"Force","location":{"latitude":"53.376335","street":{"id":2091537,"name":"On or near Whitney Place"},"longitude":"-2.856760"},"context":"","outcome_status":{"category":"Unable to prosecute suspect","date":"2025-12"},"persistent_id":"c56dd9fc8f73d11c9c9b8380e99be58475d6a777f01d5cb5e23377ecec8ba28e","id":132661400,"location_subtype":"","month":"2025-12"},{"category":"public-order","location_type":"Force","location":{"latitude":"53.371793","street":{"id":2090792,"name":"On or near B5171"},"longitude":"-2.873203"},"context":"","outcome_status":{"category":"Investigation complete; no suspect identified","date":"2025-12"},"persistent_id":"017fe034ff56e9a0bf5a278fa8c24099681f60fac184fcb2ce4507502822b684","id":132659271,"location_subtype":"","month":"2025-12"},{"category":"public-order","location_type":"Force","location":{"latitude":"53.371793","street":{"id":2090792,"name":"On or near B5171"},"longitude":"-2.873203"},"context":"","outcome_status":{"category":"Under investigation","date":"2025-12"},"persistent_id":"28b5919e4622ace8843e112e492806e9cd5b82f3f427d913c6df09c87853269e","id":132660014,"location_subtype":"","month":"2025-12"},{"category":"public-order","location_type":"Force","location":{"latitude":"53.389394","street":{"id":2091738,"name":"On or near Runton Road"},"longitude":"-2.851895"},"context":"","outcome_status":{"category":"Under investigation","date":"2025-12"},"persistent_id":"d10e4549f3b0df5f14670f138f3e9a4639f524514155b58c878ebe490015db2f","id":132661381,"location_subtype":"","month":"2025-12"},{"category":"public-order","location_type":"Force","location":{"latitude":"53.390863","street":{"id":2091497,"name":"On or near Shopping Area"},"longitude":"-2.858932"},"context":"","outcome_status":{"category":"Under investigation","date":"2025-12"},"persistent_id":"329b5785af00f8b8e05b63e09630915c0bfcaf11224e522dd1c543bc54107900","id":132654324,"location_subtype":"","month":"2025-12"},{"category":"public-order","location_type":"Force","location":{"latitude":"53.391772","street":{"id":2091651,"name":"On or near Abbeyvale Drive"},"longitude":"-2.853702"},"context":"","outcome_status":{"category":"Under investigation","date":"2025-12"},"persistent_id":"19dec7a0068349fc9155bc385349b79cc2aa4596d69bc282186bc47c52b22d38","id":132665877,"location_subtype":"","month":"2025-12"},{"category":"public-order","location_type":"Force","location":{"latitude":"53.391475","street":{"id":2091274,"name":"On or near Capstick Crescent"},"longitude":"-2.865004"},"context":"","outcome_status":{"category":"Under investigation","date":"2025-12"},"persistent_id":"e930af4242367ecc299e92f975da8bfea6752e00f0fa0689d850148df27d8ec7","id":132661258,"location_subtype":"","month":"2025-12"},{"category":"robbery","location_type":"Force","location":{"latitude":"53.388666","street":{"id":2091503,"name":"On or near Petrol Station"},"longitude":"-2.857130"},"context":"","outcome_status":{"category":"Investigation complete; no suspect identified","date":"2026-01"},"persistent_id":"48f7525413e57c4a92ac445582d1e6ed54f3e9700a5dcf4d02053478b223fbd5","id":132663251,"location_subtype":"","month":"2025-12"},{"category":"robbery","location_type":"Force","location":{"latitude":"53.388666","street":{"id":2091503,"name":"On or near Petrol Station"},"longitude":"-2.857130"},"context":"","outcome_status":{"category":"Investigation complete; no suspect identified","date":"2025-12"},"persistent_id":"628a6c5585fb1d23d947f1886412478eab48bff82bea4eae75eb9a7c662fd62e","id":132654345,"location_subtype":"","month":"2025-12"},{"category":"shoplifting","location_type":"Force","location":{"latitude":"53.375445","street":{"id":2091172,"name":"On or near Supermarket"},"longitude":"-2.865476"},"context":"","outcome_status":{"category":"Awaiting court outcome","date":"2026-01"},"persistent_id":"f22363e3e5668802313ac723ccb07133a1f623fc49d9f9261f73751092f50add","id":132665754,"location_subtype":"","month":"2025-12"},{"category":"shoplifting","location_type":"Force","location":{"latitude":"53.389532","street":{"id":2091491,"name":"On or near Supermarket"},"longitude":"-2.858995"},"context":"","outcome_status":{"category":"Investigation complete; no suspect identified","date":"2026-01"},"persistent_id":"682cd2f23843a2e8b9dfab5f08f4854ebecd0f9c734c95d40e28fdfe18dd500f","id":132656878,"location_subtype":"","month":"2025-12"},{"category":"shoplifting","location_type":"Force","location":{"latitude":"53.390863","street":{"id":2091497,"name":"On or near Shopping Area"},"longitude":"-2.858932"},"context":"","outcome_status":{"category":"Investigation complete; no suspect identified","date":"2025-12"},"persistent_id":"ae32a172e36fd27671049b6d5fd374e9a3c1b1819ce2cddd579fdf83444ff84b","id":132662078,"location_subtype":"","month":"2025-12"},{"category":"shoplifting","location_type":"Force","location":{"latitude":"53.389532","street":{"id":2091491,"name":"On or near Supermarket"},"longitude":"-2.858995"},"context":"","outcome_status":{"category":"Investigation complete; no suspect identified","date":"2025-12"},"persistent_id":"4143c01474fb8a6be650cfcecbbdcc2f0d20246fc3c257be259ef8da91694ed5","id":132660057,"location_subtype":"","month":"2025-12"},{"category":"shoplifting","location_type":"Force","location":{"latitude":"53.389532","street":{"id":2091491,"name":"On or near Supermarket"},"longitude":"-2.858995"},"context":"","outcome_status":{"category":"Investigation complete; no suspect identified","date":"2025-12"},"persistent_id":"48cae37d216f53a131428cd0c11080ad9dd5c9130b7507f2f8452d57be43c6a2","id":132659282,"location_subtype":"","month":"2025-12"},{"category":"shoplifting","location_type":"Force","location":{"latitude":"53.389532","street":{"id":2091491,"name":"On or near Supermarket"},"longitude":"-2.858995"},"context":"","outcome_status":{"category":"Investigation complete; no suspect identified","date":"2025-12"},"persistent_id":"ab415a7fce208b74a5ecc42e81de6505b2c1522261bd01a093b76148edccac11","id":132662502,"location_subtype":"","month":"2025-12"},{"category":"shoplifting","location_type":"Force","location":{"latitude":"53.389532","street":{"id":2091491,"name":"On or near Supermarket"},"longitude":"-2.858995"},"context":"","outcome_status":{"category":"Under investigation","date":"2025-12"},"persistent_id":"6d336ce61a50b748944bba50a616510c820451e347e702f91bd8cdbc0010d82c","id":132651041,"location_subtype":"","month":"2025-12"},{"category":"vehicle-crime","location_type":"Force","location":{"latitude":"53.385630","street":{"id":2091574,"name":"On or near Jones Farm Road"},"longitude":"-2.855414"},"context":"","outcome_status":{"category":"Investigation complete; no suspect identified","date":"2025-12"},"persistent_id":"40f15566dd6acf5357b5749a1814fc36d0c17234bb7433fa7a94289bc2199fd6","id":132660941,"location_subtype":"","month":"2025-12"},{"category":"vehicle-crime","location_type":"Force","location":{"latitude":"53.381925","street":{"id":2091162,"name":"On or near Runnymede Close"},"longitude":"-2.868043"},"context":"","outcome_status":{"category":"Investigation complete; no suspect identified","date":"2026-01"},"persistent_id":"dddc6edc5a439151c5bc11f0be84cd1709f1f77e18f0b5bbe563147363187ef2","id":132651031,"location_subtype":"","month":"2025-12"},{"category":"vehicle-crime","location_type":"Force","location":{"latitude":"53.381925","street":{"id":2091162,"name":"On or near Runnymede Close"},"longitude":"-2.868043"},"context":"","outcome_status":{"category":"Investigation complete; no suspect identified","date":"2026-01"},"persistent_id":"1e3b1b254e0eace3ee7e57e141ce54a6ba1155eeb4902c7f6267f5cd5edcc540","id":132651052,"location_subtype":"","month":"2025-12"},{"category":"vehicle-crime","location_type":"Force","location":{"latitude":"53.373083","street":{"id":2090990,"name":"On or near Allerton Road"},"longitude":"-2.871380"},"context":"","outcome_status":{"category":"Investigation complete; no suspect identified","date":"2025-12"},"persistent_id":"74e45919a001ba4a5988d8eddef2148c4938fd02cffe15beab67c17c58b5b98e","id":132664141,"location_subtype":"","month":"2025-12"},{"category":"vehicle-crime","location_type":"Force","location":{"latitude":"53.378650","street":{"id":2090727,"name":"On or near Hightor Road"},"longitude":"-2.875853"},"context":"","outcome_status":{"category":"Investigation complete; no suspect identified","date":"2026-01"},"persistent_id":"4e73e9b87b8f19131ad7c3d1b50727ca41eed95920c41df1288d59d6f372a7a5","id":132659274,"location_subtype":"","month":"2025-12"},{"category":"violent-crime","location_type":"Force","location":{"latitude":"53.386418","street":{"id":2091661,"name":"On or near Adstone Road"},"longitude":"-2.853249"},"context":"","outcome_status":{"category":"Investigation complete; no suspect identified","date":"2025-12"},"persistent_id":"5c018d887d78cc8ccc829f94ed63edf2390aa2c58983b7d35602773ea0a70857","id":132658262,"location_subtype":"","month":"2025-12"},{"category":"violent-crime","location_type":"Force","location":{"latitude":"53.389532","street":{"id":2091491,"name":"On or near Supermarket"},"longitude":"-2.858995"},"context":"","outcome_status":{"category":"Investigation complete; no suspect identified","date":"2026-01"},"persistent_id":"eb9c91e0967efcb6ed133c0896cf334a28dd9d499177e7632bf924ffc2361fa1","id":132656882,"location_subtype":"","month":"2025-12"},{"category":"violent-crime","location_type":"Force","location":{"latitude":"53.377060","street":{"id":2090520,"name":"On or near Rock Mount Close"},"longitude":"-2.879444"},"context":"","outcome_status":{"category":"Under investigation","date":"2025-12"},"persistent_id":"232efbdfb4c267954d5af7052056d7c79836a5946405bad2c9ac7cc823cdff98","id":132660002,"location_subtype":"","month":"2025-12"},{"category":"violent-crime","location_type":"Force","location":{"latitude":"53.378773","street":{"id":2091514,"name":"On or near Hadfield Grove"},"longitude":"-2.857621"},"context":"","outcome_status":{"category":"Unable to prosecute suspect","date":"2025-12"},"persistent_id":"21d885638b1cf1fae89a7f248e4f49010864d4d3c87cc6f7b6f5f24ef5e93ad4","id":132660544,"location_subtype":"","month":"2025-12"},{"category":"violent-crime","location_type":"Force","location":{"latitude":"53.375818","street":{"id":2090488,"name":"On or near Evesham Close"},"longitude":"-2.878426"},"context":"","outcome_status":{"category":"Unable to prosecute suspect","date":"2025-12"},"persistent_id":"6a66431c4a9d81188a947a8d53edc25db03a844acdf3e4b78e16756972b75a95","id":132660935,"location_subtype":"","month":"2025-12"},{"category":"violent-crime","location_type":"Force","location":{"latitude":"53.389532","street":{"id":2091491,"name":"On or near Supermarket"},"longitude":"-2.858995"},"context":"","outcome_status":{"category":"Investigation complete; no suspect identified","date":"2026-01"},"persistent_id":"51b108ccedc82410ee63dfb22e2c36bd8e91d34925b98faf96852f36f946adf3","id":132656810,"location_subtype":"","month":"2025-12"},{"category":"violent-crime","location_type":"Force","location":{"latitude":"53.373029","street":{"id":2090542,"name":"On or near Cheddar Close"},"longitude":"-2.875032"},"context":"","outcome_status":{"category":"Unable to prosecute suspect","date":"2026-01"},"persistent_id":"b011e4fb1c9563a1445d67a6a2972e3665b8deb370c81ae34616d626646eccf0","id":132666627,"location_subtype":"","month":"2025-12"},{"category":"violent-crime","location_type":"Force","location":{"latitude":"53.389087","street":{"id":2091722,"name":"On or near Westbrook Road"},"longitude":"-2.852175"},"context":"","outcome_status":{"category":"Unable to prosecute suspect","date":"2026-01"},"persistent_id":"194f5ee5c736c116be91fd998a0f3abc1017a124bc99468487f55d34b210a27d","id":132666480,"location_subtype":"","month":"2025-12"},{"category":"violent-crime","location_type":"Force","location":{"latitude":"53.377914","street":{"id":2091527,"name":"On or near Halewood Place"},"longitude":"-2.855920"},"context":"","outcome_status":{"category":"Investigation complete; no suspect identified","date":"2026-01"},"persistent_id":"8e8b14ec9dbd8599b2ed76b17bd53adab2eef6e54453f7e689fcc68244ad3041","id":132665875,"location_subtype":"","month":"2025-12"},{"category":"violent-crime","location_type":"Force","location":{"latitude":"53.378773","street":{"id":2091514,"name":"On or near Hadfield Grove"},"longitude":"-2.857621"},"context":"","outcome_status":{"category":"Unable to prosecute suspect","date":"2026-01"},"persistent_id":"c3d138ece825ee00db0ab59cf4e28b94e5b27574e5b27749e3182ef8ca87f16c","id":132665729,"location_subtype":"","month":"2025-12"},{"category":"violent-crime","location_type":"Force","location":{"latitude":"53.391772","street":{"id":2091651,"name":"On or near Abbeyvale Drive"},"longitude":"-2.853702"},"context":"","outcome_status":{"category":"Under investigation","date":"2025-12"},"persistent_id":"89b5d54fa9c56bff5fde0e46383fab8254ec02efa31457030bccf9efb164494e","id":132665832,"location_subtype":"","month":"2025-12"},{"category":"violent-crime","location_type":"Force","location":{"latitude":"53.367571","street":{"id":2091614,"name":"On or near Mackets Lane"},"longitude":"-2.852918"},"context":"","outcome_status":{"category":"Investigation complete; no suspect identified","date":"2025-12"},"persistent_id":"46036d481433895a141ec95ef2f0aa83d2e1ac3c0d29c0872069c23357e602be","id":132660892,"location_subtype":"","month":"2025-12"},{"category":"violent-crime","location_type":"Force","location":{"latitude":"53.378773","street":{"id":2091514,"name":"On or near Hadfield Grove"},"longitude":"-2.857621"},"context":"","outcome_status":{"category":"Unable to prosecute suspect","date":"2025-12"},"persistent_id":"7a9a2e51dc4e8c2fa1fb0bbabdff64d83b7dc9d9e70777f1cb46a7c9bbe4de36","id":132660403,"location_subtype":"","month":"2025-12"},{"category":"violent-crime","location_type":"Force","location":{"latitude":"53.374077","street":{"id":2091251,"name":"On or near Woolton Street"},"longitude":"-2.865734"},"context":"","outcome_status":{"category":"Investigation complete; no suspect identified","date":"2025-12"},"persistent_id":"b4b4206cc4f92dde6e87ce5cfe2c31e8ebf640d0cae6ad4292e7b5eb32676d40","id":132664090,"location_subtype":"","month":"2025-12"},{"category":"violent-crime","location_type":"Force","location":{"latitude":"53.374630","street":{"id":2091091,"name":"On or near St Mary's Street"},"longitude":"-2.869939"},"context":"","outcome_status":{"category":"Unable to prosecute suspect","date":"2025-12"},"persistent_id":"090fcc390c10475fc7088017b242af6f202644216ecf15eda2c65f1618f7afdb","id":132664033,"location_subtype":"","month":"2025-12"},{"category":"violent-crime","location_type":"Force","location":{"latitude":"53.390230","street":{"id":2091040,"name":"On or near Acresgate Court"},"longitude":"-2.871881"},"context":"","outcome_status":{"category":"Unable to prosecute suspect","date":"2026-01"},"persistent_id":"9e55c60cc9ff433dbc8e427d5e67644aa51fa5de20c0e8ba43774cbf975c14c8","id":132663680,"location_subtype":"","month":"2025-12"},{"category":"violent-crime","location_type":"Force","location":{"latitude":"53.382474","street":{"id":2090252,"name":"On or near Stockville Road"},"longitude":"-2.886320"},"context":"","outcome_status":{"category":"Unable to prosecute suspect","date":"2026-01"},"persistent_id":"2b0351690e190a220c812bd1f932de650759e9abb139f5e6b83d89779ba77686","id":132663676,"location_subtype":"","month":"2025-12"},{"category":"violent-crime","location_type":"Force","location":{"latitude":"53.373495","street":{"id":2091615,"name":"On or near Layton Road"},"longitude":"-2.854103"},"context":"","outcome_status":{"category":"Unable to prosecute suspect","date":"2025-12"},"persistent_id":"3348ddcb7ca0971e4759dce1d06a9dc1b0fd543530c556f9ff0fbb952efeee8a","id":132663658,"location_subtype":"","month":"2025-12"},{"category":"violent-crime","location_type":"Force","location":{"latitude":"53.385778","street":{"id":2091708,"name":"On or near Dinaro Close"},"longitude":"-2.852349"},"context":"","outcome_status":{"category":"Unable to prosecute suspect","date":"2025-12"},"persistent_id":"d675ee10c30c9066a31f8cb7a1a85a7d8ea26c158f3391d6956d1784fb2a930e","id":132663255,"location_subtype":"","month":"2025-12"},{"category":"violent-crime","location_type":"Force","location":{"latitude":"53.378773","street":{"id":2091514,"name":"On or near Hadfield Grove"},"longitude":"-2.857621"},"context":"","outcome_status":{"category":"Unable to prosecute suspect","date":"2025-12"},"persistent_id":"4947b66cce165a17fada73ddb3276a8eb6e95291a24504f1ca25096a876b0dd4","id":132665378,"location_subtype":"","month":"2025-12"},{"category":"violent-crime","location_type":"Force","location":{"latitude":"53.378773","street":{"id":2091514,"name":"On or near Hadfield Grove"},"longitude":"-2.857621"},"context":"","outcome_status":{"category":"Unable to prosecute suspect","date":"2026-01"},"persistent_id":"9f30c42ff9ad26ef1719a104b6203d4b97931206a79f77e0d9100b4f6fd5ba2a","id":132665320,"location_subtype":"","month":"2025-12"},{"category":"violent-crime","location_type":"Force","location":{"latitude":"53.389173","street":{"id":2091296,"name":"On or near Lineside Close"},"longitude":"-2.863890"},"context":"","outcome_status":{"category":"Unable to prosecute suspect","date":"2026-01"},"persistent_id":"09c2674af778472bd262cd4003b8aba3e115f7048c39f63587e0ec4cf229c743","id":132665270,"location_subtype":"","month":"2025-12"},{"category":"violent-crime","location_type":"Force","location":{"latitude":"53.385674","street":{"id":2091666,"name":"On or near Woodlee Road"},"longitude":"-2.853039"},"context":"","outcome_status":{"category":"Unable to prosecute suspect","date":"2026-01"},"persistent_id":"ef46ba6a5f451b653ecf951101cfa591276654ec4879c26c8a02cdfdeb606a36","id":132665336,"location_subtype":"","month":"2025-12"},{"category":"violent-crime","location_type":"Force","location":{"latitude":"53.380088","street":{"id":2091565,"name":"On or near Ribble Road"},"longitude":"-2.856054"},"context":"","outcome_status":{"category":"Unable to prosecute suspect","date":"2026-01"},"persistent_id":"66f2967d25a282f1a0ce38c1ab1d6f2b5d9fc43fc6c5d48a2f5a36e50af33f54","id":132665011,"location_subtype":"","month":"2025-12"},{"category":"violent-crime","location_type":"Force","location":{"latitude":"53.374794","street":{"id":2090877,"name":"On or near Rose Street"},"longitude":"-2.874587"},"context":"","outcome_status":{"category":"Under investigation","date":"2025-12"},"persistent_id":"4444472e3a70b0ced0e8c97fd3606c6407e387a6f021895d9269cf2c75205c44","id":132664713,"location_subtype":"","month":"2025-12"},{"category":"violent-crime","location_type":"Force","location":{"latitude":"53.376971","street":{"id":2091655,"name":"On or near Reigate Close"},"longitude":"-2.853181"},"context":"","outcome_status":{"category":"Unable to prosecute suspect","date":"2026-01"},"persistent_id":"3afb6849b7fcbb145fc392987a4c4171eefbb1b87509aade064cff6f2d160160","id":132664418,"location_subtype":"","month":"2025-12"},{"category":"violent-crime","location_type":"Force","location":{"latitude":"53.383623","street":{"id":2091569,"name":"On or near Lee Vale Road"},"longitude":"-2.855779"},"context":"","outcome_status":{"category":"Under investigation","date":"2025-12"},"persistent_id":"72b44a062c43ffca293b97ee7e88532f1bd6254bfce7dd9060049bc4ddba9eda","id":132664335,"location_subtype":"","month":"2025-12"},{"category":"violent-crime","location_type":"Force","location":{"latitude":"53.381691","street":{"id":2091433,"name":"On or near Elm House Mews"},"longitude":"-2.859379"},"context":"","outcome_status":{"category":"Unable to prosecute suspect","date":"2026-01"},"persistent_id":"ab3f5a6ce5ccbb18986d11119da112fbdb7ede9c0abe1da4cbafc483ba589341","id":132664098,"location_subtype":"","month":"2025-12"},{"category":"violent-crime","location_type":"Force","location":{"latitude":"53.368173","street":{"id":2091068,"name":"On or near Cavell Close"},"longitude":"-2.866621"},"context":"","outcome_status":{"category":"Unable to prosecute suspect","date":"2025-12"},"persistent_id":"5d13b7b23d132b3cf446db0248de3a9024cffbc05b22444584ab27cbfb3c019a","id":132664085,"location_subtype":"","month":"2025-12"},{"category":"violent-crime","location_type":"Force","location":{"latitude":"53.372828","street":{"id":2091642,"name":"On or near Felstead Avenue"},"longitude":"-2.851895"},"context":"","outcome_status":{"category":"Unable to prosecute suspect","date":"2026-01"},"persistent_id":"77159b54efd5c74abdeaf76c07dfd4563a43a3025c19fef0c61b047937b91580","id":132664070,"location_subtype":"","month":"2025-12"},{"category":"violent-crime","location_type":"Force","location":{"latitude":"53.389173","street":{"id":2091296,"name":"On or near Lineside Close"},"longitude":"-2.863890"},"context":"","outcome_status":{"category":"Unable to prosecute suspect","date":"2026-01"},"persistent_id":"0aeb70c012ec631bea9efa48a95b5984f3c056043b0367a0b7cc4420a3cdcfeb","id":132664319,"location_subtype":"","month":"2025-12"},{"category":"violent-crime","location_type":"Force","location":{"latitude":"53.389173","street":{"id":2091296,"name":"On or near Lineside Close"},"longitude":"-2.863890"},"context":"","outcome_status":{"category":"Unable to prosecute suspect","date":"2026-01"},"persistent_id":"bc59cb3381ded7f5d363895b046387207c6f9e4f5f42b4e1f923fbf67eb84076","id":132662802,"location_subtype":"","month":"2025-12"},{"category":"violent-crime","location_type":"Force","location":{"latitude":"53.378811","street":{"id":2091577,"name":"On or near Davids Walk"},"longitude":"-2.854826"},"context":"","outcome_status":{"category":"Under investigation","date":"2025-12"},"persistent_id":"e8e44e9f471d4b0db7c87153f57747e1061038f70b81e34ce6d632088225093f","id":132662509,"location_subtype":"","month":"2025-12"},{"category":"violent-crime","location_type":"Force","location":{"latitude":"53.378811","street":{"id":2091577,"name":"On or near Davids Walk"},"longitude":"-2.854826"},"context":"","outcome_status":{"category":"Under investigation","date":"2025-12"},"persistent_id":"f700ae606915ec838288fe416b0bb60f9019dfc2d1ebf957efad1956e25107f7","id":132662506,"location_subtype":"","month":"2025-12"},{"category":"violent-crime","location_type":"Force","location":{"latitude":"53.378811","street":{"id":2091577,"name":"On or near Davids Walk"},"longitude":"-2.854826"},"context":"","outcome_status":{"category":"Under investigation","date":"2025-12"},"persistent_id":"a0fafa92b58892d2199d3c78e948f224d7746c674ba2d3911a8ebf52b772a403","id":132662505,"location_subtype":"","month":"2025-12"},{"category":"violent-crime","location_type":"Force","location":{"latitude":"53.376390","street":{"id":2091550,"name":"On or near Whitney Road"},"longitude":"-2.856611"},"context":"","outcome_status":{"category":"Unable to prosecute suspect","date":"2026-01"},"persistent_id":"e4b3f7c16a7c64c3fc503e40a91bad6948121f0e054579dda97bbd224b47035f","id":132661402,"location_subtype":"","month":"2025-12"},{"category":"violent-crime","location_type":"Force","location":{"latitude":"53.378773","street":{"id":2091514,"name":"On or near Hadfield Grove"},"longitude":"-2.857621"},"context":"","outcome_status":{"category":"Unable to prosecute suspect","date":"2025-12"},"persistent_id":"356d4c4e258c58a782309ea97134ec7c64409e09d0f2d714d78ce430c0765009","id":132660559,"location_subtype":"","month":"2025-12"},{"category":"violent-crime","location_type":"Force","location":{"latitude":"53.378773","street":{"id":2091514,"name":"On or near Hadfield Grove"},"longitude":"-2.857621"},"context":"","outcome_status":{"category":"Unable to prosecute suspect","date":"2025-12"},"persistent_id":"649cca45aa3ed623193305195a349013382537907a00e4a33316c8145b10b7ff","id":132660395,"location_subtype":"","month":"2025-12"},{"category":"violent-crime","location_type":"Force","location":{"latitude":"53.373525","street":{"id":2091164,"name":"On or near High Street"},"longitude":"-2.868714"},"context":"","outcome_status":{"category":"Investigation complete; no suspect identified","date":"2026-01"},"persistent_id":"6162136c90bbe7bbb4a8d0abfafb2785e5a33d2b5820c3214bce6d57846921f9","id":132660873,"location_subtype":"","month":"2025-12"},{"category":"violent-crime","location_type":"Force","location":{"latitude":"53.379729","street":{"id":2091177,"name":"On or near Woolton Park Close"},"longitude":"-2.868389"},"context":"","outcome_status":{"category":"Unable to prosecute suspect","date":"2026-01"},"persistent_id":"cbf3a078ead146139191a6bc0e537b026cac36a414fc5a55e8ae21cabdeabfa1","id":132660501,"location_subtype":"","month":"2025-12"},{"category":"violent-crime","location_type":"Force","location":{"latitude":"53.378773","street":{"id":2091514,"name":"On or near Hadfield Grove"},"longitude":"-2.857621"},"context":"","outcome_status":{"category":"Unable to prosecute suspect","date":"2025-12"},"persistent_id":"0dbf382c5bbd0f09b5814d50476f9411d505e1353c5b10ca3f3fc61deb91daee","id":132660022,"location_subtype":"","month":"2025-12"},{"category":"violent-crime","location_type":"Force","location":{"latitude":"53.377060","street":{"id":2090520,"name":"On or near Rock Mount Close"},"longitude":"-2.879444"},"context":"","outcome_status":{"category":"Under investigation","date":"2025-12"},"persistent_id":"d50b9c92e715483b05eff0f70aede0024c6821596d6b6e772b32a5c3d16061cb","id":132659994,"location_subtype":"","month":"2025-12"},{"category":"violent-crime","location_type":"Force","location":{"latitude":"53.378773","street":{"id":2091514,"name":"On or near Hadfield Grove"},"longitude":"-2.857621"},"context":"","outcome_status":{"category":"Unable to prosecute suspect","date":"2025-12"},"persistent_id":"a0c38f52dbf56a2763119a63c569719ac77f26c973d28eb9a5e5218a5b911457","id":132660067,"location_subtype":"","month":"2025-12"},{"category":"violent-crime","location_type":"Force","location":{"latitude":"53.384209","street":{"id":2091035,"name":"On or near Rosehill Court"},"longitude":"-2.871638"},"context":"","outcome_status":{"category":"Under investigation","date":"2025-12"},"persistent_id":"d2fd5637efb83d3aae8a8bd8c244bcf910f109b4b3cb7bb11e29e61edc3120b9","id":132659270,"location_subtype":"","month":"2025-12"},{"category":"violent-crime","location_type":"Force","location":{"latitude":"53.378773","street":{"id":2091514,"name":"On or near Hadfield Grove"},"longitude":"-2.857621"},"context":"","outcome_status":{"category":"Under investigation","date":"2025-12"},"persistent_id":"b9848ca433d795abb12f7189e0dfb1b67af9a229d0382d7c85f33ffa85217067","id":132659243,"location_subtype":"","month":"2025-12"},{"category":"violent-crime","location_type":"Force","location":{"latitude":"53.384209","street":{"id":2091035,"name":"On or near Rosehill Court"},"longitude":"-2.871638"},"context":"","outcome_status":{"category":"Further investigation is not in the public interest","date":"2025-12"},"persistent_id":"aa00919bf787b46c614185e8e8ae0c092b2b28c84fb9d24d32cc29f18caea781","id":132659276,"location_subtype":"","month":"2025-12"},{"category":"violent-crime","location_type":"Force","location":{"latitude":"53.375659","street":{"id":2091767,"name":"On or near Ruislip Close"},"longitude":"-2.850734"},"context":"","outcome_status":{"category":"Unable to prosecute suspect","date":"2026-01"},"persistent_id":"56663bd8cc61a8e3633986585b7a0c40c0634f93438ef34c08025ace4a29bac7","id":132659286,"location_subtype":"","month":"2025-12"},{"category":"violent-crime","location_type":"Force","location":{"latitude":"53.373525","street":{"id":2091164,"name":"On or near High Street"},"longitude":"-2.868714"},"context":"","outcome_status":{"category":"Unable to prosecute suspect","date":"2026-01"},"persistent_id":"cb9bb5fdd5b93ccedcb7e7eff016781b3ae6d819c1e16bfcc1d69ddef422cdf4","id":132652619,"location_subtype":"","month":"2025-12"},{"category":"violent-crime","location_type":"Force","location":{"latitude":"53.376971","street":{"id":2091655,"name":"On or near Reigate Close"},"longitude":"-2.853181"},"context":"","outcome_status":{"category":"Unable to prosecute suspect","date":"2025-12"},"persistent_id":"9473284458d907384f0ca2c4d698d51e7f84a7f4a54f8b6c193ebca1f9c25cd7","id":132655933,"location_subtype":"","month":"2025-12"},{"category":"violent-crime","location_type":"Force","location":{"latitude":"53.390528","street":{"id":2091620,"name":"On or near Parking Area"},"longitude":"-2.854324"},"context":"","outcome_status":{"category":"Unable to prosecute suspect","date":"2025-12"},"persistent_id":"930421898697a686c5504bc8d9427cebffce93b5d5070efd51845047f022bcb2","id":132651061,"location_subtype":"","month":"2025-12"},{"category":"violent-crime","location_type":"Force","location":{"latitude":"53.388118","street":{"id":2091039,"name":"On or near Bloomsbury Avenue"},"longitude":"-2.871732"},"context":"","outcome_status":{"category":"Unable to prosecute suspect","date":"2025-12"},"persistent_id":"69cde5a63e2a3eabeb39851ae5ce492ae29b20f9653a61aa122e70826b12e265","id":132651842,"location_subtype":"","month":"2025-12"},{"category":"violent-crime","location_type":"Force","location":{"latitude":"53.384216","street":{"id":2091711,"name":"On or near Tedburn Close"},"longitude":"-2.852032"},"context":"","outcome_status":{"category":"Unable to prosecute suspect","date":"2025-12"},"persistent_id":"37a463677a23ef5c20b6409b879750521ca29640c57992d368bac8d946642f6e","id":132651877,"location_subtype":"","month":"2025-12"},{"category":"violent-crime","location_type":"Force","location":{"latitude":"53.376390","street":{"id":2091550,"name":"On or near Whitney Road"},"longitude":"-2.856611"},"context":"","outcome_status":{"category":"Unable to prosecute suspect","date":"2025-12"},"persistent_id":"dcb6cca94a9aa13a7343f33de422b5ab5743a4955042598aecc684fd79d8d120","id":132655113,"location_subtype":"","month":"2025-12"},{"category":"violent-crime","location_type":"Force","location":{"latitude":"53.385778","street":{"id":2091708,"name":"On or near Dinaro Close"},"longitude":"-2.852349"},"context":"","outcome_status":{"category":"Unable to prosecute suspect","date":"2025-12"},"persistent_id":"5cb388a01163f218f513898972167a287443e0ef9853e653d57db9717d516f36","id":132663297,"location_subtype":"","month":"2025-12"},{"category":"violent-crime","location_type":"Force","location":{"latitude":"53.380971","street":{"id":2090507,"name":"On or near Beaconsfield Road"},"longitude":"-2.880441"},"context":"","outcome_status":{"category":"Unable to prosecute suspect","date":"2025-12"},"persistent_id":"df00bc83ea3a5e0ba5a8d6cda3ad294baa0aefae6a4932d9e664f51a5e88e6c4","id":132658197,"location_subtype":"","month":"2025-12"},{"category":"violent-crime","location_type":"Force","location":{"latitude":"53.374794","street":{"id":2090877,"name":"On or near Rose Street"},"longitude":"-2.874587"},"context":"","outcome_status":{"category":"Under investigation","date":"2025-12"},"persistent_id":"306368a84ad497cf10f0985a25ae990d9666fa7830d014f3def9fbcac2cd6ce0","id":132621645,"location_subtype":"","month":"2025-12"},{"category":"violent-crime","location_type":"Force","location":{"latitude":"53.371793","street":{"id":2090792,"name":"On or near B5171"},"longitude":"-2.873203"},"context":"","outcome_status":{"category":"Unable to prosecute suspect","date":"2025-12"},"persistent_id":"34a4aa5951748a04cb28d3b19c52f2e3bd103a2884fa4f5816a5520002b9604f","id":132658440,"location_subtype":"","month":"2025-12"},{"category":"violent-crime","location_type":"Force","location":{"latitude":"53.380088","street":{"id":2091565,"name":"On or near Ribble Road"},"longitude":"-2.856054"},"context":"","outcome_status":{"category":"Unable to prosecute suspect","date":"2025-12"},"persistent_id":"d1db7dd0a2d202cd65e20b491a6c8923f7ab61d923fd6527ce9d34c937837c32","id":132658884,"location_subtype":"","month":"2025-12"},{"category":"violent-crime","location_type":"Force","location":{"latitude":"53.384209","street":{"id":2091035,"name":"On or near Rosehill Court"},"longitude":"-2.871638"},"context":"","outcome_status":{"category":"Further investigation is not in the public interest","date":"2025-12"},"persistent_id":"16d10f8d6627a28d849af8842d97f1fe6728eb2dfc4cec300579162d4e549fdb","id":132659633,"location_subtype":"","month":"2025-12"},{"category":"violent-crime","location_type":"Force","location":{"latitude":"53.384209","street":{"id":2091035,"name":"On or near Rosehill Court"},"longitude":"-2.871638"},"context":"","outcome_status":{"category":"Further investigation is not in the public interest","date":"2025-12"},"persistent_id":"368098ce02fb22dd438df710e973ad13f7845c335f0524e353f99cec8de27b77","id":132659640,"location_subtype":"","month":"2025-12"},{"category":"violent-crime","location_type":"Force","location":{"latitude":"53.378773","street":{"id":2091514,"name":"On or near Hadfield Grove"},"longitude":"-2.857621"},"context":"","outcome_status":{"category":"Unable to prosecute suspect","date":"2025-12"},"persistent_id":"2f6109528d3308452cd56331f2d74717a72fc23d66e658f8120658fd13cdec7d","id":132660077,"location_subtype":"","month":"2025-12"},{"category":"violent-crime","location_type":"Force","location":{"latitude":"53.378773","street":{"id":2091514,"name":"On or near Hadfield Grove"},"longitude":"-2.857621"},"context":"","outcome_status":{"category":"Unable to prosecute suspect","date":"2025-12"},"persistent_id":"80d2d0f7644cf03eb37b925bf02d6de64fa724cd126c7abd8000f3122aa0b9f8","id":132660542,"location_subtype":"","month":"2025-12"},{"category":"violent-crime","location_type":"Force","location":{"latitude":"53.385630","street":{"id":2091574,"name":"On or near Jones Farm Road"},"longitude":"-2.855414"},"context":"","outcome_status":{"category":"Unable to prosecute suspect","date":"2025-12"},"persistent_id":"0e6f31d2d912a0245e53c2f4c1214fd88c40ebbf664ea7b04d19da68121e8701","id":132652751,"location_subtype":"","month":"2025-12"},{"category":"violent-crime","location_type":"Force","location":{"latitude":"53.375823","street":{"id":2091592,"name":"On or near Halewood Way"},"longitude":"-2.854090"},"context":"","outcome_status":{"category":"Awaiting court outcome","date":"2025-12"},"persistent_id":"7273ee83b3d12ae4fec9dad8e5dbca3f128d54743620993440909f793d40d610","id":132652764,"location_subtype":"","month":"2025-12"},{"category":"violent-crime","location_type":"Force","location":{"latitude":"53.385171","street":{"id":2091475,"name":"On or near Belle Vue Road"},"longitude":"-2.859178"},"context":"","outcome_status":{"category":"Investigation complete; no suspect identified","date":"2025-12"},"persistent_id":"ebf9542c5d086d38f14a3285fc331762c4fbb2d49121b4744446f063e8c4c633","id":132653522,"location_subtype":"","month":"2025-12"},{"category":"violent-crime","location_type":"Force","location":{"latitude":"53.383244","street":{"id":2091600,"name":"On or near Lee Vale Road"},"longitude":"-2.854644"},"context":"","outcome_status":{"category":"Unable to prosecute suspect","date":"2025-12"},"persistent_id":"d86aacba68bff9a761fbdfcc3653ec68846b1b6593e67bb18126b585a13e4eb7","id":132653732,"location_subtype":"","month":"2025-12"},{"category":"violent-crime","location_type":"Force","location":{"latitude":"53.376043","street":{"id":2090648,"name":"On or near Gladstone Street"},"longitude":"-2.877048"},"context":"","outcome_status":{"category":"Unable to prosecute suspect","date":"2025-12"},"persistent_id":"78bd9b8ce52d75b4b09783224fc4752ef4f9ba3db7647563199ba2b958abe858","id":132666092,"location_subtype":"","month":"2025-12"},{"category":"violent-crime","location_type":"Force","location":{"latitude":"53.390230","street":{"id":2091040,"name":"On or near Acresgate Court"},"longitude":"-2.871881"},"context":"","outcome_status":{"category":"Unable to prosecute suspect","date":"2025-12"},"persistent_id":"019f28359ad1cdfeb430f7b445133c6b8a4b0dd4acffaa603533f99ac95f7cef","id":132652720,"location_subtype":"","month":"2025-12"},{"category":"other-crime","location_type":"Force","location":{"latitude":"53.390883","street":{"id":2091333,"name":"On or near Shopping Area"},"longitude":"-2.859468"},"context":"","outcome_status":{"category":"Unable to prosecute suspect","date":"2025-12"},"persistent_id":"b2ccac0a1c48fb0410b78d60e56e771a3b8b83cf37c1128997c9b7d9e030b4ad","id":132654493,"location_subtype":"","month":"2025-12"},{"category":"other-crime","location_type":"Force","location":{"latitude":"53.390883","street":{"id":2091333,"name":"On or near Shopping Area"},"longitude":"-2.859468"},"context":"","outcome_status":{"category":"Unable to prosecute suspect","date":"2025-12"},"persistent_id":"dc3a2aac12fabed9189629ccb28d5135406c0d801cd61b4e29161744bc5d1373","id":132664147,"location_subtype":"","month":"2025-12"},{"category":"other-crime","location_type":"Force","location":{"latitude":"53.389394","street":{"id":2091738,"name":"On or near Runton Road"},"longitude":"-2.851895"},"context":"","outcome_status":{"category":"Under investigation","date":"2025-12"},"persistent_id":"a8e2134286963fa8da3e8fe5c9acbcdfc464547a801ae0e26d393bebed5be48c","id":132660481,"location_subtype":"","month":"2025-12"},{"category":"other-crime","location_type":"Force","location":{"latitude":"53.388346","street":{"id":2091643,"name":"On or near Lenton Road"},"longitude":"-2.853934"},"context":"","outcome_status":{"category":"Further action is not in the public interest","date":"2026-01"},"persistent_id":"cbb691a7b6091640d491a4b4d68024e62be0460f2c7db269d2924d403e7b6170","id":132666104,"location_subtype":"","month":"2025-12"}]