[{"category":"anti-social-behaviour","location_type":"Force","location":{"latitude":"53.336037","street":{"id":1511419,"name":"On or near Ferguson Avenue"},"longitude":"-3.429089"},"context":"","outcome_status":null,"persistent_id":"","id":132132153,"location_subtype":"","month":"2025-11"},{"category":"anti-social-behaviour","location_type":"Force","location":{"latitude":"53.338260","street":{"id":1511876,"name":"On or near Cae'r Nant"},"longitude":"-3.402369"},"context":"","outcome_status":null,"persistent_id":"","id":132131896,"location_subtype":"","month":"2025-11"},{"category":"anti-social-behaviour","location_type":"Force","location":{"latitude":"53.336037","street":{"id":1511419,"name":"On or near Ferguson Avenue"},"longitude":"-3.429089"},"context":"","outcome_status":null,"persistent_id":"","id":132132237,"location_subtype":"","month":"2025-11"},{"category":"anti-social-behaviour","location_type":"Force","location":{"latitude":"53.334019","street":{"id":1511823,"name":"On or near B5120"},"longitude":"-3.405293"},"context":"","outcome_status":null,"persistent_id":"","id":132132194,"location_subtype":"","month":"2025-11"},{"category":"anti-social-behaviour","location_type":"Force","location":{"latitude":"53.335334","street":{"id":1511881,"name":"On or near Parking Area"},"longitude":"-3.402768"},"context":"","outcome_status":null,"persistent_id":"","id":132132319,"location_subtype":"","month":"2025-11"},{"category":"anti-social-behaviour","location_type":"Force","location":{"latitude":"53.335527","street":{"id":1511692,"name":"On or near Gwelfryn"},"longitude":"-3.412281"},"context":"","outcome_status":null,"persistent_id":"","id":132132287,"location_subtype":"","month":"2025-11"},{"category":"anti-social-behaviour","location_type":"Force","location":{"latitude":"53.327131","street":{"id":1511575,"name":"On or near Salisbury Drive"},"longitude":"-3.419106"},"context":"","outcome_status":null,"persistent_id":"","id":132132098,"location_subtype":"","month":"2025-11"},{"category":"anti-social-behaviour","location_type":"Force","location":{"latitude":"53.335904","street":{"id":1511819,"name":"On or near Petrol Station"},"longitude":"-3.405490"},"context":"","outcome_status":null,"persistent_id":"","id":132132099,"location_subtype":"","month":"2025-11"},{"category":"anti-social-behaviour","location_type":"Force","location":{"latitude":"53.329291","street":{"id":1511524,"name":"On or near York Close"},"longitude":"-3.420409"},"context":"","outcome_status":null,"persistent_id":"","id":132132070,"location_subtype":"","month":"2025-11"},{"category":"anti-social-behaviour","location_type":"Force","location":{"latitude":"53.332875","street":{"id":1511817,"name":"On or near Victoria Avenue"},"longitude":"-3.404715"},"context":"","outcome_status":null,"persistent_id":"","id":132132038,"location_subtype":"","month":"2025-11"},{"category":"anti-social-behaviour","location_type":"Force","location":{"latitude":"53.326835","street":{"id":1511468,"name":"On or near Ffordd Pant Y Celyn"},"longitude":"-3.425823"},"context":"","outcome_status":null,"persistent_id":"","id":132132037,"location_subtype":"","month":"2025-11"},{"category":"anti-social-behaviour","location_type":"Force","location":{"latitude":"53.335923","street":{"id":1511855,"name":"On or near Shopping Area"},"longitude":"-3.402774"},"context":"","outcome_status":null,"persistent_id":"","id":132132288,"location_subtype":"","month":"2025-11"},{"category":"anti-social-behaviour","location_type":"Force","location":{"latitude":"53.330392","street":{"id":1511812,"name":"On or near South Avenue"},"longitude":"-3.405609"},"context":"","outcome_status":null,"persistent_id":"","id":132132008,"location_subtype":"","month":"2025-11"},{"category":"anti-social-behaviour","location_type":"Force","location":{"latitude":"53.330502","street":{"id":1511851,"name":"On or near Elmsway Drive"},"longitude":"-3.403946"},"context":"","outcome_status":null,"persistent_id":"","id":132131955,"location_subtype":"","month":"2025-11"},{"category":"anti-social-behaviour","location_type":"Force","location":{"latitude":"53.333210","street":{"id":1511883,"name":"On or near Church Walks"},"longitude":"-3.401452"},"context":"","outcome_status":null,"persistent_id":"","id":132131928,"location_subtype":"","month":"2025-11"},{"category":"anti-social-behaviour","location_type":"Force","location":{"latitude":"53.334013","street":{"id":1511854,"name":"On or near Stryd Fawr"},"longitude":"-3.403491"},"context":"","outcome_status":null,"persistent_id":"","id":132131927,"location_subtype":"","month":"2025-11"},{"category":"anti-social-behaviour","location_type":"Force","location":{"latitude":"53.330392","street":{"id":1511812,"name":"On or near South Avenue"},"longitude":"-3.405609"},"context":"","outcome_status":null,"persistent_id":"","id":132131736,"location_subtype":"","month":"2025-11"},{"category":"anti-social-behaviour","location_type":"Force","location":{"latitude":"53.334019","street":{"id":1511823,"name":"On or near B5120"},"longitude":"-3.405293"},"context":"","outcome_status":null,"persistent_id":"","id":132132071,"location_subtype":"","month":"2025-11"},{"category":"anti-social-behaviour","location_type":"Force","location":{"latitude":"53.332875","street":{"id":1511817,"name":"On or near Victoria Avenue"},"longitude":"-3.404715"},"context":"","outcome_status":null,"persistent_id":"","id":132131895,"location_subtype":"","month":"2025-11"},{"category":"anti-social-behaviour","location_type":"Force","location":{"latitude":"53.335332","street":{"id":1511965,"name":"On or near Tudor Avenue"},"longitude":"-3.392210"},"context":"","outcome_status":null,"persistent_id":"","id":132131825,"location_subtype":"","month":"2025-11"},{"category":"anti-social-behaviour","location_type":"Force","location":{"latitude":"53.334925","street":{"id":1511828,"name":"On or near Lon Alwen"},"longitude":"-3.404632"},"context":"","outcome_status":null,"persistent_id":"","id":132131770,"location_subtype":"","month":"2025-11"},{"category":"anti-social-behaviour","location_type":"Force","location":{"latitude":"53.334013","street":{"id":1511854,"name":"On or near Stryd Fawr"},"longitude":"-3.403491"},"context":"","outcome_status":null,"persistent_id":"","id":132131824,"location_subtype":"","month":"2025-11"},{"category":"bicycle-theft","location_type":"Force","location":{"latitude":"53.334801","street":{"id":1511330,"name":"On or near Park/open Space"},"longitude":"-3.431691"},"context":"","outcome_status":{"category":"Unable to prosecute suspect","date":"2026-01"},"persistent_id":"ee219380f658f308f855f04e000ab4ea2640d5c8ac9cb2d46711b48d2519d330","id":132135634,"location_subtype":"","month":"2025-11"},{"category":"bicycle-theft","location_type":"Force","location":{"latitude":"53.341491","street":{"id":1511667,"name":"On or near Beach Road West"},"longitude":"-3.414221"},"context":"","outcome_status":{"category":"Under investigation","date":"2025-11"},"persistent_id":"d22564871721a40a7952bd784aded4e9b1a78501d7f10b7b90aa900a03165c04","id":132135635,"location_subtype":"","month":"2025-11"},{"category":"burglary","location_type":"Force","location":{"latitude":"53.334791","street":{"id":1511440,"name":"On or near Sandhurst Road"},"longitude":"-3.427335"},"context":"","outcome_status":{"category":"Investigation complete; no suspect identified","date":"2025-11"},"persistent_id":"dc699aff6004d81c688e4885bc4ccc72038b6210ec7002cb7d881953364468b6","id":132133950,"location_subtype":"","month":"2025-11"},{"category":"criminal-damage-arson","location_type":"Force","location":{"latitude":"53.325209","street":{"id":1511821,"name":"On or near Birch Grove"},"longitude":"-3.401505"},"context":"","outcome_status":{"category":"Investigation complete; no suspect identified","date":"2025-11"},"persistent_id":"eef6035260a927d6c0183a69cb19a05b655fee74939b2cca0e3a6477eaf9e8a4","id":132133149,"location_subtype":"","month":"2025-11"},{"category":"criminal-damage-arson","location_type":"Force","location":{"latitude":"53.334013","street":{"id":1511854,"name":"On or near Stryd Fawr"},"longitude":"-3.403491"},"context":"","outcome_status":{"category":"Under investigation","date":"2025-11"},"persistent_id":"6d17a980d28bab2b2d1d82a364bf15df0cd29e906f7909c047970672c7321f7c","id":132135789,"location_subtype":"","month":"2025-11"},{"category":"criminal-damage-arson","location_type":"Force","location":{"latitude":"53.329965","street":{"id":1511517,"name":"On or near Durlston Drive"},"longitude":"-3.422669"},"context":"","outcome_status":{"category":"Investigation complete; no suspect identified","date":"2025-11"},"persistent_id":"b0fa12ff90bd64482d011b0ebd5544e11f3593a9f742097a0fe16e788d14db56","id":132133020,"location_subtype":"","month":"2025-11"},{"category":"criminal-damage-arson","location_type":"Force","location":{"latitude":"53.330392","street":{"id":1511812,"name":"On or near South Avenue"},"longitude":"-3.405609"},"context":"","outcome_status":{"category":"Investigation complete; no suspect identified","date":"2025-11"},"persistent_id":"3e796333be42e78246c06496ee09fb080dd59f56159600662cc2fe8acbbbc541","id":132132754,"location_subtype":"","month":"2025-11"},{"category":"criminal-damage-arson","location_type":"Force","location":{"latitude":"53.334019","street":{"id":1511823,"name":"On or near B5120"},"longitude":"-3.405293"},"context":"","outcome_status":{"category":"Investigation complete; no suspect identified","date":"2025-11"},"persistent_id":"e52044655085a3cade6ef975de0bc93a457f367fba5000eaa32fa574fb5e5529","id":132133021,"location_subtype":"","month":"2025-11"},{"category":"criminal-damage-arson","location_type":"Force","location":{"latitude":"53.336716","street":{"id":1511598,"name":"On or near Coniston Drive"},"longitude":"-3.417427"},"context":"","outcome_status":{"category":"Under investigation","date":"2025-11"},"persistent_id":"0277149c86c0972aea2b0ff2cd1bad8b468fd67744234b1f83970033cba64aac","id":132136225,"location_subtype":"","month":"2025-11"},{"category":"criminal-damage-arson","location_type":"Force","location":{"latitude":"53.332405","street":{"id":1511800,"name":"On or near North Avenue"},"longitude":"-3.406456"},"context":"","outcome_status":{"category":"Unable to prosecute suspect","date":"2025-12"},"persistent_id":"3cf3aa1ce183f4fc46576f0b25b33e2b7d896c76114a087fdbfefad5f477ca9a","id":132136742,"location_subtype":"","month":"2025-11"},{"category":"criminal-damage-arson","location_type":"Force","location":{"latitude":"53.335979","street":{"id":1511666,"name":"On or near Victoria Park Avenue"},"longitude":"-3.413633"},"context":"","outcome_status":{"category":"Investigation complete; no suspect identified","date":"2025-11"},"persistent_id":"77b27b6cb35ee1b42d030da6c6d93f831d2b6582e26c271ed0c8d6c36807289f","id":132133962,"location_subtype":"","month":"2025-11"},{"category":"criminal-damage-arson","location_type":"Force","location":{"latitude":"53.332280","street":{"id":1511875,"name":"On or near Ash Grove"},"longitude":"-3.402518"},"context":"","outcome_status":{"category":"Under investigation","date":"2025-11"},"persistent_id":"4309a323c8e1f79c037bfbc87806374ae7bab316b2c05f11eaa695ff2104c452","id":132134681,"location_subtype":"","month":"2025-11"},{"category":"criminal-damage-arson","location_type":"Force","location":{"latitude":"53.325266","street":{"id":1511486,"name":"On or near Cwrt Berllan"},"longitude":"-3.424735"},"context":"","outcome_status":{"category":"Awaiting court outcome","date":"2026-01"},"persistent_id":"5dd76e790841322204a6e65a70ec015111e24809a72b0c498ff5d2c4a7cd9c16","id":132134916,"location_subtype":"","month":"2025-11"},{"category":"criminal-damage-arson","location_type":"Force","location":{"latitude":"53.323504","street":{"id":1511480,"name":"On or near Alexandra Drive"},"longitude":"-3.422454"},"context":"","outcome_status":{"category":"Under investigation","date":"2025-11"},"persistent_id":"94e2786c4d05553bfdc8be5db85f40e6ff574a958a1ea82e4fb53ce42c123e41","id":132133019,"location_subtype":"","month":"2025-11"},{"category":"criminal-damage-arson","location_type":"Force","location":{"latitude":"53.326556","street":{"id":1511413,"name":"On or near Ffordd Maes Yr Haf"},"longitude":"-3.426640"},"context":"","outcome_status":{"category":"Unable to prosecute suspect","date":"2025-11"},"persistent_id":"5280abc2078161c29d855bde4278e828169ab72079f4add64ab70f5de2659e52","id":132133148,"location_subtype":"","month":"2025-11"},{"category":"drugs","location_type":"Force","location":{"latitude":"53.325617","street":{"id":1511520,"name":"On or near Lon Cadfan"},"longitude":"-3.422464"},"context":"","outcome_status":{"category":"Awaiting court outcome","date":"2025-11"},"persistent_id":"2504abec65d040f02cbf377b0a2266bd25e3bd3ffe31880e8e9d2a09f878d915","id":132133822,"location_subtype":"","month":"2025-11"},{"category":"other-theft","location_type":"Force","location":{"latitude":"53.337865","street":{"id":1511833,"name":"On or near Morley Road"},"longitude":"-3.404638"},"context":"","outcome_status":{"category":"Investigation complete; no suspect identified","date":"2025-11"},"persistent_id":"daf19a820efeb7f031244faa25a5961bdd60ab8431fc28c6603ffd4da39d73fe","id":132134945,"location_subtype":"","month":"2025-11"},{"category":"other-theft","location_type":"Force","location":{"latitude":"53.338624","street":{"id":1511466,"name":"On or near Llys Vyrnwy"},"longitude":"-3.422537"},"context":"","outcome_status":{"category":"Unable to prosecute suspect","date":"2025-12"},"persistent_id":"15c01b7bb1b0633cc243fb267216e5bfaad52e2a8fd636020da6eaf5739773e3","id":132134424,"location_subtype":"","month":"2025-11"},{"category":"other-theft","location_type":"Force","location":{"latitude":"53.333089","street":{"id":1511893,"name":"On or near Priory Lane"},"longitude":"-3.401043"},"context":"","outcome_status":{"category":"Under investigation","date":"2025-11"},"persistent_id":"9fe8938ace2829964f5add0fe2b4c47b7e61603fda27d419bfcedf7484c8ad85","id":132132773,"location_subtype":"","month":"2025-11"},{"category":"other-theft","location_type":"Force","location":{"latitude":"53.327486","street":{"id":1511542,"name":"On or near Ffordd Penrhwylfa"},"longitude":"-3.420965"},"context":"","outcome_status":{"category":"Investigation complete; no suspect identified","date":"2025-11"},"persistent_id":"da43e3723a658d0ad5a6c1b8e498baeaf9c55236e7623b426909eb2f45f29881","id":132134425,"location_subtype":"","month":"2025-11"},{"category":"other-theft","location_type":"Force","location":{"latitude":"53.333226","street":{"id":1511438,"name":"On or near Archers Green"},"longitude":"-3.426637"},"context":"","outcome_status":{"category":"Investigation complete; no suspect identified","date":"2025-11"},"persistent_id":"2e2b97ec63ee65494f6479568aabef35fc0e0f783b6fa49cd1af4fec4b47bd15","id":132134122,"location_subtype":"","month":"2025-11"},{"category":"other-theft","location_type":"Force","location":{"latitude":"53.333089","street":{"id":1511893,"name":"On or near Priory Lane"},"longitude":"-3.401043"},"context":"","outcome_status":{"category":"Unable to prosecute suspect","date":"2025-11"},"persistent_id":"e4a2e76eade297e81f72855c42349ff5aafe1e363b6d567f03b8b7d3d011b5d2","id":132132772,"location_subtype":"","month":"2025-11"},{"category":"other-theft","location_type":"Force","location":{"latitude":"53.334211","street":{"id":1511467,"name":"On or near Seabank Drive"},"longitude":"-3.424657"},"context":"","outcome_status":{"category":"Investigation complete; no suspect identified","date":"2026-01"},"persistent_id":"4fdb224d10f3e84dffbceca83d68142a41498e519a27dcaca4105d3edf3e0c89","id":132135807,"location_subtype":"","month":"2025-11"},{"category":"other-theft","location_type":"Force","location":{"latitude":"53.334019","street":{"id":1511823,"name":"On or near B5120"},"longitude":"-3.405293"},"context":"","outcome_status":{"category":"Investigation complete; no suspect identified","date":"2025-12"},"persistent_id":"21ae277ca74fc284c90d69b89b704b79a4da0f03f953f4fb547433b081b3e841","id":132133688,"location_subtype":"","month":"2025-11"},{"category":"other-theft","location_type":"Force","location":{"latitude":"53.333089","street":{"id":1511893,"name":"On or near Priory Lane"},"longitude":"-3.401043"},"context":"","outcome_status":{"category":"Unable to prosecute suspect","date":"2026-01"},"persistent_id":"ef76f300b3e027f1b52a99b10482401741a4e1027be68bbee1553df30829581b","id":132132899,"location_subtype":"","month":"2025-11"},{"category":"possession-of-weapons","location_type":"Force","location":{"latitude":"53.323504","street":{"id":1511480,"name":"On or near Alexandra Drive"},"longitude":"-3.422454"},"context":"","outcome_status":{"category":"Awaiting court outcome","date":"2025-12"},"persistent_id":"a20c389fde8c65cc74352b9625b3d47b57b5b82ac78b53078821987cc785b08b","id":132135383,"location_subtype":"","month":"2025-11"},{"category":"public-order","location_type":"Force","location":{"latitude":"53.333448","street":{"id":1511798,"name":"On or near Cwrt Dowell"},"longitude":"-3.406386"},"context":"","outcome_status":{"category":"Unable to prosecute suspect","date":"2025-11"},"persistent_id":"60c3207f881433d6a6bc22cf5311a4fe025795e73db7d06a45dc6d9f5be089c9","id":132134136,"location_subtype":"","month":"2025-11"},{"category":"public-order","location_type":"Force","location":{"latitude":"53.323504","street":{"id":1511480,"name":"On or near Alexandra Drive"},"longitude":"-3.422454"},"context":"","outcome_status":{"category":"Unable to prosecute suspect","date":"2025-11"},"persistent_id":"982d5f963a8f0afe84310371b25979c2df3143f91ea4e67749027471f7b94c56","id":132133697,"location_subtype":"","month":"2025-11"},{"category":"public-order","location_type":"Force","location":{"latitude":"53.336407","street":{"id":1511834,"name":"On or near Shopping Area"},"longitude":"-3.404756"},"context":"","outcome_status":{"category":"Awaiting court outcome","date":"2025-11"},"persistent_id":"0a03f70a36047cd88fbafcb050ae9c694dc5b3855b62da19fa3d6430ffd29cc4","id":132132638,"location_subtype":"","month":"2025-11"},{"category":"public-order","location_type":"Force","location":{"latitude":"53.341491","street":{"id":1511667,"name":"On or near Beach Road West"},"longitude":"-3.414221"},"context":"","outcome_status":{"category":"Unable to prosecute suspect","date":"2025-12"},"persistent_id":"47d69f6ddb63ca5f79f6e919176777d911f88caeec3f3b8d122a3d678ea25204","id":132133189,"location_subtype":"","month":"2025-11"},{"category":"public-order","location_type":"Force","location":{"latitude":"53.333239","street":{"id":1511435,"name":"On or near Ceg-y-ffordd"},"longitude":"-3.428545"},"context":"","outcome_status":{"category":"Investigation complete; no suspect identified","date":"2025-11"},"persistent_id":"bbf141e91d858ece6d9fe1448be578c6fc56d84cd7130b05122c7ffb7907064a","id":132135536,"location_subtype":"","month":"2025-11"},{"category":"public-order","location_type":"Force","location":{"latitude":"53.336720","street":{"id":1511808,"name":"On or near Parking Area"},"longitude":"-3.406418"},"context":"","outcome_status":{"category":"Unable to prosecute suspect","date":"2025-11"},"persistent_id":"b1662990e15e07bd31468b7c4d263404ca88b7428fa76efd6d87f35a8e856a99","id":132133370,"location_subtype":"","month":"2025-11"},{"category":"public-order","location_type":"Force","location":{"latitude":"53.335852","street":{"id":1511458,"name":"On or near Rhodfa Cowlyd"},"longitude":"-3.426514"},"context":"","outcome_status":{"category":"Investigation complete; no suspect identified","date":"2025-12"},"persistent_id":"c16c1453d3a2888acfc276e260de764cca037f500bd29c47c591d215824343b2","id":132135235,"location_subtype":"","month":"2025-11"},{"category":"public-order","location_type":"Force","location":{"latitude":"53.333239","street":{"id":1511435,"name":"On or near Ceg-y-ffordd"},"longitude":"-3.428545"},"context":"","outcome_status":{"category":"Unable to prosecute suspect","date":"2025-11"},"persistent_id":"30e97ce26b690bf9a8b7d92f49a05a2fbfb1fd50f20bf4fed41c9a41840a99da","id":132135535,"location_subtype":"","month":"2025-11"},{"category":"public-order","location_type":"Force","location":{"latitude":"53.323504","street":{"id":1511480,"name":"On or near Alexandra Drive"},"longitude":"-3.422454"},"context":"","outcome_status":{"category":"Under investigation","date":"2025-11"},"persistent_id":"30f69ddb4803d36bc8986e1c52de4a428d69a68b704eeeaeefb17eb649b96291","id":132133047,"location_subtype":"","month":"2025-11"},{"category":"public-order","location_type":"Force","location":{"latitude":"53.331423","street":{"id":1511898,"name":"On or near Cassandra Court"},"longitude":"-3.401258"},"context":"","outcome_status":{"category":"Investigation complete; no suspect identified","date":"2025-11"},"persistent_id":"91c629960d0b5e896e00b572b74399e5910b592861dc26642fa6b21af3925b44","id":132134827,"location_subtype":"","month":"2025-11"},{"category":"public-order","location_type":"Force","location":{"latitude":"53.335923","street":{"id":1511855,"name":"On or near Shopping Area"},"longitude":"-3.402774"},"context":"","outcome_status":{"category":"Investigation complete; no suspect identified","date":"2025-11"},"persistent_id":"3a9b4aa5fd783d8a4fa4bad713ff26b78e43d3d5f40595a1649e9545b7f8dbe6","id":132132639,"location_subtype":"","month":"2025-11"},{"category":"robbery","location_type":"Force","location":{"latitude":"53.335923","street":{"id":1511855,"name":"On or near Shopping Area"},"longitude":"-3.402774"},"context":"","outcome_status":{"category":"Awaiting court outcome","date":"2025-12"},"persistent_id":"a5b1325f51c213418dff1bbebe53658447ae0ca6511f89c8dae5f5a03eb9ef79","id":132136534,"location_subtype":"","month":"2025-11"},{"category":"shoplifting","location_type":"Force","location":{"latitude":"53.335923","street":{"id":1511855,"name":"On or near Shopping Area"},"longitude":"-3.402774"},"context":"","outcome_status":{"category":"Investigation complete; no suspect identified","date":"2025-12"},"persistent_id":"78d3f6e29d925ca723d6b05c4cf8998dd18d48bf0980d826f344abe89d299168","id":132136774,"location_subtype":"","month":"2025-11"},{"category":"shoplifting","location_type":"Force","location":{"latitude":"53.336407","street":{"id":1511834,"name":"On or near Shopping Area"},"longitude":"-3.404756"},"context":"","outcome_status":{"category":"Awaiting court outcome","date":"2025-11"},"persistent_id":"296ba7787b2a1d87b95b0fada0f1c6268818811f4c9acef4729d9741b2a035c4","id":132132656,"location_subtype":"","month":"2025-11"},{"category":"shoplifting","location_type":"Force","location":{"latitude":"53.331423","street":{"id":1511898,"name":"On or near Cassandra Court"},"longitude":"-3.401258"},"context":"","outcome_status":{"category":"Under investigation","date":"2025-11"},"persistent_id":"fbeeaaeb653dc0acdcc76b9399aa2ea9f390f77e0b8b682d3ce084b1578fec8e","id":132136775,"location_subtype":"","month":"2025-11"},{"category":"shoplifting","location_type":"Force","location":{"latitude":"53.336047","street":{"id":1511773,"name":"On or near Bridge Road"},"longitude":"-3.407868"},"context":"","outcome_status":{"category":"Investigation complete; no suspect identified","date":"2025-11"},"persistent_id":"e5e1cfa7237e51775e5e8477f28f88f11cf4324b6d5e799edfcb3c954595d675","id":132133718,"location_subtype":"","month":"2025-11"},{"category":"shoplifting","location_type":"Force","location":{"latitude":"53.329287","street":{"id":1511791,"name":"On or near Maes Tegid"},"longitude":"-3.406309"},"context":"","outcome_status":{"category":"Unable to prosecute suspect","date":"2025-11"},"persistent_id":"c987c342811385230ab57c30db14332adab46b1688b6f795ba350bfb5ea15494","id":132132654,"location_subtype":"","month":"2025-11"},{"category":"shoplifting","location_type":"Force","location":{"latitude":"53.336047","street":{"id":1511773,"name":"On or near Bridge Road"},"longitude":"-3.407868"},"context":"","outcome_status":{"category":"Investigation complete; no suspect identified","date":"2026-01"},"persistent_id":"fa0ad2d51500857c9bd1f499c698135f884e5dd6ac1a82f8f3d8eb3fbbcd9398","id":132136264,"location_subtype":"","month":"2025-11"},{"category":"shoplifting","location_type":"Force","location":{"latitude":"53.335334","street":{"id":1511881,"name":"On or near Parking Area"},"longitude":"-3.402768"},"context":"","outcome_status":{"category":"Awaiting court outcome","date":"2026-01"},"persistent_id":"57039b89851e0d024ddf872ce084e9ca0f7b2160cffe899750dc2ce7f3723b43","id":132133385,"location_subtype":"","month":"2025-11"},{"category":"shoplifting","location_type":"Force","location":{"latitude":"53.336407","street":{"id":1511834,"name":"On or near Shopping Area"},"longitude":"-3.404756"},"context":"","outcome_status":{"category":"Investigation complete; no suspect identified","date":"2025-12"},"persistent_id":"f66aa1635803c02592ddf197849c1608dd1fe5e6121a5311153a995e9cb5ff7b","id":132136266,"location_subtype":"","month":"2025-11"},{"category":"shoplifting","location_type":"Force","location":{"latitude":"53.336047","street":{"id":1511773,"name":"On or near Bridge Road"},"longitude":"-3.407868"},"context":"","outcome_status":{"category":"Investigation complete; no suspect identified","date":"2026-01"},"persistent_id":"43ea18b31143f9b41257ea9a7c260eb10f2a975381ef0125a4360f3f870e4e5d","id":132136265,"location_subtype":"","month":"2025-11"},{"category":"shoplifting","location_type":"Force","location":{"latitude":"53.334925","street":{"id":1511828,"name":"On or near Lon Alwen"},"longitude":"-3.404632"},"context":"","outcome_status":{"category":"Under investigation","date":"2025-11"},"persistent_id":"b03396ddf25ce5605dbdfb4467be751ae59a32855a2f5314381124ab26952418","id":132136384,"location_subtype":"","month":"2025-11"},{"category":"shoplifting","location_type":"Force","location":{"latitude":"53.335334","street":{"id":1511881,"name":"On or near Parking Area"},"longitude":"-3.402768"},"context":"","outcome_status":{"category":"Investigation complete; no suspect identified","date":"2025-12"},"persistent_id":"59fd65b328a3a4241e89e93de59889e3f9851c72debadf5b8976dfc97ab1b7d7","id":132136130,"location_subtype":"","month":"2025-11"},{"category":"shoplifting","location_type":"Force","location":{"latitude":"53.336047","street":{"id":1511773,"name":"On or near Bridge Road"},"longitude":"-3.407868"},"context":"","outcome_status":{"category":"Investigation complete; no suspect identified","date":"2025-12"},"persistent_id":"cef846e640d20405898c395e2071e8dfab4a91d4c98d260520aa60cb98ff22ef","id":132136125,"location_subtype":"","month":"2025-11"},{"category":"shoplifting","location_type":"Force","location":{"latitude":"53.335334","street":{"id":1511881,"name":"On or near Parking Area"},"longitude":"-3.402768"},"context":"","outcome_status":{"category":"Investigation complete; no suspect identified","date":"2025-12"},"persistent_id":"39e84c6fa26772c9f67c57cb0e3022fed1a7c6cd1650038e693bfed1c6b85a2b","id":132136128,"location_subtype":"","month":"2025-11"},{"category":"shoplifting","location_type":"Force","location":{"latitude":"53.335334","street":{"id":1511881,"name":"On or near Parking Area"},"longitude":"-3.402768"},"context":"","outcome_status":{"category":"Investigation complete; no suspect identified","date":"2025-12"},"persistent_id":"74c5384655c0e6e5eaf7b54d5d39e2c1d1a4570c444b829d565749e6ca85c2fd","id":132136127,"location_subtype":"","month":"2025-11"},{"category":"shoplifting","location_type":"Force","location":{"latitude":"53.335334","street":{"id":1511881,"name":"On or near Parking Area"},"longitude":"-3.402768"},"context":"","outcome_status":{"category":"Investigation complete; no suspect identified","date":"2025-12"},"persistent_id":"9025999a1cc5236448012a5c621308881abe99a76e52c6441ee8fd575ebcbdf3","id":132136129,"location_subtype":"","month":"2025-11"},{"category":"shoplifting","location_type":"Force","location":{"latitude":"53.336047","street":{"id":1511773,"name":"On or near Bridge Road"},"longitude":"-3.407868"},"context":"","outcome_status":{"category":"Investigation complete; no suspect identified","date":"2025-12"},"persistent_id":"f61377e3a733b02039f7137a68f421241dc7513a4b49020bdad605ccea08d8da","id":132136123,"location_subtype":"","month":"2025-11"},{"category":"shoplifting","location_type":"Force","location":{"latitude":"53.336047","street":{"id":1511773,"name":"On or near Bridge Road"},"longitude":"-3.407868"},"context":"","outcome_status":{"category":"Investigation complete; no suspect identified","date":"2025-12"},"persistent_id":"cf5562fff5d04a0ca093536893ee1611bd5035f9c6047ac57cf5e22e5b6be86d","id":132136126,"location_subtype":"","month":"2025-11"},{"category":"shoplifting","location_type":"Force","location":{"latitude":"53.335334","street":{"id":1511881,"name":"On or near Parking Area"},"longitude":"-3.402768"},"context":"","outcome_status":{"category":"Investigation complete; no suspect identified","date":"2025-11"},"persistent_id":"3045bcd440c9386a95882b8d0786c2374a2c7af31975ee171ac3997044282feb","id":132135967,"location_subtype":"","month":"2025-11"},{"category":"shoplifting","location_type":"Force","location":{"latitude":"53.336407","street":{"id":1511834,"name":"On or near Shopping Area"},"longitude":"-3.404756"},"context":"","outcome_status":{"category":"Awaiting court outcome","date":"2025-12"},"persistent_id":"3fc223d917ec1d96156b24c829d5e6fb1f79567cbf876823e7715801e38d2cd7","id":132135251,"location_subtype":"","month":"2025-11"},{"category":"shoplifting","location_type":"Force","location":{"latitude":"53.334019","street":{"id":1511823,"name":"On or near B5120"},"longitude":"-3.405293"},"context":"","outcome_status":{"category":"Investigation complete; no suspect identified","date":"2025-11"},"persistent_id":"55d85ef1f54ae5721ed5bb21cd7dcc0d674b3f47db40d71ea32eab69242a5269","id":132132655,"location_subtype":"","month":"2025-11"},{"category":"shoplifting","location_type":"Force","location":{"latitude":"53.335334","street":{"id":1511881,"name":"On or near Parking Area"},"longitude":"-3.402768"},"context":"","outcome_status":{"category":"Investigation complete; no suspect identified","date":"2025-12"},"persistent_id":"4bbb5f175a27448bea9844c546b9b983dc23188769c51e1f85075d41a374c908","id":132136131,"location_subtype":"","month":"2025-11"},{"category":"shoplifting","location_type":"Force","location":{"latitude":"53.336047","street":{"id":1511773,"name":"On or near Bridge Road"},"longitude":"-3.407868"},"context":"","outcome_status":{"category":"Investigation complete; no suspect identified","date":"2025-12"},"persistent_id":"076df3061c0d0adff7609f05d0fddec0cbef82d1f4cb4f1ed18cfddd731300b1","id":132136124,"location_subtype":"","month":"2025-11"},{"category":"shoplifting","location_type":"Force","location":{"latitude":"53.336407","street":{"id":1511834,"name":"On or near Shopping Area"},"longitude":"-3.404756"},"context":"","outcome_status":{"category":"Investigation complete; no suspect identified","date":"2025-11"},"persistent_id":"343db41794379a8fe68be8026e8c2161d4d0fdc63c8467ca304ce9018e75b684","id":132132795,"location_subtype":"","month":"2025-11"},{"category":"shoplifting","location_type":"Force","location":{"latitude":"53.334019","street":{"id":1511823,"name":"On or near B5120"},"longitude":"-3.405293"},"context":"","outcome_status":{"category":"Awaiting court outcome","date":"2025-12"},"persistent_id":"ca8859c53f5f0bff1eeb711cc657c6b40df687be2fc9f72096de2818eea26076","id":132132653,"location_subtype":"","month":"2025-11"},{"category":"shoplifting","location_type":"Force","location":{"latitude":"53.336047","street":{"id":1511773,"name":"On or near Bridge Road"},"longitude":"-3.407868"},"context":"","outcome_status":{"category":"Investigation complete; no suspect identified","date":"2026-01"},"persistent_id":"a5cac1999ff4f74d45806c3b31e73847a48b41ae6b324b885f8f679b78522638","id":132135966,"location_subtype":"","month":"2025-11"},{"category":"vehicle-crime","location_type":"Force","location":{"latitude":"53.337610","street":{"id":1511814,"name":"On or near Station Road"},"longitude":"-3.405666"},"context":"","outcome_status":{"category":"Investigation complete; no suspect identified","date":"2025-11"},"persistent_id":"1afec2a3bfd04ae71feabec1304a5be9fbc4e327a1f63c7207d7007fa5596484","id":132135688,"location_subtype":"","month":"2025-11"},{"category":"vehicle-crime","location_type":"Force","location":{"latitude":"53.336596","street":{"id":1511897,"name":"On or near Parc Cemlyn"},"longitude":"-3.400947"},"context":"","outcome_status":{"category":"Investigation complete; no suspect identified","date":"2025-12"},"persistent_id":"5fe40fb93dfc383e4be2e3e9c5f147e0d7377fad786db4e61770a37a7655dfc2","id":132136546,"location_subtype":"","month":"2025-11"},{"category":"vehicle-crime","location_type":"Force","location":{"latitude":"53.334019","street":{"id":1511823,"name":"On or near B5120"},"longitude":"-3.405293"},"context":"","outcome_status":{"category":"Investigation complete; no suspect identified","date":"2025-12"},"persistent_id":"be9df0ce24741ea5c4513efa6cffcdd6828a2984f841b6c47f6c1725dd77651e","id":132135689,"location_subtype":"","month":"2025-11"},{"category":"vehicle-crime","location_type":"Force","location":{"latitude":"53.328571","street":{"id":1511508,"name":"On or near Sports/recreation Area"},"longitude":"-3.422625"},"context":"","outcome_status":{"category":"Investigation complete; no suspect identified","date":"2025-11"},"persistent_id":"b5cfb838a6031330a566f6f321518cb8a7fbecb6378586d71d134d3a4e4602ba","id":132135984,"location_subtype":"","month":"2025-11"},{"category":"vehicle-crime","location_type":"Force","location":{"latitude":"53.335904","street":{"id":1511819,"name":"On or near Petrol Station"},"longitude":"-3.405490"},"context":"","outcome_status":{"category":"Investigation complete; no suspect identified","date":"2025-11"},"persistent_id":"a43e49e3d5fdca40a2969c6ffc7592b3b4d0a3f7e9edec80fa9de0d998ac0eae","id":132133569,"location_subtype":"","month":"2025-11"},{"category":"violent-crime","location_type":"Force","location":{"latitude":"53.325617","street":{"id":1511520,"name":"On or near Lon Cadfan"},"longitude":"-3.422464"},"context":"","outcome_status":{"category":"Unable to prosecute suspect","date":"2025-11"},"persistent_id":"40d51b6b3903ea5f565519f356685bccb6abbbd4ffdcaa90e540964533cafd5d","id":132133770,"location_subtype":"","month":"2025-11"},{"category":"violent-crime","location_type":"Force","location":{"latitude":"53.334999","street":{"id":1511944,"name":"On or near Mostyn Avenue"},"longitude":"-3.396840"},"context":"","outcome_status":{"category":"Investigation complete; no suspect identified","date":"2025-11"},"persistent_id":"6891dc727d5509186a4cfa586fe521a45dc68f4250bca9267b93df2e5af9702e","id":132134200,"location_subtype":"","month":"2025-11"},{"category":"violent-crime","location_type":"Force","location":{"latitude":"53.325617","street":{"id":1511520,"name":"On or near Lon Cadfan"},"longitude":"-3.422464"},"context":"","outcome_status":{"category":"Awaiting court outcome","date":"2026-01"},"persistent_id":"5d1002ac5d2c2d4b4c945c1b1aa0f29dfb2f9bcbd1b9a48354897ba12e949cbe","id":132133771,"location_subtype":"","month":"2025-11"},{"category":"violent-crime","location_type":"Force","location":{"latitude":"53.336720","street":{"id":1511808,"name":"On or near Parking Area"},"longitude":"-3.406418"},"context":"","outcome_status":{"category":"Investigation complete; no suspect identified","date":"2025-11"},"persistent_id":"527b287f7895bb4b1e79f1d903bbc013c379af05fbbb7c84a5c82b5125617d7b","id":132132981,"location_subtype":"","month":"2025-11"},{"category":"violent-crime","location_type":"Force","location":{"latitude":"53.335612","street":{"id":1511602,"name":"On or near Ffordd Ffrith"},"longitude":"-3.418742"},"context":"","outcome_status":{"category":"Unable to prosecute suspect","date":"2026-01"},"persistent_id":"e5b408e86d855733837411091b44a9a8a18b0d08b92b903b5676f4277a0c60ae","id":132132836,"location_subtype":"","month":"2025-11"},{"category":"violent-crime","location_type":"Force","location":{"latitude":"53.331404","street":{"id":1511787,"name":"On or near Central Avenue"},"longitude":"-3.407445"},"context":"","outcome_status":{"category":"Action to be taken by another organisation","date":"2025-11"},"persistent_id":"b350f26ea595a2a401e4ef9d00af35dd07f54d100aa6531da94ebfde1f5ef6fd","id":132133109,"location_subtype":"","month":"2025-11"},{"category":"violent-crime","location_type":"Force","location":{"latitude":"53.330392","street":{"id":1511812,"name":"On or near South Avenue"},"longitude":"-3.405609"},"context":"","outcome_status":{"category":"Under investigation","date":"2025-11"},"persistent_id":"f84ddbaf9e109ba472e0cc34ce2a00fd416399e08f026ec9755b82358728985f","id":132133454,"location_subtype":"","month":"2025-11"},{"category":"violent-crime","location_type":"Force","location":{"latitude":"53.337865","street":{"id":1511833,"name":"On or near Morley Road"},"longitude":"-3.404638"},"context":"","outcome_status":{"category":"Unable to prosecute suspect","date":"2025-12"},"persistent_id":"8f940933710d28b31436632f94c82d440a69fe0019ff35ca19f6f978ca49689d","id":132134364,"location_subtype":"","month":"2025-11"},{"category":"violent-crime","location_type":"Force","location":{"latitude":"53.327146","street":{"id":1511470,"name":"On or near Tan Y Coed"},"longitude":"-3.425398"},"context":"","outcome_status":{"category":"Unable to prosecute suspect","date":"2025-11"},"persistent_id":"3bed259d3beec5b6ef347370826ab9c872b05f19d5d2818f326aa37828989d83","id":132134636,"location_subtype":"","month":"2025-11"},{"category":"violent-crime","location_type":"Force","location":{"latitude":"53.327146","street":{"id":1511470,"name":"On or near Tan Y Coed"},"longitude":"-3.425398"},"context":"","outcome_status":{"category":"Unable to prosecute suspect","date":"2025-12"},"persistent_id":"14f37a3120009f51f8b2b311d6a4b1e2cd55d860988a580b81557748f51d8122","id":132136184,"location_subtype":"","month":"2025-11"},{"category":"violent-crime","location_type":"Force","location":{"latitude":"53.336047","street":{"id":1511773,"name":"On or near Bridge Road"},"longitude":"-3.407868"},"context":"","outcome_status":{"category":"Unable to prosecute suspect","date":"2026-01"},"persistent_id":"ba64e8daa733bd7141320e577b28f8a9fb74521e9877df2732ba89a253631ce4","id":132135455,"location_subtype":"","month":"2025-11"},{"category":"violent-crime","location_type":"Force","location":{"latitude":"53.326556","street":{"id":1511413,"name":"On or near Ffordd Maes Yr Haf"},"longitude":"-3.426640"},"context":"","outcome_status":{"category":"Unable to prosecute suspect","date":"2025-12"},"persistent_id":"709b9b73e4ff52a6545d11153b6dc32500c5fda490ff0a7eb874cc448fda4ee1","id":132136591,"location_subtype":"","month":"2025-11"},{"category":"violent-crime","location_type":"Force","location":{"latitude":"53.335923","street":{"id":1511855,"name":"On or near Shopping Area"},"longitude":"-3.402774"},"context":"","outcome_status":{"category":"Investigation complete; no suspect identified","date":"2025-11"},"persistent_id":"27ed11594b344224a9c4279ae1c5fffbb30ec0cbed9e24a9160d7e9b46e839ee","id":132136185,"location_subtype":"","month":"2025-11"},{"category":"violent-crime","location_type":"Force","location":{"latitude":"53.333226","street":{"id":1511438,"name":"On or near Archers Green"},"longitude":"-3.426637"},"context":"","outcome_status":{"category":"Under investigation","date":"2025-11"},"persistent_id":"088b2b976b859607f8e4a9568850635f7caa0a4f2fd4585e79892815934217d9","id":132136705,"location_subtype":"","month":"2025-11"},{"category":"violent-crime","location_type":"Force","location":{"latitude":"53.335923","street":{"id":1511855,"name":"On or near Shopping Area"},"longitude":"-3.402774"},"context":"","outcome_status":{"category":"Unable to prosecute suspect","date":"2025-12"},"persistent_id":"c3b5fb377c84c6419e714bb9208d4ed20fc57669f8be238880c0a58382675622","id":132134867,"location_subtype":"","month":"2025-11"},{"category":"violent-crime","location_type":"Force","location":{"latitude":"53.336720","street":{"id":1511808,"name":"On or near Parking Area"},"longitude":"-3.406418"},"context":"","outcome_status":{"category":"Under investigation","date":"2025-11"},"persistent_id":"2ea26ade2f7e3a02b25478973a6faebf2a4dbe4585a877b3c3ca0224fabfc991","id":132134768,"location_subtype":"","month":"2025-11"},{"category":"violent-crime","location_type":"Force","location":{"latitude":"53.316934","street":{"id":1511740,"name":"On or near Ffordd Bryn Melyd"},"longitude":"-3.409475"},"context":"","outcome_status":{"category":"Unable to prosecute suspect","date":"2025-12"},"persistent_id":"ffbe2b272b695cd743b969e1535f22a2103b6b75ae6563dc781c17f733017345","id":132134767,"location_subtype":"","month":"2025-11"},{"category":"violent-crime","location_type":"Force","location":{"latitude":"53.333226","street":{"id":1511438,"name":"On or near Archers Green"},"longitude":"-3.426637"},"context":"","outcome_status":{"category":"Unable to prosecute suspect","date":"2025-11"},"persistent_id":"48eadc0184cdc766ec0fc8022007be1a69b3b22c2ecf295aef2bb57f298a4fec","id":132135148,"location_subtype":"","month":"2025-11"},{"category":"violent-crime","location_type":"Force","location":{"latitude":"53.339005","street":{"id":1511718,"name":"On or near Glan Mor"},"longitude":"-3.411645"},"context":"","outcome_status":{"category":"Unable to prosecute suspect","date":"2025-12"},"persistent_id":"4e2543daf194127ca5c8ff1aaf0bac5e426db358fa3c8d0d7e6f16d31984d543","id":132135016,"location_subtype":"","month":"2025-11"},{"category":"violent-crime","location_type":"Force","location":{"latitude":"53.331137","street":{"id":1511836,"name":"On or near Sycamore Crescent"},"longitude":"-3.404222"},"context":"","outcome_status":{"category":"Investigation complete; no suspect identified","date":"2025-12"},"persistent_id":"af7a7789318eb2f49eee87ee56d53858b01c5dec4c0acc7f6a826b6ce8bdffa0","id":132135018,"location_subtype":"","month":"2025-11"},{"category":"violent-crime","location_type":"Force","location":{"latitude":"53.335904","street":{"id":1511819,"name":"On or near Petrol Station"},"longitude":"-3.405490"},"context":"","outcome_status":{"category":"Unable to prosecute suspect","date":"2025-11"},"persistent_id":"0293c6760ad340cec03c6b926ba71230fdd1e041fc0af04443e122c65ec95ee1","id":132134059,"location_subtype":"","month":"2025-11"},{"category":"violent-crime","location_type":"Force","location":{"latitude":"53.334511","street":{"id":1511949,"name":"On or near Gronant Road"},"longitude":"-3.395532"},"context":"","outcome_status":{"category":"Investigation complete; no suspect identified","date":"2025-12"},"persistent_id":"79f3b34498480881bde4fec98e5c05bfbde642650f9949225963ee43b3b56751","id":132134061,"location_subtype":"","month":"2025-11"},{"category":"violent-crime","location_type":"Force","location":{"latitude":"53.323504","street":{"id":1511480,"name":"On or near Alexandra Drive"},"longitude":"-3.422454"},"context":"","outcome_status":{"category":"Unable to prosecute suspect","date":"2025-11"},"persistent_id":"dd5d636e4837a781d0cdae10e161c997f61aa73af8268baec5063eebb2761d74","id":132134055,"location_subtype":"","month":"2025-11"},{"category":"violent-crime","location_type":"Force","location":{"latitude":"53.331468","street":{"id":1511731,"name":"On or near Nursery Close"},"longitude":"-3.408873"},"context":"","outcome_status":{"category":"Unable to prosecute suspect","date":"2025-11"},"persistent_id":"ef30aa3e8eee894dfb63b9febaaf41ccb6086327d31b23524576c56ce66ab4ed","id":132133624,"location_subtype":"","month":"2025-11"},{"category":"violent-crime","location_type":"Force","location":{"latitude":"53.337183","street":{"id":1511892,"name":"On or near Maes Glas"},"longitude":"-3.400681"},"context":"","outcome_status":{"category":"Unable to prosecute suspect","date":"2025-12"},"persistent_id":"206b6ff4542dbdd5db3669924ce5b6df4e8f9dfe3b484ce2b29febdffefb8043","id":132134365,"location_subtype":"","month":"2025-11"},{"category":"violent-crime","location_type":"Force","location":{"latitude":"53.323504","street":{"id":1511480,"name":"On or near Alexandra Drive"},"longitude":"-3.422454"},"context":"","outcome_status":{"category":"Under investigation","date":"2025-11"},"persistent_id":"f815fcad95ed11116a1e4badba3105aff004081b6e2dd26d94f9fd57da1973c7","id":132133918,"location_subtype":"","month":"2025-11"},{"category":"violent-crime","location_type":"Force","location":{"latitude":"53.335407","street":{"id":1511502,"name":"On or near Glandwr"},"longitude":"-3.423165"},"context":"","outcome_status":{"category":"Action to be taken by another organisation","date":"2025-11"},"persistent_id":"9863e6180547b7380e8e30b8c660f182b706897a2a7051fd57878c424eb0f0c2","id":132133621,"location_subtype":"","month":"2025-11"},{"category":"violent-crime","location_type":"Force","location":{"latitude":"53.326556","street":{"id":1511413,"name":"On or near Ffordd Maes Yr Haf"},"longitude":"-3.426640"},"context":"","outcome_status":{"category":"Unable to prosecute suspect","date":"2025-11"},"persistent_id":"76cabce4b680008f93f33abc332df6ed250ed9e8af6d2366f3e6e97cac0bc193","id":132133767,"location_subtype":"","month":"2025-11"},{"category":"violent-crime","location_type":"Force","location":{"latitude":"53.333219","street":{"id":1511785,"name":"On or near Conwy Grove"},"longitude":"-3.407504"},"context":"","outcome_status":{"category":"Investigation complete; no suspect identified","date":"2025-11"},"persistent_id":"edaad00cf47912c70265515ab76a31140ee8ecb57b8fcd313a4f51626cb3a48d","id":132133260,"location_subtype":"","month":"2025-11"},{"category":"violent-crime","location_type":"Force","location":{"latitude":"53.332534","street":{"id":1511853,"name":"On or near Maes-y-groes"},"longitude":"-3.403908"},"context":"","outcome_status":{"category":"Investigation complete; no suspect identified","date":"2025-12"},"persistent_id":"54df3db8e10ae3f4897cdbfeddbd7be9426e07c9a527e2b4ce2f9f88c6d7b3ec","id":132132838,"location_subtype":"","month":"2025-11"},{"category":"violent-crime","location_type":"Force","location":{"latitude":"53.337865","street":{"id":1511833,"name":"On or near Morley Road"},"longitude":"-3.404638"},"context":"","outcome_status":{"category":"Under investigation","date":"2025-11"},"persistent_id":"be8f94b64acd0f25ac490a711da36299a67635b0eb8c84be92087c67b02b51a1","id":132132837,"location_subtype":"","month":"2025-11"},{"category":"violent-crime","location_type":"Force","location":{"latitude":"53.335904","street":{"id":1511819,"name":"On or near Petrol Station"},"longitude":"-3.405490"},"context":"","outcome_status":{"category":"Unable to prosecute suspect","date":"2025-11"},"persistent_id":"e091ba266842e3724360b2b0f85ec2621960a6c9f422eafba339ee21e3bdd248","id":132135597,"location_subtype":"","month":"2025-11"},{"category":"violent-crime","location_type":"Force","location":{"latitude":"53.332534","street":{"id":1511853,"name":"On or near Maes-y-groes"},"longitude":"-3.403908"},"context":"","outcome_status":{"category":"Unable to prosecute suspect","date":"2025-11"},"persistent_id":"a668f1437dbfda684b473ed837edbbd41555ed5927e475e3712f0486153a9976","id":132135598,"location_subtype":"","month":"2025-11"},{"category":"violent-crime","location_type":"Force","location":{"latitude":"53.336724","street":{"id":1511331,"name":"On or near Rhodfa Padarn"},"longitude":"-3.428045"},"context":"","outcome_status":{"category":"Unable to prosecute suspect","date":"2025-11"},"persistent_id":"be50287f57dac8b8417a0fde1c9260e317771785f19f5f00db4bf561e95c533f","id":132132714,"location_subtype":"","month":"2025-11"},{"category":"violent-crime","location_type":"Force","location":{"latitude":"53.336724","street":{"id":1511331,"name":"On or near Rhodfa Padarn"},"longitude":"-3.428045"},"context":"","outcome_status":{"category":"Unable to prosecute suspect","date":"2025-11"},"persistent_id":"dabc73c67e7ba1cbebdb09b7e00fc69a8bc5a14ac3521961bf5b585c108149ea","id":132132715,"location_subtype":"","month":"2025-11"},{"category":"violent-crime","location_type":"Force","location":{"latitude":"53.329287","street":{"id":1511791,"name":"On or near Maes Tegid"},"longitude":"-3.406309"},"context":"","outcome_status":{"category":"Unable to prosecute suspect","date":"2025-11"},"persistent_id":"0a8a2b2fbd682dac44d5406f43f1140ceb13b28dd279e8a96eb7d4b79d8369c3","id":132132719,"location_subtype":"","month":"2025-11"},{"category":"violent-crime","location_type":"Force","location":{"latitude":"53.340460","street":{"id":1511631,"name":"On or near Third Avenue"},"longitude":"-3.416274"},"context":"","outcome_status":{"category":"Investigation complete; no suspect identified","date":"2025-11"},"persistent_id":"78ec3b6c704406d87bf4c99e1a2c5ddb4c78e17e9fa4f7b2e59d0c4f0f5a5986","id":132134765,"location_subtype":"","month":"2025-11"},{"category":"violent-crime","location_type":"Force","location":{"latitude":"53.337896","street":{"id":1511750,"name":"On or near White Rose Close"},"longitude":"-3.408830"},"context":"","outcome_status":{"category":"Unable to prosecute suspect","date":"2025-11"},"persistent_id":"80d30db850eacd15bdc441c792987b4d25b328af7669b7b46e1ad7c5fc1a9215","id":132135596,"location_subtype":"","month":"2025-11"},{"category":"violent-crime","location_type":"Force","location":{"latitude":"53.337610","street":{"id":1511814,"name":"On or near Station Road"},"longitude":"-3.405666"},"context":"","outcome_status":{"category":"Investigation complete; no suspect identified","date":"2025-11"},"persistent_id":"87894703341abdd55ca69b8ff1a0d668795693e8b20f48305085763393f6b1d9","id":132135745,"location_subtype":"","month":"2025-11"},{"category":"violent-crime","location_type":"Force","location":{"latitude":"53.329287","street":{"id":1511791,"name":"On or near Maes Tegid"},"longitude":"-3.406309"},"context":"","outcome_status":{"category":"Unable to prosecute suspect","date":"2025-11"},"persistent_id":"c09c3eb88a96348d4ae9fdbf56d27d81d3b456ebff332d4c20180ab3d32d7940","id":132132720,"location_subtype":"","month":"2025-11"},{"category":"violent-crime","location_type":"Force","location":{"latitude":"53.336910","street":{"id":1511759,"name":"On or near Gorphwysfa Avenue"},"longitude":"-3.409353"},"context":"","outcome_status":{"category":"Unable to prosecute suspect","date":"2025-11"},"persistent_id":"beaf3e7fd0d074d1600e071cc4ef126cf7612af4a6287c8edd5a40487e44bfc6","id":132136308,"location_subtype":"","month":"2025-11"},{"category":"violent-crime","location_type":"Force","location":{"latitude":"53.327535","street":{"id":1511770,"name":"On or near Davids Close"},"longitude":"-3.407753"},"context":"","outcome_status":{"category":"Action to be taken by another organisation","date":"2025-11"},"persistent_id":"0efcdeb33e1f54b691f9af5a878c5a21ee2d4cf196cdd38828afef338ebcbea1","id":132133453,"location_subtype":"","month":"2025-11"},{"category":"violent-crime","location_type":"Force","location":{"latitude":"53.335759","street":{"id":1511445,"name":"On or near Rhodfa Peris"},"longitude":"-3.427563"},"context":"","outcome_status":{"category":"Action to be taken by another organisation","date":"2025-11"},"persistent_id":"96b598cba1c7c3818e526e80c374a120051d9910311135af0c69412ce9c70d72","id":132133618,"location_subtype":"","month":"2025-11"},{"category":"violent-crime","location_type":"Force","location":{"latitude":"53.339005","street":{"id":1511718,"name":"On or near Glan Mor"},"longitude":"-3.411645"},"context":"","outcome_status":{"category":"Unable to prosecute suspect","date":"2025-11"},"persistent_id":"6a84783cabded862e99a57979f86d862c8cb6ad01816d07a67de8623fb99e6af","id":132133623,"location_subtype":"","month":"2025-11"},{"category":"violent-crime","location_type":"Force","location":{"latitude":"53.336720","street":{"id":1511808,"name":"On or near Parking Area"},"longitude":"-3.406418"},"context":"","outcome_status":{"category":"Unable to prosecute suspect","date":"2025-11"},"persistent_id":"295f8b2542faa3c15f70a6475fd145ea94e08b76974dc5a1d48ca047b0f4262b","id":132135744,"location_subtype":"","month":"2025-11"},{"category":"violent-crime","location_type":"Force","location":{"latitude":"53.335661","street":{"id":1511646,"name":"On or near Chapel Road"},"longitude":"-3.416145"},"context":"","outcome_status":{"category":"Unable to prosecute suspect","date":"2025-11"},"persistent_id":"fe356e2f7719e20e1052bfaa7d9102b2476b95f71e051a73f0eea4f382b31af7","id":132132979,"location_subtype":"","month":"2025-11"},{"category":"violent-crime","location_type":"Force","location":{"latitude":"53.330392","street":{"id":1511812,"name":"On or near South Avenue"},"longitude":"-3.405609"},"context":"","outcome_status":{"category":"Unable to prosecute suspect","date":"2025-11"},"persistent_id":"b36458c825b250731a7a7b7abb6fb1e44a2c900b4bbbc567e73030d32d590c3d","id":132133772,"location_subtype":"","month":"2025-11"},{"category":"violent-crime","location_type":"Force","location":{"latitude":"53.332875","street":{"id":1511817,"name":"On or near Victoria Avenue"},"longitude":"-3.404715"},"context":"","outcome_status":{"category":"Unable to prosecute suspect","date":"2025-11"},"persistent_id":"b42f9c51fc9f823e5d458893f2a9f595e9f568d095bc6245573652a66105621d","id":132134060,"location_subtype":"","month":"2025-11"},{"category":"violent-crime","location_type":"Force","location":{"latitude":"53.336600","street":{"id":1511599,"name":"On or near Grasmere Close"},"longitude":"-3.418084"},"context":"","outcome_status":{"category":"Investigation complete; no suspect identified","date":"2025-11"},"persistent_id":"06fa4ac2523d27777ed258e24e1adaa800ff4c8407fba23d2c92c65165bc0bbe","id":132134198,"location_subtype":"","month":"2025-11"},{"category":"violent-crime","location_type":"Force","location":{"latitude":"53.325266","street":{"id":1511486,"name":"On or near Cwrt Berllan"},"longitude":"-3.424735"},"context":"","outcome_status":{"category":"Unable to prosecute suspect","date":"2025-12"},"persistent_id":"3711d136b9bdaec05eb2b03f1f4be92bbaf03080254edd8da0223be2c1566a06","id":132136592,"location_subtype":"","month":"2025-11"},{"category":"violent-crime","location_type":"Force","location":{"latitude":"53.335759","street":{"id":1511445,"name":"On or near Rhodfa Peris"},"longitude":"-3.427563"},"context":"","outcome_status":{"category":"Action to be taken by another organisation","date":"2025-11"},"persistent_id":"5ed569b891c7db914cd1056ec19b77d9d4370560c2b7302bd659ab79b426389e","id":132134054,"location_subtype":"","month":"2025-11"},{"category":"violent-crime","location_type":"Force","location":{"latitude":"53.323504","street":{"id":1511480,"name":"On or near Alexandra Drive"},"longitude":"-3.422454"},"context":"","outcome_status":{"category":"Unable to prosecute suspect","date":"2025-11"},"persistent_id":"4553453460c4e69b1bb555f92bee11bdd8f91d0bcab252731d8682a2017ab825","id":132134056,"location_subtype":"","month":"2025-11"},{"category":"violent-crime","location_type":"Force","location":{"latitude":"53.330392","street":{"id":1511812,"name":"On or near South Avenue"},"longitude":"-3.405609"},"context":"","outcome_status":{"category":"Unable to prosecute suspect","date":"2025-11"},"persistent_id":"ac8ab78bb4da085fbadec6f80fc0950bd476f1f087101159bdb65859606221e0","id":132134057,"location_subtype":"","month":"2025-11"},{"category":"violent-crime","location_type":"Force","location":{"latitude":"53.330392","street":{"id":1511812,"name":"On or near South Avenue"},"longitude":"-3.405609"},"context":"","outcome_status":{"category":"Unable to prosecute suspect","date":"2025-11"},"persistent_id":"78e66473594caa18b1b455e9387de4a0f7729da0b58ae9a07438967d97843d6e","id":132134058,"location_subtype":"","month":"2025-11"},{"category":"other-crime","location_type":"Force","location":{"latitude":"53.332875","street":{"id":1511817,"name":"On or near Victoria Avenue"},"longitude":"-3.404715"},"context":"","outcome_status":{"category":"Unable to prosecute suspect","date":"2025-11"},"persistent_id":"dfa395b6b835081d3ab5669bef94f1f88288b075e005006b08dd4021dfae94a9","id":132134114,"location_subtype":"","month":"2025-11"},{"category":"other-crime","location_type":"Force","location":{"latitude":"53.337234","street":{"id":1511645,"name":"On or near Derwent Close"},"longitude":"-3.414620"},"context":"","outcome_status":{"category":"Unable to prosecute suspect","date":"2025-12"},"persistent_id":"89f77a36a0b88e090579f767d7254a199fbafe910fbe13b55828b5e75f8985f0","id":132134270,"location_subtype":"","month":"2025-11"},{"category":"other-crime","location_type":"Force","location":{"latitude":"53.335904","street":{"id":1511819,"name":"On or near Petrol Station"},"longitude":"-3.405490"},"context":"","outcome_status":{"category":"Investigation complete; no suspect identified","date":"2025-12"},"persistent_id":"7f046eea749b1619cb52c64f80640745d474579fa257f0ea0feac22c64f084cb","id":132136503,"location_subtype":"","month":"2025-11"}]