[{"category":"anti-social-behaviour","location_type":"Force","location":{"latitude":"53.857427","street":{"id":2113980,"name":"On or near Markham Crescent"},"longitude":"-1.676057"},"context":"","outcome_status":null,"persistent_id":"","id":132247730,"location_subtype":"","month":"2025-11"},{"category":"anti-social-behaviour","location_type":"Force","location":{"latitude":"53.871767","street":{"id":2113184,"name":"On or near Raywood Close"},"longitude":"-1.691504"},"context":"","outcome_status":null,"persistent_id":"","id":132247039,"location_subtype":"","month":"2025-11"},{"category":"anti-social-behaviour","location_type":"Force","location":{"latitude":"53.861233","street":{"id":2111848,"name":"On or near Westfield Oval"},"longitude":"-1.705738"},"context":"","outcome_status":null,"persistent_id":"","id":132247517,"location_subtype":"","month":"2025-11"},{"category":"anti-social-behaviour","location_type":"Force","location":{"latitude":"53.854191","street":{"id":2113492,"name":"On or near Low Fold"},"longitude":"-1.686419"},"context":"","outcome_status":null,"persistent_id":"","id":132247667,"location_subtype":"","month":"2025-11"},{"category":"anti-social-behaviour","location_type":"Force","location":{"latitude":"53.852454","street":{"id":2114063,"name":"On or near Lakeside Chase"},"longitude":"-1.675350"},"context":"","outcome_status":null,"persistent_id":"","id":132248427,"location_subtype":"","month":"2025-11"},{"category":"anti-social-behaviour","location_type":"Force","location":{"latitude":"53.865730","street":{"id":2113601,"name":"On or near Chapel Hill"},"longitude":"-1.685603"},"context":"","outcome_status":null,"persistent_id":"","id":132248493,"location_subtype":"","month":"2025-11"},{"category":"anti-social-behaviour","location_type":"Force","location":{"latitude":"53.854231","street":{"id":2113631,"name":"On or near John Street"},"longitude":"-1.684230"},"context":"","outcome_status":null,"persistent_id":"","id":132249088,"location_subtype":"","month":"2025-11"},{"category":"anti-social-behaviour","location_type":"Force","location":{"latitude":"53.869340","street":{"id":2112492,"name":"On or near New Road"},"longitude":"-1.701894"},"context":"","outcome_status":null,"persistent_id":"","id":132247966,"location_subtype":"","month":"2025-11"},{"category":"anti-social-behaviour","location_type":"Force","location":{"latitude":"53.864928","street":{"id":2112871,"name":"On or near Whack House Lane"},"longitude":"-1.695326"},"context":"","outcome_status":null,"persistent_id":"","id":132248254,"location_subtype":"","month":"2025-11"},{"category":"anti-social-behaviour","location_type":"Force","location":{"latitude":"53.867091","street":{"id":2113990,"name":"On or near Tarn View Road"},"longitude":"-1.673549"},"context":"","outcome_status":null,"persistent_id":"","id":132248607,"location_subtype":"","month":"2025-11"},{"category":"anti-social-behaviour","location_type":"Force","location":{"latitude":"53.866518","street":{"id":2113161,"name":"On or near Park Grove"},"longitude":"-1.691650"},"context":"","outcome_status":null,"persistent_id":"","id":132247514,"location_subtype":"","month":"2025-11"},{"category":"anti-social-behaviour","location_type":"Force","location":{"latitude":"53.871226","street":{"id":2113763,"name":"On or near Haw View"},"longitude":"-1.680695"},"context":"","outcome_status":null,"persistent_id":"","id":132248608,"location_subtype":"","month":"2025-11"},{"category":"anti-social-behaviour","location_type":"Force","location":{"latitude":"53.864014","street":{"id":2113900,"name":"On or near Springwell Close"},"longitude":"-1.679032"},"context":"","outcome_status":null,"persistent_id":"","id":132248577,"location_subtype":"","month":"2025-11"},{"category":"burglary","location_type":"Force","location":{"latitude":"53.850912","street":{"id":2114125,"name":"On or near Billing Court"},"longitude":"-1.673310"},"context":"","outcome_status":{"category":"Investigation complete; no suspect identified","date":"2025-12"},"persistent_id":"28a502381e42a77b83ea028d2d95a0e73dea33c886636a63f426c58502476f54","id":132244327,"location_subtype":"","month":"2025-11"},{"category":"burglary","location_type":"Force","location":{"latitude":"53.866701","street":{"id":2113567,"name":"On or near Denison Street"},"longitude":"-1.685657"},"context":"","outcome_status":{"category":"Investigation complete; no suspect identified","date":"2025-11"},"persistent_id":"bc3fb8417764df316af09e500bb0769cd9a9be9b53ee9474b0aea58cb427460b","id":132236968,"location_subtype":"","month":"2025-11"},{"category":"burglary","location_type":"Force","location":{"latitude":"53.855957","street":{"id":2113177,"name":"On or near Lime Grove"},"longitude":"-1.691256"},"context":"","outcome_status":{"category":"Investigation complete; no suspect identified","date":"2025-11"},"persistent_id":"0fab310f0cc89edd7fac2de9f2bfd83705651530f0f3bf0cfd99f0db96840406","id":132231089,"location_subtype":"","month":"2025-11"},{"category":"burglary","location_type":"Force","location":{"latitude":"53.866021","street":{"id":2112986,"name":"On or near Kirk Lane"},"longitude":"-1.693843"},"context":"","outcome_status":{"category":"Investigation complete; no suspect identified","date":"2025-11"},"persistent_id":"1fa8a3e912ed76b514c06b489ceec481f01dcd71af2c49f485c5f4a4eece2751","id":132246461,"location_subtype":"","month":"2025-11"},{"category":"burglary","location_type":"Force","location":{"latitude":"53.852077","street":{"id":2113311,"name":"On or near Salisbury Street"},"longitude":"-1.689126"},"context":"","outcome_status":{"category":"Under investigation","date":"2025-11"},"persistent_id":"43395fdc9024d2b89b5fdc70ce8e959ceee73f8306735f5605dae0564adddff6","id":132238805,"location_subtype":"","month":"2025-11"},{"category":"burglary","location_type":"Force","location":{"latitude":"53.870796","street":{"id":2113211,"name":"On or near Shaw Leys"},"longitude":"-1.691466"},"context":"","outcome_status":{"category":"Unable to prosecute suspect","date":"2026-01"},"persistent_id":"94bbf8c229c3522bb4f8e4c9da8924a3db9daaaec16d807da15747d7c9ec8c5f","id":132237194,"location_subtype":"","month":"2025-11"},{"category":"burglary","location_type":"Force","location":{"latitude":"53.862633","street":{"id":2112461,"name":"On or near Westfield Grove"},"longitude":"-1.701349"},"context":"","outcome_status":{"category":"Investigation complete; no suspect identified","date":"2025-12"},"persistent_id":"0fe27d5a3f06f866be536ed3bb6c952a1f62f89c7838338f374f8aba3b3af160","id":132236805,"location_subtype":"","month":"2025-11"},{"category":"burglary","location_type":"Force","location":{"latitude":"53.866732","street":{"id":2112285,"name":"On or near South View Close"},"longitude":"-1.704954"},"context":"","outcome_status":{"category":"Investigation complete; no suspect identified","date":"2025-12"},"persistent_id":"6acf74667abf7adb6f9c23b3c86c58208bbe415b4737ee852026cd0c37454fa4","id":132234033,"location_subtype":"","month":"2025-11"},{"category":"burglary","location_type":"Force","location":{"latitude":"53.861689","street":{"id":2112933,"name":"On or near Barfield Drive"},"longitude":"-1.694148"},"context":"","outcome_status":{"category":"Investigation complete; no suspect identified","date":"2025-12"},"persistent_id":"cafa2677bd79db82d9fc4e774b4a6e8d8f03e1499f67a506be03683810a217c3","id":132230178,"location_subtype":"","month":"2025-11"},{"category":"burglary","location_type":"Force","location":{"latitude":"53.866021","street":{"id":2112986,"name":"On or near Kirk Lane"},"longitude":"-1.693843"},"context":"","outcome_status":{"category":"Investigation complete; no suspect identified","date":"2025-11"},"persistent_id":"e80c1b5742b2e7afe4b0aaba787a10f2e0a018773827216633d4cf0664845a4d","id":132227694,"location_subtype":"","month":"2025-11"},{"category":"criminal-damage-arson","location_type":"Force","location":{"latitude":"53.859963","street":{"id":2114039,"name":"On or near B6152"},"longitude":"-1.676600"},"context":"","outcome_status":{"category":"Investigation complete; no suspect identified","date":"2025-11"},"persistent_id":"379e7f6d9baf14891f1793386e5683833b6983e013f72010b22c08d377ea1389","id":132228274,"location_subtype":"","month":"2025-11"},{"category":"criminal-damage-arson","location_type":"Force","location":{"latitude":"53.860291","street":{"id":2113933,"name":"On or near Carlisle Avenue"},"longitude":"-1.678376"},"context":"","outcome_status":{"category":"Unable to prosecute suspect","date":"2025-11"},"persistent_id":"b3b2151093841372f83b4324d49f26e7e73df051a2a12621fdd72abc1f639790","id":132226701,"location_subtype":"","month":"2025-11"},{"category":"criminal-damage-arson","location_type":"Force","location":{"latitude":"53.866485","street":{"id":2113761,"name":"On or near Back High Street"},"longitude":"-1.682222"},"context":"","outcome_status":{"category":"Investigation complete; no suspect identified","date":"2025-11"},"persistent_id":"3eeafbfc62991094607e2e2c20d43460315ee2f9776bff27e158db74c738e017","id":132232755,"location_subtype":"","month":"2025-11"},{"category":"criminal-damage-arson","location_type":"Force","location":{"latitude":"53.862462","street":{"id":2114164,"name":"On or near Peacock Court"},"longitude":"-1.673616"},"context":"","outcome_status":{"category":"Investigation complete; no suspect identified","date":"2025-11"},"persistent_id":"e88e3286aa7c1428733a568c49d732a5fd2693fada31e4ef47c833ba6a712e2f","id":132232703,"location_subtype":"","month":"2025-11"},{"category":"criminal-damage-arson","location_type":"Force","location":{"latitude":"53.862950","street":{"id":2114253,"name":"On or near Bayton Lane"},"longitude":"-1.671316"},"context":"","outcome_status":{"category":"Unable to prosecute suspect","date":"2025-11"},"persistent_id":"bcdb5850d6ceb1f7e5863f232e2fefbc50a33bf8fd535e03840aacc7dbf64f66","id":132235443,"location_subtype":"","month":"2025-11"},{"category":"criminal-damage-arson","location_type":"Force","location":{"latitude":"53.854777","street":{"id":2113857,"name":"On or near Batter Lane"},"longitude":"-1.680273"},"context":"","outcome_status":{"category":"Investigation complete; no suspect identified","date":"2025-11"},"persistent_id":"6d85c4a64e2266b1a5d8f591e420c76bb36e02bd97197986801a23d54296b7c3","id":132232792,"location_subtype":"","month":"2025-11"},{"category":"criminal-damage-arson","location_type":"Force","location":{"latitude":"53.867697","street":{"id":2114383,"name":"On or near Victoria Avenue"},"longitude":"-1.668526"},"context":"","outcome_status":{"category":"Investigation complete; no suspect identified","date":"2025-12"},"persistent_id":"ebbf19305dff6b2c775d0c99f05741cda3e25d91fe673262255a3a44b5e6e8b0","id":132241549,"location_subtype":"","month":"2025-11"},{"category":"criminal-damage-arson","location_type":"Force","location":{"latitude":"53.863710","street":{"id":2112794,"name":"On or near New Road"},"longitude":"-1.697007"},"context":"","outcome_status":{"category":"Unable to prosecute suspect","date":"2025-11"},"persistent_id":"9fdaf3644b270f5c8dc87507b03d0025f145eaee80ab7b7983f9a6929078611e","id":132232658,"location_subtype":"","month":"2025-11"},{"category":"criminal-damage-arson","location_type":"Force","location":{"latitude":"53.865967","street":{"id":2113850,"name":"On or near Alma Street"},"longitude":"-1.679975"},"context":"","outcome_status":{"category":"Unable to prosecute suspect","date":"2025-11"},"persistent_id":"ce66b465d1270d5e81b09d978120b4db6a1ad86f0ff652912c6639256c5feb2c","id":132237781,"location_subtype":"","month":"2025-11"},{"category":"criminal-damage-arson","location_type":"Force","location":{"latitude":"53.865859","street":{"id":2113513,"name":"On or near Town Street"},"longitude":"-1.686697"},"context":"","outcome_status":{"category":"Investigation complete; no suspect identified","date":"2025-11"},"persistent_id":"687b32722ba8e5944273b08b0b51dcc2b2bae52f5278f7a67061c60ae6341d11","id":132246116,"location_subtype":"","month":"2025-11"},{"category":"criminal-damage-arson","location_type":"Force","location":{"latitude":"53.869047","street":{"id":2112644,"name":"On or near Sports/recreation Area"},"longitude":"-1.698456"},"context":"","outcome_status":{"category":"Investigation complete; no suspect identified","date":"2025-11"},"persistent_id":"2e468623b05f6b50325dab7f0ec8e92fcd5816d57f879eab5235b069d4ac8f3b","id":132234541,"location_subtype":"","month":"2025-11"},{"category":"other-theft","location_type":"Force","location":{"latitude":"53.865487","street":{"id":2112589,"name":"On or near Henry Terrace"},"longitude":"-1.699792"},"context":"","outcome_status":{"category":"Investigation complete; no suspect identified","date":"2025-11"},"persistent_id":"7c52f0907eec1e48e7795a76aaa29536d6257b390adeaf4ab9c3a18e62df32ed","id":132227285,"location_subtype":"","month":"2025-11"},{"category":"other-theft","location_type":"Force","location":{"latitude":"53.860260","street":{"id":2114013,"name":"On or near Petrol Station"},"longitude":"-1.676810"},"context":"","outcome_status":{"category":"Investigation complete; no suspect identified","date":"2025-11"},"persistent_id":"a958f770bbac5ff4c3bd498db30a2d35de7bd86d15084ba7e20d287028fdc65d","id":132239053,"location_subtype":"","month":"2025-11"},{"category":"other-theft","location_type":"Force","location":{"latitude":"53.865487","street":{"id":2112589,"name":"On or near Henry Terrace"},"longitude":"-1.699792"},"context":"","outcome_status":{"category":"Investigation complete; no suspect identified","date":"2025-11"},"persistent_id":"ede7e7ed217948bc0a46c7561a145afa31d825ccd7e12f8361e628390cdad24a","id":132241131,"location_subtype":"","month":"2025-11"},{"category":"other-theft","location_type":"Force","location":{"latitude":"53.861876","street":{"id":2113489,"name":"On or near Henshaw Crescent"},"longitude":"-1.686179"},"context":"","outcome_status":{"category":"Investigation complete; no suspect identified","date":"2025-11"},"persistent_id":"94a58877e664957f632859886a8a8781b5d31f0b651503968d89eddf11ce30f5","id":132243042,"location_subtype":"","month":"2025-11"},{"category":"other-theft","location_type":"Force","location":{"latitude":"53.869645","street":{"id":2113885,"name":"On or near Carlton Mount"},"longitude":"-1.677666"},"context":"","outcome_status":{"category":"Investigation complete; no suspect identified","date":"2025-11"},"persistent_id":"2e715fcb4be22649bf2607417b6826ecc257666506fe7b49fb3134537c1c96bc","id":132241379,"location_subtype":"","month":"2025-11"},{"category":"other-theft","location_type":"Force","location":{"latitude":"53.867697","street":{"id":2114383,"name":"On or near Victoria Avenue"},"longitude":"-1.668526"},"context":"","outcome_status":{"category":"Investigation complete; no suspect identified","date":"2025-11"},"persistent_id":"0186481a06048fef621112075e8b99fec3c00e1350ea50a2b92c00b444915bcf","id":132239385,"location_subtype":"","month":"2025-11"},{"category":"other-theft","location_type":"Force","location":{"latitude":"53.855175","street":{"id":2113147,"name":"On or near The Chase"},"longitude":"-1.691322"},"context":"","outcome_status":{"category":"Investigation complete; no suspect identified","date":"2025-12"},"persistent_id":"f284ebe041dd4ee36be1146f9fd6a02313119e97abbbec1a8177f45e5115e6e1","id":132246857,"location_subtype":"","month":"2025-11"},{"category":"other-theft","location_type":"Force","location":{"latitude":"53.868856","street":{"id":2113772,"name":"On or near Hawthorn Road"},"longitude":"-1.681413"},"context":"","outcome_status":{"category":"Investigation complete; no suspect identified","date":"2025-11"},"persistent_id":"5ccb9825c6f2f1276edd38d578adac63de8d1ddb8521b85d2ada6611513ffc0c","id":132242519,"location_subtype":"","month":"2025-11"},{"category":"other-theft","location_type":"Force","location":{"latitude":"53.865812","street":{"id":2113712,"name":"On or near Supermarket"},"longitude":"-1.682592"},"context":"","outcome_status":{"category":"Unable to prosecute suspect","date":"2025-11"},"persistent_id":"ee1659062c3eb99c451a1d21c1ead46782166f95e4432d6dfd09d86686d3e85e","id":132235397,"location_subtype":"","month":"2025-11"},{"category":"other-theft","location_type":"Force","location":{"latitude":"53.865487","street":{"id":2112589,"name":"On or near Henry Terrace"},"longitude":"-1.699792"},"context":"","outcome_status":{"category":"Investigation complete; no suspect identified","date":"2025-11"},"persistent_id":"8804d4de50ad2fe37e7b5e0432345a78571f688e4e5ac6fd266d1d6d29e0c142","id":132237036,"location_subtype":"","month":"2025-11"},{"category":"other-theft","location_type":"Force","location":{"latitude":"53.867697","street":{"id":2114383,"name":"On or near Victoria Avenue"},"longitude":"-1.668526"},"context":"","outcome_status":{"category":"Investigation complete; no suspect identified","date":"2025-12"},"persistent_id":"0622125b94f00df0972fcb2038d1026f305c47f967d3ca895a2a8971f16a3f6f","id":132240355,"location_subtype":"","month":"2025-11"},{"category":"other-theft","location_type":"Force","location":{"latitude":"53.859895","street":{"id":2112641,"name":"On or near Briarlea Close"},"longitude":"-1.698859"},"context":"","outcome_status":{"category":"Under investigation","date":"2025-11"},"persistent_id":"e2a28755e266431685901a2ed7c6c971a7e8eeeb9282f531a8d6a7c623a82419","id":132232829,"location_subtype":"","month":"2025-11"},{"category":"other-theft","location_type":"Force","location":{"latitude":"53.862633","street":{"id":2112461,"name":"On or near Westfield Grove"},"longitude":"-1.701349"},"context":"","outcome_status":{"category":"Investigation complete; no suspect identified","date":"2025-11"},"persistent_id":"a39b59ed4423c0160acebb9e4299203f37b7550c91efb77860c3a3cc2be9aa23","id":132229781,"location_subtype":"","month":"2025-11"},{"category":"possession-of-weapons","location_type":"Force","location":{"latitude":"53.867697","street":{"id":2114383,"name":"On or near Victoria Avenue"},"longitude":"-1.668526"},"context":"","outcome_status":{"category":"Offender given a caution","date":"2026-01"},"persistent_id":"c4b8d76da605c2fae4789abb7495d203bf07ea095f99da3d27ba57c980300b32","id":132229366,"location_subtype":"","month":"2025-11"},{"category":"public-order","location_type":"Force","location":{"latitude":"53.866206","street":{"id":2113929,"name":"On or near Club Row"},"longitude":"-1.678650"},"context":"","outcome_status":{"category":"Investigation complete; no suspect identified","date":"2026-01"},"persistent_id":"3ffbffa116aabd499f17723ad32d94200d0dab74c69ef259b464502a968103f3","id":132234189,"location_subtype":"","month":"2025-11"},{"category":"public-order","location_type":"Force","location":{"latitude":"53.867697","street":{"id":2114383,"name":"On or near Victoria Avenue"},"longitude":"-1.668526"},"context":"","outcome_status":{"category":"Investigation complete; no suspect identified","date":"2025-11"},"persistent_id":"958b9280951ee0d24c7b79a4992cfd8d62c3046216672c0ac6215e7af6821a23","id":132241401,"location_subtype":"","month":"2025-11"},{"category":"public-order","location_type":"Force","location":{"latitude":"53.868147","street":{"id":2113949,"name":"On or near Granville Terrace"},"longitude":"-1.678635"},"context":"","outcome_status":{"category":"Investigation complete; no suspect identified","date":"2025-11"},"persistent_id":"b250103cdb4f04164e0cd634ccca3284b9095d284f1b9b23041d33af46f32563","id":132234486,"location_subtype":"","month":"2025-11"},{"category":"public-order","location_type":"Force","location":{"latitude":"53.867151","street":{"id":2113881,"name":"On or near Carlton Terrace"},"longitude":"-1.679343"},"context":"","outcome_status":{"category":"Investigation complete; no suspect identified","date":"2025-11"},"persistent_id":"0ee4558044afd9a0624e6c2ff0bd2827f6c7ee1586299aebca2bcda15513ddb4","id":132234165,"location_subtype":"","month":"2025-11"},{"category":"public-order","location_type":"Force","location":{"latitude":"53.868584","street":{"id":2113227,"name":"On or near Newlands Avenue"},"longitude":"-1.691026"},"context":"","outcome_status":{"category":"Investigation complete; no suspect identified","date":"2025-12"},"persistent_id":"9d9868dda68e8ce7a1c424fa44c3ea27970f6e8ac162a370fa557885d9574218","id":132244754,"location_subtype":"","month":"2025-11"},{"category":"public-order","location_type":"Force","location":{"latitude":"53.866402","street":{"id":2113620,"name":"On or near Suffolk Court"},"longitude":"-1.684959"},"context":"","outcome_status":{"category":"Awaiting court outcome","date":"2026-01"},"persistent_id":"56c1bc0c7272580e51ffedf77689b7c3e333629a30b188a31540fa2fef632217","id":132235881,"location_subtype":"","month":"2025-11"},{"category":"robbery","location_type":"Force","location":{"latitude":"53.862478","street":{"id":2112582,"name":"On or near Westfield Avenue"},"longitude":"-1.700179"},"context":"","outcome_status":{"category":"Under investigation","date":"2025-11"},"persistent_id":"82d49cda5d57422d94ed86045285992d988a7d39c3aafe9b977b3eaec41225b7","id":132230972,"location_subtype":"","month":"2025-11"},{"category":"robbery","location_type":"Force","location":{"latitude":"53.857142","street":{"id":2113245,"name":"On or near Apperley Lane"},"longitude":"-1.690761"},"context":"","outcome_status":{"category":"Unable to prosecute suspect","date":"2025-12"},"persistent_id":"17701b0049bfb85aa150505ad4dcc93e5bd3cd5ae7c54518fa66f3c6937c9273","id":132240682,"location_subtype":"","month":"2025-11"},{"category":"robbery","location_type":"Force","location":{"latitude":"53.857264","street":{"id":2113334,"name":"On or near Mawcroft Mews"},"longitude":"-1.689331"},"context":"","outcome_status":{"category":"Investigation complete; no suspect identified","date":"2025-11"},"persistent_id":"947613324c9243fe388c5a1b2a9ad79a97f65ea115c815afa4aeb152f4e25da4","id":132227032,"location_subtype":"","month":"2025-11"},{"category":"shoplifting","location_type":"Force","location":{"latitude":"53.865812","street":{"id":2113712,"name":"On or near Supermarket"},"longitude":"-1.682592"},"context":"","outcome_status":{"category":"Awaiting court outcome","date":"2025-12"},"persistent_id":"978cf4fa19c0944014addf904281e9b4a6042f41bf0f7afd465bb3ea5ec49cb3","id":132235615,"location_subtype":"","month":"2025-11"},{"category":"shoplifting","location_type":"Force","location":{"latitude":"53.867697","street":{"id":2114383,"name":"On or near Victoria Avenue"},"longitude":"-1.668526"},"context":"","outcome_status":{"category":"Local resolution","date":"2026-01"},"persistent_id":"3ed3b15393a4bd85a913f1c2ab8d7c92b7d587835298db9585a0e20fca6c6f59","id":132245787,"location_subtype":"","month":"2025-11"},{"category":"shoplifting","location_type":"Force","location":{"latitude":"53.857142","street":{"id":2113245,"name":"On or near Apperley Lane"},"longitude":"-1.690761"},"context":"","outcome_status":{"category":"Awaiting court outcome","date":"2025-12"},"persistent_id":"77c92932949199138ed790ae535e33399999b80c5108629ac8f47e94e8b492d5","id":132240680,"location_subtype":"","month":"2025-11"},{"category":"shoplifting","location_type":"Force","location":{"latitude":"53.857142","street":{"id":2113245,"name":"On or near Apperley Lane"},"longitude":"-1.690761"},"context":"","outcome_status":{"category":"Investigation complete; no suspect identified","date":"2025-12"},"persistent_id":"f3ec9aa8b9be893327fb29fe74a1e2c3df0c87c90b7abd58802eb7fdb7d0c28b","id":132246817,"location_subtype":"","month":"2025-11"},{"category":"shoplifting","location_type":"Force","location":{"latitude":"53.865812","street":{"id":2113712,"name":"On or near Supermarket"},"longitude":"-1.682592"},"context":"","outcome_status":{"category":"Under investigation","date":"2025-11"},"persistent_id":"dea3cfd8bd8b440875f1a78b65bdc6fcb99c1adf44dc6f0dbab32accdcc58881","id":132233213,"location_subtype":"","month":"2025-11"},{"category":"shoplifting","location_type":"Force","location":{"latitude":"53.867697","street":{"id":2114383,"name":"On or near Victoria Avenue"},"longitude":"-1.668526"},"context":"","outcome_status":{"category":"Unable to prosecute suspect","date":"2025-11"},"persistent_id":"dace6ed5d94f34695da757201219b4e7a19bcf0485a6b8a2478d31f961a00d37","id":132233214,"location_subtype":"","month":"2025-11"},{"category":"shoplifting","location_type":"Force","location":{"latitude":"53.865812","street":{"id":2113712,"name":"On or near Supermarket"},"longitude":"-1.682592"},"context":"","outcome_status":{"category":"Investigation complete; no suspect identified","date":"2025-11"},"persistent_id":"8cb9019e24b902cc73cf6b806a94f143c1369ddd59e48def8cdf225116ce83bd","id":132231295,"location_subtype":"","month":"2025-11"},{"category":"shoplifting","location_type":"Force","location":{"latitude":"53.857142","street":{"id":2113245,"name":"On or near Apperley Lane"},"longitude":"-1.690761"},"context":"","outcome_status":{"category":"Investigation complete; no suspect identified","date":"2025-11"},"persistent_id":"c76da56846b3c2f2b00e5e3e63bcfd60381460195a67b59d62d35988fb00c1a5","id":132233403,"location_subtype":"","month":"2025-11"},{"category":"shoplifting","location_type":"Force","location":{"latitude":"53.865812","street":{"id":2113712,"name":"On or near Supermarket"},"longitude":"-1.682592"},"context":"","outcome_status":{"category":"Investigation complete; no suspect identified","date":"2025-11"},"persistent_id":"446a5e4294dce5c477500ad1df4f3b3344ba4b3382170f39ca83e87c52fce7bd","id":132227371,"location_subtype":"","month":"2025-11"},{"category":"shoplifting","location_type":"Force","location":{"latitude":"53.865812","street":{"id":2113712,"name":"On or near Supermarket"},"longitude":"-1.682592"},"context":"","outcome_status":{"category":"Investigation complete; no suspect identified","date":"2025-11"},"persistent_id":"c6812ee0e53968b0d3a5328d25c825adf5c20d06806dcd00ec8046f09cba7368","id":132227254,"location_subtype":"","month":"2025-11"},{"category":"shoplifting","location_type":"Force","location":{"latitude":"53.865812","street":{"id":2113712,"name":"On or near Supermarket"},"longitude":"-1.682592"},"context":"","outcome_status":{"category":"Investigation complete; no suspect identified","date":"2025-11"},"persistent_id":"86ee78b2e378a1cdb475b01ded670692d6238da8fa688ec2abfd651300d6f42c","id":132233621,"location_subtype":"","month":"2025-11"},{"category":"shoplifting","location_type":"Force","location":{"latitude":"53.865812","street":{"id":2113712,"name":"On or near Supermarket"},"longitude":"-1.682592"},"context":"","outcome_status":{"category":"Investigation complete; no suspect identified","date":"2025-11"},"persistent_id":"008a51fe031c7979773089d512f911d0d9a703296d3f4ce18c8054a4961b51e0","id":132245209,"location_subtype":"","month":"2025-11"},{"category":"shoplifting","location_type":"Force","location":{"latitude":"53.865812","street":{"id":2113712,"name":"On or near Supermarket"},"longitude":"-1.682592"},"context":"","outcome_status":{"category":"Awaiting court outcome","date":"2026-01"},"persistent_id":"eac15d704b49b020598e2ea815d351f78dbeb354000c32b84c5b3db7d09e880c","id":132238230,"location_subtype":"","month":"2025-11"},{"category":"shoplifting","location_type":"Force","location":{"latitude":"53.870796","street":{"id":2113211,"name":"On or near Shaw Leys"},"longitude":"-1.691466"},"context":"","outcome_status":{"category":"Awaiting court outcome","date":"2025-12"},"persistent_id":"b5ddda37ebf2717f5b71f51b99190c81e29a9c3b455111363ef1921a7520debf","id":132246444,"location_subtype":"","month":"2025-11"},{"category":"shoplifting","location_type":"Force","location":{"latitude":"53.870796","street":{"id":2113211,"name":"On or near Shaw Leys"},"longitude":"-1.691466"},"context":"","outcome_status":{"category":"Awaiting court outcome","date":"2026-01"},"persistent_id":"1668fbb2a4259ca2da092e59d4bdf9140652f7f39de28226e3409d6b39597142","id":132226851,"location_subtype":"","month":"2025-11"},{"category":"shoplifting","location_type":"Force","location":{"latitude":"53.870796","street":{"id":2113211,"name":"On or near Shaw Leys"},"longitude":"-1.691466"},"context":"","outcome_status":{"category":"Awaiting court outcome","date":"2025-12"},"persistent_id":"7e3dafe83966c85c76f81a708489699221ead542602ccd90a66540eb2c5d2d31","id":132226731,"location_subtype":"","month":"2025-11"},{"category":"shoplifting","location_type":"Force","location":{"latitude":"53.870796","street":{"id":2113211,"name":"On or near Shaw Leys"},"longitude":"-1.691466"},"context":"","outcome_status":{"category":"Further investigation is not in the public interest","date":"2026-01"},"persistent_id":"4272febc1f1fef54cc0b812f263d15aa75a5d5a9d92440aba50b4dcbafc8b390","id":132245325,"location_subtype":"","month":"2025-11"},{"category":"shoplifting","location_type":"Force","location":{"latitude":"53.865812","street":{"id":2113712,"name":"On or near Supermarket"},"longitude":"-1.682592"},"context":"","outcome_status":{"category":"Investigation complete; no suspect identified","date":"2025-11"},"persistent_id":"c58a39bd3e6bc37e44dd52924c6859360411ed5af86949c410f9e0c49090b900","id":132242304,"location_subtype":"","month":"2025-11"},{"category":"vehicle-crime","location_type":"Force","location":{"latitude":"53.857427","street":{"id":2113980,"name":"On or near Markham Crescent"},"longitude":"-1.676057"},"context":"","outcome_status":{"category":"Investigation complete; no suspect identified","date":"2025-11"},"persistent_id":"3699f0ab2b783c4652a837d9e86d3a1e82a76b7aaaf064ecc7a739ed47db4851","id":132242280,"location_subtype":"","month":"2025-11"},{"category":"vehicle-crime","location_type":"Force","location":{"latitude":"53.868481","street":{"id":2113280,"name":"On or near Swincar Avenue"},"longitude":"-1.689521"},"context":"","outcome_status":{"category":"Investigation complete; no suspect identified","date":"2025-11"},"persistent_id":"d046777bd614c0674cc4c8ebb5bb0631b93f1d37f4a3339f72bfeab887c8c5a2","id":132228403,"location_subtype":"","month":"2025-11"},{"category":"vehicle-crime","location_type":"Force","location":{"latitude":"53.865192","street":{"id":2113536,"name":"On or near Clayton Grove"},"longitude":"-1.686109"},"context":"","outcome_status":{"category":"Investigation complete; no suspect identified","date":"2025-11"},"persistent_id":"4974f114c3bab68a49a85fef0fd7505233102e8a97213b0c36bdd54e4c014b54","id":132234996,"location_subtype":"","month":"2025-11"},{"category":"vehicle-crime","location_type":"Force","location":{"latitude":"53.858411","street":{"id":2112661,"name":"On or near The Coppice"},"longitude":"-1.698444"},"context":"","outcome_status":{"category":"Investigation complete; no suspect identified","date":"2025-11"},"persistent_id":"d99f0b38b4155ed2f3d4541a0eef6c1e6b7cf3b148af310792c6e1520715628b","id":132245019,"location_subtype":"","month":"2025-11"},{"category":"vehicle-crime","location_type":"Force","location":{"latitude":"53.863070","street":{"id":2112806,"name":"On or near New Road"},"longitude":"-1.696267"},"context":"","outcome_status":{"category":"Unable to prosecute suspect","date":"2026-01"},"persistent_id":"3385934dd6be8631eef181dfa164453368def73c2db99d3148956ff91f9b6534","id":132237989,"location_subtype":"","month":"2025-11"},{"category":"vehicle-crime","location_type":"Force","location":{"latitude":"53.866050","street":{"id":2112731,"name":"On or near Redwood Grove"},"longitude":"-1.698177"},"context":"","outcome_status":{"category":"Investigation complete; no suspect identified","date":"2025-11"},"persistent_id":"6d956499723cadbf1d04cd94886b1db464127992786f74a16d7c6b366a76c867","id":132245067,"location_subtype":"","month":"2025-11"},{"category":"violent-crime","location_type":"Force","location":{"latitude":"53.866050","street":{"id":2112731,"name":"On or near Redwood Grove"},"longitude":"-1.698177"},"context":"","outcome_status":{"category":"Under investigation","date":"2025-11"},"persistent_id":"adbad5a88247fe102d9624d18f3cf47bd95dbce0de3395e75734aa787c38e6ef","id":132242060,"location_subtype":"","month":"2025-11"},{"category":"violent-crime","location_type":"Force","location":{"latitude":"53.857658","street":{"id":2113939,"name":"On or near First Avenue"},"longitude":"-1.678716"},"context":"","outcome_status":{"category":"Further action is not in the public interest","date":"2026-01"},"persistent_id":"43bd0b91459382d85a96b50f1b53d60de215b2db665dc4eb6480f10edf1b98b8","id":132243129,"location_subtype":"","month":"2025-11"},{"category":"violent-crime","location_type":"Force","location":{"latitude":"53.864856","street":{"id":2113932,"name":"On or near Windmill Fold"},"longitude":"-1.678083"},"context":"","outcome_status":{"category":"Unable to prosecute suspect","date":"2025-12"},"persistent_id":"4cf15151ac32c1a79028cb0ab5399cc71ec3fc909560f04f32f8238682a14b3d","id":132245506,"location_subtype":"","month":"2025-11"},{"category":"violent-crime","location_type":"Force","location":{"latitude":"53.861542","street":{"id":2113898,"name":"On or near Bolton Road"},"longitude":"-1.679142"},"context":"","outcome_status":{"category":"Under investigation","date":"2025-11"},"persistent_id":"d6c31257680851e868c29ceb0ee192188a4d4eae9ff6d015edefa4e9fd8dca95","id":132246903,"location_subtype":"","month":"2025-11"},{"category":"violent-crime","location_type":"Force","location":{"latitude":"53.869236","street":{"id":2113909,"name":"On or near St Andrews Close"},"longitude":"-1.678962"},"context":"","outcome_status":{"category":"Unable to prosecute suspect","date":"2025-12"},"persistent_id":"238dc69936d0fba0c729f42c3b395257657236aa129be0a0ce3bd43bb273d7f0","id":132228799,"location_subtype":"","month":"2025-11"},{"category":"violent-crime","location_type":"Force","location":{"latitude":"53.854900","street":{"id":2113747,"name":"On or near Park View Terrace"},"longitude":"-1.682233"},"context":"","outcome_status":{"category":"Investigation complete; no suspect identified","date":"2025-11"},"persistent_id":"d2d434784bb7453b9c842f95b3304c4116e4c48d864b9e98fbeb2adf363d7297","id":132243438,"location_subtype":"","month":"2025-11"},{"category":"violent-crime","location_type":"Force","location":{"latitude":"53.862498","street":{"id":2112690,"name":"On or near Greenlea Avenue"},"longitude":"-1.697716"},"context":"","outcome_status":{"category":"Unable to prosecute suspect","date":"2025-11"},"persistent_id":"3c9f533f1738dbda169d7ee0abe335d07f809f14a5e8e1d3cc06b4e495c9d5cb","id":132236564,"location_subtype":"","month":"2025-11"},{"category":"violent-crime","location_type":"Force","location":{"latitude":"53.862950","street":{"id":2114253,"name":"On or near Bayton Lane"},"longitude":"-1.671316"},"context":"","outcome_status":{"category":"Unable to prosecute suspect","date":"2025-11"},"persistent_id":"e84328c996d67a7227b6160d6d18d1ac7784454727c90d440b009819d14edce7","id":132235444,"location_subtype":"","month":"2025-11"},{"category":"violent-crime","location_type":"Force","location":{"latitude":"53.867366","street":{"id":2113762,"name":"On or near Marshall Street"},"longitude":"-1.682413"},"context":"","outcome_status":{"category":"Investigation complete; no suspect identified","date":"2025-12"},"persistent_id":"2a7ca4130e8f1fc78f16a31dd38be2a222916d329f726b592fe9897659bc9957","id":132234433,"location_subtype":"","month":"2025-11"},{"category":"violent-crime","location_type":"Force","location":{"latitude":"53.863183","street":{"id":2114134,"name":"On or near Castle Grange"},"longitude":"-1.674249"},"context":"","outcome_status":{"category":"Unable to prosecute suspect","date":"2025-11"},"persistent_id":"07dc0240c9621d43e67bc8be6e62f603a1daf6bec0cf540932253d5bb1b9b31b","id":132232850,"location_subtype":"","month":"2025-11"},{"category":"violent-crime","location_type":"Force","location":{"latitude":"53.868676","street":{"id":2113414,"name":"On or near Netherfield Close"},"longitude":"-1.688394"},"context":"","outcome_status":{"category":"Action to be taken by another organisation","date":"2025-11"},"persistent_id":"f3a1cfe724892d5df205471dcb82868b0eafa18f2c9d986e7dd95660d2d7e99f","id":132232659,"location_subtype":"","month":"2025-11"},{"category":"violent-crime","location_type":"Force","location":{"latitude":"53.862633","street":{"id":2112461,"name":"On or near Westfield Grove"},"longitude":"-1.701349"},"context":"","outcome_status":{"category":"Unable to prosecute suspect","date":"2025-11"},"persistent_id":"e115a68e89bc376dbe0eb615624db2c4527bbad41d38c4e244129811ad26c4cc","id":132231012,"location_subtype":"","month":"2025-11"},{"category":"violent-crime","location_type":"Force","location":{"latitude":"53.857658","street":{"id":2113939,"name":"On or near First Avenue"},"longitude":"-1.678716"},"context":"","outcome_status":{"category":"Further action is not in the public interest","date":"2026-01"},"persistent_id":"c7d921745bc7906aa1286c48ef766de19a1c848eea74d915d647943b10cb1d61","id":132243158,"location_subtype":"","month":"2025-11"},{"category":"violent-crime","location_type":"Force","location":{"latitude":"53.861233","street":{"id":2111848,"name":"On or near Westfield Oval"},"longitude":"-1.705738"},"context":"","outcome_status":{"category":"Unable to prosecute suspect","date":"2025-11"},"persistent_id":"df09683d690d9567b966ee56b106a67fe799d846019f1c2394e06b43180c152e","id":132226776,"location_subtype":"","month":"2025-11"},{"category":"violent-crime","location_type":"Force","location":{"latitude":"53.861876","street":{"id":2113686,"name":"On or near Henshaw Oval"},"longitude":"-1.682865"},"context":"","outcome_status":{"category":"Unable to prosecute suspect","date":"2025-11"},"persistent_id":"945c02f4f647fc9499bf7a31bb62f85a4c8b505e0322369c4e93a770e0ff6dad","id":132228424,"location_subtype":"","month":"2025-11"},{"category":"violent-crime","location_type":"Force","location":{"latitude":"53.865967","street":{"id":2113850,"name":"On or near Alma Street"},"longitude":"-1.679975"},"context":"","outcome_status":{"category":"Unable to prosecute suspect","date":"2025-11"},"persistent_id":"cf7ba073f67c5a99a32ca24d1986d5efa45819d7a1fe928cd0001cf99a17ab90","id":132236659,"location_subtype":"","month":"2025-11"},{"category":"violent-crime","location_type":"Force","location":{"latitude":"53.853628","street":{"id":2113782,"name":"On or near Larkfield Avenue"},"longitude":"-1.680540"},"context":"","outcome_status":{"category":"Unable to prosecute suspect","date":"2025-11"},"persistent_id":"cc5099662e2aabfb27275f5524f1f079a4c3247017e5e3144def71f79d9f11c8","id":132227715,"location_subtype":"","month":"2025-11"},{"category":"violent-crime","location_type":"Force","location":{"latitude":"53.863183","street":{"id":2114134,"name":"On or near Castle Grange"},"longitude":"-1.674249"},"context":"","outcome_status":{"category":"Unable to prosecute suspect","date":"2026-01"},"persistent_id":"53489076f87d32679be229f0d3ac77f0b4a400be0a6831bec12430106adeb0b1","id":132245685,"location_subtype":"","month":"2025-11"},{"category":"violent-crime","location_type":"Force","location":{"latitude":"53.870119","street":{"id":2113504,"name":"On or near Millbank"},"longitude":"-1.686635"},"context":"","outcome_status":{"category":"Further action is not in the public interest","date":"2025-12"},"persistent_id":"c9769c1ea641b8131d9862cad84e5ff451af7a5762dad61ca13933192c242ab8","id":132228439,"location_subtype":"","month":"2025-11"},{"category":"violent-crime","location_type":"Force","location":{"latitude":"53.865972","street":{"id":2113058,"name":"On or near Park Street"},"longitude":"-1.692520"},"context":"","outcome_status":{"category":"Investigation complete; no suspect identified","date":"2025-11"},"persistent_id":"c42fd343d5732c96e0c6fa70543fb97942eb2f384a9cb8a68df1cb8c702c045b","id":132242890,"location_subtype":"","month":"2025-11"},{"category":"violent-crime","location_type":"Force","location":{"latitude":"53.855006","street":{"id":2113785,"name":"On or near Park Square"},"longitude":"-1.681852"},"context":"","outcome_status":{"category":"Unable to prosecute suspect","date":"2025-12"},"persistent_id":"95005aa2a94f936695c719761f70560a367c3893fe7db7dd1a5529887ffdd7cf","id":132245648,"location_subtype":"","month":"2025-11"},{"category":"violent-crime","location_type":"Force","location":{"latitude":"53.865303","street":{"id":2112655,"name":"On or near Redwood Close"},"longitude":"-1.697771"},"context":"","outcome_status":{"category":"Unable to prosecute suspect","date":"2025-12"},"persistent_id":"590f6192d37666a144399b7947b27519cd482b573988b7b235ccc23953c4669e","id":132242028,"location_subtype":"","month":"2025-11"},{"category":"violent-crime","location_type":"Force","location":{"latitude":"53.870796","street":{"id":2113211,"name":"On or near Shaw Leys"},"longitude":"-1.691466"},"context":"","outcome_status":{"category":"Unable to prosecute suspect","date":"2025-12"},"persistent_id":"2c190cd09e7182905d423fc70b53a6f869364e3cbb7b94fd11a702c3d5a68770","id":132241507,"location_subtype":"","month":"2025-11"},{"category":"violent-crime","location_type":"Force","location":{"latitude":"53.865812","street":{"id":2113712,"name":"On or near Supermarket"},"longitude":"-1.682592"},"context":"","outcome_status":{"category":"Unable to prosecute suspect","date":"2026-01"},"persistent_id":"4d2a71388ce7dfb6d1499eba0af5e809257fb2a0477b4fcea55d85a69953dccc","id":132241053,"location_subtype":"","month":"2025-11"},{"category":"violent-crime","location_type":"Force","location":{"latitude":"53.865143","street":{"id":2113423,"name":"On or near Well Lane"},"longitude":"-1.688041"},"context":"","outcome_status":{"category":"Under investigation","date":"2025-11"},"persistent_id":"c1be75490bdc3709d032866a7a78011e9029c9854f747fa7a1b5adc0c85cdb11","id":132238870,"location_subtype":"","month":"2025-11"},{"category":"violent-crime","location_type":"Force","location":{"latitude":"53.865192","street":{"id":2113536,"name":"On or near Clayton Grove"},"longitude":"-1.686109"},"context":"","outcome_status":{"category":"Investigation complete; no suspect identified","date":"2025-11"},"persistent_id":"d3788945d8cc38ddc0c4ea8b740e07eb1c98347964b3d250a98efc2d01cf96d6","id":132239136,"location_subtype":"","month":"2025-11"},{"category":"violent-crime","location_type":"Force","location":{"latitude":"53.858508","street":{"id":2113950,"name":"On or near Markham Croft"},"longitude":"-1.677189"},"context":"","outcome_status":{"category":"Under investigation","date":"2025-11"},"persistent_id":"7232278a355ce3bee2f4b18e23cd9fe2dcf95ae4bb7a6746399c322d93e0ebf6","id":132238747,"location_subtype":"","month":"2025-11"},{"category":"violent-crime","location_type":"Force","location":{"latitude":"53.871767","street":{"id":2113184,"name":"On or near Raywood Close"},"longitude":"-1.691504"},"context":"","outcome_status":{"category":"Investigation complete; no suspect identified","date":"2026-01"},"persistent_id":"ae4bfabc8c75309fa9613b0a216a607cf4b6fc11fd74de960a3269407c16c98d","id":132238500,"location_subtype":"","month":"2025-11"},{"category":"violent-crime","location_type":"Force","location":{"latitude":"53.868676","street":{"id":2113414,"name":"On or near Netherfield Close"},"longitude":"-1.688394"},"context":"","outcome_status":{"category":"Action to be taken by another organisation","date":"2025-11"},"persistent_id":"c5164e70c6b2c8e77b79e45c74e73a73fab4cdf7eae8d322d56b9f6d78eab564","id":132237674,"location_subtype":"","month":"2025-11"},{"category":"violent-crime","location_type":"Force","location":{"latitude":"53.868676","street":{"id":2113414,"name":"On or near Netherfield Close"},"longitude":"-1.688394"},"context":"","outcome_status":{"category":"Action to be taken by another organisation","date":"2025-11"},"persistent_id":"9beb0a4e9147a5496a1af417bb3cde9f0682b1ad24c88068739650c27fec4c8a","id":132237680,"location_subtype":"","month":"2025-11"},{"category":"violent-crime","location_type":"Force","location":{"latitude":"53.856230","street":{"id":2113591,"name":"On or near Quakers Lane"},"longitude":"-1.685857"},"context":"","outcome_status":{"category":"Further action is not in the public interest","date":"2026-01"},"persistent_id":"b3ddc65a16bc8ec8a6e185db7ed16499a3ac6dea702a469f7acddf7b304488f3","id":132242468,"location_subtype":"","month":"2025-11"},{"category":"violent-crime","location_type":"Force","location":{"latitude":"53.852361","street":{"id":2113948,"name":"On or near Larkfield Mount"},"longitude":"-1.677540"},"context":"","outcome_status":{"category":"Investigation complete; no suspect identified","date":"2025-11"},"persistent_id":"21ed3c8d5be1fdfac7e332583f6366a6baf6138668df696d7731337c6ad5be95","id":132235294,"location_subtype":"","month":"2025-11"},{"category":"violent-crime","location_type":"Force","location":{"latitude":"53.862950","street":{"id":2114253,"name":"On or near Bayton Lane"},"longitude":"-1.671316"},"context":"","outcome_status":{"category":"Unable to prosecute suspect","date":"2025-11"},"persistent_id":"0fb9ae15be5caccf2add375c45af8d1b731d3e76dccbae17acf301f801371e35","id":132235295,"location_subtype":"","month":"2025-11"},{"category":"violent-crime","location_type":"Force","location":{"latitude":"53.866794","street":{"id":2112533,"name":"On or near Dibb Lane"},"longitude":"-1.700939"},"context":"","outcome_status":{"category":"Under investigation","date":"2025-11"},"persistent_id":"024af050b46231dffe85daee39ec02b55a3c2ba0fb1ff5af47307c8bd99861f8","id":132235543,"location_subtype":"","month":"2025-11"},{"category":"violent-crime","location_type":"Force","location":{"latitude":"53.849164","street":{"id":2114395,"name":"On or near Carr Close"},"longitude":"-1.668520"},"context":"","outcome_status":{"category":"Under investigation","date":"2025-11"},"persistent_id":"8a1f8c526eb6e27ec869b216f933576f93da6d6d240b55c616cc6d3dabbf8b58","id":132234387,"location_subtype":"","month":"2025-11"},{"category":"violent-crime","location_type":"Force","location":{"latitude":"53.866895","street":{"id":2112897,"name":"On or near Swaine Hill Street"},"longitude":"-1.694977"},"context":"","outcome_status":{"category":"Investigation complete; no suspect identified","date":"2025-11"},"persistent_id":"c6e84394bd36aed23b391ee1a9958939f1b3f4d056ca0f96eb58ca6c23b481a8","id":132234367,"location_subtype":"","month":"2025-11"},{"category":"violent-crime","location_type":"Force","location":{"latitude":"53.854777","street":{"id":2113857,"name":"On or near Batter Lane"},"longitude":"-1.680273"},"context":"","outcome_status":{"category":"Unable to prosecute suspect","date":"2025-11"},"persistent_id":"37160ab52497e2a2b9de81881b72f0727d6c2c99726052cecd06432960b1e7f5","id":132234274,"location_subtype":"","month":"2025-11"},{"category":"violent-crime","location_type":"Force","location":{"latitude":"53.861876","street":{"id":2113686,"name":"On or near Henshaw Oval"},"longitude":"-1.682865"},"context":"","outcome_status":{"category":"Unable to prosecute suspect","date":"2025-11"},"persistent_id":"1a7354d37b97ffba17b846c6fa437a916283a35393fdd2d9c331a721810bc542","id":132231848,"location_subtype":"","month":"2025-11"},{"category":"violent-crime","location_type":"Force","location":{"latitude":"53.867913","street":{"id":2113903,"name":"On or near Cavendish Street"},"longitude":"-1.678637"},"context":"","outcome_status":{"category":"Under investigation","date":"2025-11"},"persistent_id":"20588d959a019eff6f02109f7dae976944ff8135fef0228e22488fa708eddb04","id":132232102,"location_subtype":"","month":"2025-11"},{"category":"violent-crime","location_type":"Force","location":{"latitude":"53.858893","street":{"id":2113419,"name":"On or near Rawdon Park"},"longitude":"-1.686764"},"context":"","outcome_status":{"category":"Unable to prosecute suspect","date":"2025-11"},"persistent_id":"3f6b77f4f98a207404a7cc07cde8cd59f1977c93683c64cc98b0262bd572d863","id":132231783,"location_subtype":"","month":"2025-11"},{"category":"violent-crime","location_type":"Force","location":{"latitude":"53.867913","street":{"id":2113903,"name":"On or near Cavendish Street"},"longitude":"-1.678637"},"context":"","outcome_status":{"category":"Under investigation","date":"2025-11"},"persistent_id":"0127f476e0787c624d819de70846b30559aed7b178a2f1141b65bbc8f6c2a614","id":132231752,"location_subtype":"","month":"2025-11"},{"category":"violent-crime","location_type":"Force","location":{"latitude":"53.861876","street":{"id":2113489,"name":"On or near Henshaw Crescent"},"longitude":"-1.686179"},"context":"","outcome_status":{"category":"Unable to prosecute suspect","date":"2025-12"},"persistent_id":"cf9354a484f631e77866bb92ea9f324a9432b79ac53eaaf1ca12771df18bfee7","id":132231748,"location_subtype":"","month":"2025-11"},{"category":"violent-crime","location_type":"Force","location":{"latitude":"53.856675","street":{"id":2113189,"name":"On or near Mawcroft Grange Drive"},"longitude":"-1.690886"},"context":"","outcome_status":{"category":"Unable to prosecute suspect","date":"2025-11"},"persistent_id":"501b8bf671b3220b0d6ff030584b8ffd077bdd658a0336102bf815678cf86370","id":132231551,"location_subtype":"","month":"2025-11"},{"category":"violent-crime","location_type":"Force","location":{"latitude":"53.856675","street":{"id":2113189,"name":"On or near Mawcroft Grange Drive"},"longitude":"-1.690886"},"context":"","outcome_status":{"category":"Unable to prosecute suspect","date":"2025-11"},"persistent_id":"b3f299ca50f0342c7b4eb9202ea89314c09616ed8958720971ae69c1f69b778b","id":132231443,"location_subtype":"","month":"2025-11"},{"category":"violent-crime","location_type":"Force","location":{"latitude":"53.848137","street":{"id":2113765,"name":"On or near Cliffe Lane"},"longitude":"-1.677390"},"context":"","outcome_status":{"category":"Unable to prosecute suspect","date":"2025-11"},"persistent_id":"3cecc339a792fca1cae6e98c65f1ba49cdae42eca087a8a8f3ba72b98c1b5a85","id":132231661,"location_subtype":"","month":"2025-11"},{"category":"violent-crime","location_type":"Force","location":{"latitude":"53.870796","street":{"id":2113211,"name":"On or near Shaw Leys"},"longitude":"-1.691466"},"context":"","outcome_status":{"category":"Unable to prosecute suspect","date":"2026-01"},"persistent_id":"493a68df7ae8e8daabb64ac36ec912be94d41ca2f5fb18d3e5eb015cf48cc5e7","id":132230491,"location_subtype":"","month":"2025-11"},{"category":"violent-crime","location_type":"Force","location":{"latitude":"53.871025","street":{"id":2113253,"name":"On or near Banksfield Rise"},"longitude":"-1.689533"},"context":"","outcome_status":{"category":"Unable to prosecute suspect","date":"2025-11"},"persistent_id":"fdba947b298affc9a273e4d61aac6c7d863e67dfa870fc4df73a0595866909ae","id":132230568,"location_subtype":"","month":"2025-11"},{"category":"violent-crime","location_type":"Force","location":{"latitude":"53.867366","street":{"id":2113762,"name":"On or near Marshall Street"},"longitude":"-1.682413"},"context":"","outcome_status":{"category":"Under investigation","date":"2025-11"},"persistent_id":"5d433beaf6018656b70fba3987630c4449219fb2a0fcbea173e35e2f515205a2","id":132229360,"location_subtype":"","month":"2025-11"},{"category":"violent-crime","location_type":"Force","location":{"latitude":"53.871767","street":{"id":2113184,"name":"On or near Raywood Close"},"longitude":"-1.691504"},"context":"","outcome_status":{"category":"Unable to prosecute suspect","date":"2026-01"},"persistent_id":"110f325beb67010c1542afabf3c9ca0789336eea24b0736ef150cef18e1749bb","id":132229291,"location_subtype":"","month":"2025-11"},{"category":"violent-crime","location_type":"Force","location":{"latitude":"53.854777","street":{"id":2113857,"name":"On or near Batter Lane"},"longitude":"-1.680273"},"context":"","outcome_status":{"category":"Unable to prosecute suspect","date":"2025-12"},"persistent_id":"ddf740c1a0d808ec03bc8a081c4557787fafee7e69e5dfd8948b8c8a77a43611","id":132228839,"location_subtype":"","month":"2025-11"},{"category":"violent-crime","location_type":"Force","location":{"latitude":"53.855957","street":{"id":2113177,"name":"On or near Lime Grove"},"longitude":"-1.691256"},"context":"","outcome_status":{"category":"Unable to prosecute suspect","date":"2025-12"},"persistent_id":"5fbc53798b73d2aaa1d9eb21957e554a17ec745964690f69127197d43e4b7048","id":132228769,"location_subtype":"","month":"2025-11"},{"category":"violent-crime","location_type":"Force","location":{"latitude":"53.871767","street":{"id":2113184,"name":"On or near Raywood Close"},"longitude":"-1.691504"},"context":"","outcome_status":{"category":"Unable to prosecute suspect","date":"2026-01"},"persistent_id":"689004ddfde2dc69f149e7bb6ef2670dd09b9bcb20c380c6024c3e0ae47377a0","id":132228462,"location_subtype":"","month":"2025-11"},{"category":"violent-crime","location_type":"Force","location":{"latitude":"53.870802","street":{"id":2113851,"name":"On or near Haw Avenue"},"longitude":"-1.679999"},"context":"","outcome_status":{"category":"Investigation complete; no suspect identified","date":"2025-11"},"persistent_id":"121a6c791224a4425258b52617646f518a44b5631d9d2999bbb171a3965c7beb","id":132228211,"location_subtype":"","month":"2025-11"},{"category":"violent-crime","location_type":"Force","location":{"latitude":"53.870796","street":{"id":2113211,"name":"On or near Shaw Leys"},"longitude":"-1.691466"},"context":"","outcome_status":{"category":"Under investigation","date":"2025-11"},"persistent_id":"c0b92deaec7627d017cb224e002d9abd950b6e0b3f04f6c4bf7219b27528b86e","id":132243540,"location_subtype":"","month":"2025-11"},{"category":"violent-crime","location_type":"Force","location":{"latitude":"53.855957","street":{"id":2113177,"name":"On or near Lime Grove"},"longitude":"-1.691256"},"context":"","outcome_status":{"category":"Investigation complete; no suspect identified","date":"2025-12"},"persistent_id":"bf5d6513d11cdd712efd1da50b5d01511863e9d01191a890b65273898cb038b3","id":132226971,"location_subtype":"","month":"2025-11"},{"category":"violent-crime","location_type":"Force","location":{"latitude":"53.867151","street":{"id":2113881,"name":"On or near Carlton Terrace"},"longitude":"-1.679343"},"context":"","outcome_status":{"category":"Investigation complete; no suspect identified","date":"2025-11"},"persistent_id":"6ee63f279bb9e2787819201acccc3f9007fc9e60cd62d3286867b0c54ca3404c","id":132226539,"location_subtype":"","month":"2025-11"},{"category":"violent-crime","location_type":"Force","location":{"latitude":"53.870796","street":{"id":2113211,"name":"On or near Shaw Leys"},"longitude":"-1.691466"},"context":"","outcome_status":{"category":"Investigation complete; no suspect identified","date":"2025-11"},"persistent_id":"1658652a5d60b93f0ed73c37af1d09d6f22e6b115be0c7a1d9850f31c4746f73","id":132225586,"location_subtype":"","month":"2025-11"},{"category":"violent-crime","location_type":"Force","location":{"latitude":"53.855925","street":{"id":2113533,"name":"On or near Gladstone Crescent"},"longitude":"-1.685965"},"context":"","outcome_status":{"category":"Unable to prosecute suspect","date":"2026-01"},"persistent_id":"c0aa2d657945694fa2d3aebb98691988bcb9fac467ce44a43fed44de0bdc5197","id":132243652,"location_subtype":"","month":"2025-11"},{"category":"violent-crime","location_type":"Force","location":{"latitude":"53.861332","street":{"id":2114075,"name":"On or near Harrogate Road"},"longitude":"-1.674582"},"context":"","outcome_status":{"category":"Investigation complete; no suspect identified","date":"2025-12"},"persistent_id":"8434c917caf60c0f6b82814694fab185e5fa222743032a2b56d5d146e2ddb8c9","id":132240405,"location_subtype":"","month":"2025-11"},{"category":"other-crime","location_type":"Force","location":{"latitude":"53.867697","street":{"id":2114383,"name":"On or near Victoria Avenue"},"longitude":"-1.668526"},"context":"","outcome_status":{"category":"Investigation complete; no suspect identified","date":"2025-11"},"persistent_id":"bed6e6efc80c532285107c757e00456cdb40f1a0a704e66e692e48e7b0118f51","id":132241544,"location_subtype":"","month":"2025-11"},{"category":"other-crime","location_type":"Force","location":{"latitude":"53.867697","street":{"id":2114383,"name":"On or near Victoria Avenue"},"longitude":"-1.668526"},"context":"","outcome_status":{"category":"Under investigation","date":"2025-11"},"persistent_id":"3bcd62aac1f10d02e85dfd329925e0663c8704904991993fb6251f3b8bfa20c7","id":132246011,"location_subtype":"","month":"2025-11"},{"category":"other-crime","location_type":"Force","location":{"latitude":"53.870119","street":{"id":2113504,"name":"On or near Millbank"},"longitude":"-1.686635"},"context":"","outcome_status":{"category":"Further action is not in the public interest","date":"2025-12"},"persistent_id":"49334a53d6ab50d9aa00262e0d6764777593a90c0fa41696cd2c70064a0c1652","id":132228437,"location_subtype":"","month":"2025-11"},{"category":"other-crime","location_type":"Force","location":{"latitude":"53.855812","street":{"id":2113600,"name":"On or near Cherry Lea Court"},"longitude":"-1.684127"},"context":"","outcome_status":{"category":"Investigation complete; no suspect identified","date":"2025-11"},"persistent_id":"7c9a9c9a4bad80ba6c4ce2aa2e712dc4370e8714d6fc167b2fe4f40af2c6238f","id":132229294,"location_subtype":"","month":"2025-11"},{"category":"other-crime","location_type":"Force","location":{"latitude":"53.867697","street":{"id":2114383,"name":"On or near Victoria Avenue"},"longitude":"-1.668526"},"context":"","outcome_status":{"category":"Under investigation","date":"2025-11"},"persistent_id":"0db391af5412a92c109fa161e396fa267f316b95d1798b0eb665e461b2068a32","id":132244836,"location_subtype":"","month":"2025-11"},{"category":"other-crime","location_type":"Force","location":{"latitude":"53.867697","street":{"id":2114383,"name":"On or near Victoria Avenue"},"longitude":"-1.668526"},"context":"","outcome_status":{"category":"Awaiting court outcome","date":"2025-11"},"persistent_id":"b476d8bd68fce06e6d8aea9ccd23aa0b13128aa2b9ba43f7731630b46159ba3f","id":132241632,"location_subtype":"","month":"2025-11"},{"category":"other-crime","location_type":"Force","location":{"latitude":"53.867913","street":{"id":2113903,"name":"On or near Cavendish Street"},"longitude":"-1.678637"},"context":"","outcome_status":{"category":"Investigation complete; no suspect identified","date":"2026-01"},"persistent_id":"77e687f8b8c15f1d2b46a9f59fa3f797fa142169c180d253dc14b92a0bc3454a","id":132234565,"location_subtype":"","month":"2025-11"}]