[{"category":"anti-social-behaviour","location_type":"Force","location":{"latitude":"53.904194","street":{"id":2113165,"name":"On or near Further/higher Educational Building"},"longitude":"-1.691053"},"context":"","outcome_status":null,"persistent_id":"","id":128102666,"location_subtype":"","month":"2025-05"},{"category":"anti-social-behaviour","location_type":"Force","location":{"latitude":"53.905493","street":{"id":2113052,"name":"On or near Market Street"},"longitude":"-1.692839"},"context":"","outcome_status":null,"persistent_id":"","id":128101481,"location_subtype":"","month":"2025-05"},{"category":"anti-social-behaviour","location_type":"Force","location":{"latitude":"53.910373","street":{"id":2112828,"name":"On or near Newall Hall Park"},"longitude":"-1.696274"},"context":"","outcome_status":null,"persistent_id":"","id":128101307,"location_subtype":"","month":"2025-05"},{"category":"anti-social-behaviour","location_type":"Force","location":{"latitude":"53.908499","street":{"id":2112862,"name":"On or near Mill Lane"},"longitude":"-1.694339"},"context":"","outcome_status":null,"persistent_id":"","id":128101007,"location_subtype":"","month":"2025-05"},{"category":"anti-social-behaviour","location_type":"Force","location":{"latitude":"53.905493","street":{"id":2113052,"name":"On or near Market Street"},"longitude":"-1.692839"},"context":"","outcome_status":null,"persistent_id":"","id":128101000,"location_subtype":"","month":"2025-05"},{"category":"anti-social-behaviour","location_type":"Force","location":{"latitude":"53.906211","street":{"id":2113110,"name":"On or near The Stables"},"longitude":"-1.692484"},"context":"","outcome_status":null,"persistent_id":"","id":128100918,"location_subtype":"","month":"2025-05"},{"category":"anti-social-behaviour","location_type":"Force","location":{"latitude":"53.906243","street":{"id":2112976,"name":"On or near Clapgate"},"longitude":"-1.694356"},"context":"","outcome_status":null,"persistent_id":"","id":128101342,"location_subtype":"","month":"2025-05"},{"category":"anti-social-behaviour","location_type":"Force","location":{"latitude":"53.905493","street":{"id":2113052,"name":"On or near Market Street"},"longitude":"-1.692839"},"context":"","outcome_status":null,"persistent_id":"","id":128102984,"location_subtype":"","month":"2025-05"},{"category":"anti-social-behaviour","location_type":"Force","location":{"latitude":"53.909773","street":{"id":2112790,"name":"On or near Billams Hill"},"longitude":"-1.697070"},"context":"","outcome_status":null,"persistent_id":"","id":128102951,"location_subtype":"","month":"2025-05"},{"category":"burglary","location_type":"Force","location":{"latitude":"53.902265","street":{"id":2112867,"name":"On or near Whiteley Croft Road"},"longitude":"-1.696013"},"context":"","outcome_status":{"category":"Investigation complete; no suspect identified","date":"2025-06"},"persistent_id":"66abf60eecced14503c43b59e6e1f03ac5a531bfeda21b10d54e4a78015b72ae","id":128099126,"location_subtype":"","month":"2025-05"},{"category":"burglary","location_type":"Force","location":{"latitude":"53.901056","street":{"id":2112893,"name":"On or near Rills Mead"},"longitude":"-1.693968"},"context":"","outcome_status":{"category":"Investigation complete; no suspect identified","date":"2025-08"},"persistent_id":"2edfc9ca0c977064c3b10f0220aa66180607e627cafa05149d47757600520190","id":128097735,"location_subtype":"","month":"2025-05"},{"category":"burglary","location_type":"Force","location":{"latitude":"53.902823","street":{"id":2112819,"name":"On or near Falcon Close"},"longitude":"-1.696314"},"context":"","outcome_status":{"category":"Investigation complete; no suspect identified","date":"2025-05"},"persistent_id":"7b5f7c113f5cfacda5c148d4a94f2a3320c07cafdac3d92ef7f87182a245e5f3","id":128097998,"location_subtype":"","month":"2025-05"},{"category":"burglary","location_type":"Force","location":{"latitude":"53.902265","street":{"id":2112867,"name":"On or near Whiteley Croft Road"},"longitude":"-1.696013"},"context":"","outcome_status":{"category":"Investigation complete; no suspect identified","date":"2025-07"},"persistent_id":"50731faa247896763a773c19cff6688c9a68ef76d490bd714193db1bb5b0e438","id":128097492,"location_subtype":"","month":"2025-05"},{"category":"burglary","location_type":"Force","location":{"latitude":"53.908148","street":{"id":2114011,"name":"On or near Sports/recreation Area"},"longitude":"-1.671966"},"context":"","outcome_status":{"category":"Investigation complete; no suspect identified","date":"2025-05"},"persistent_id":"2205071e35bafbaf90df9da7554c1d129c798fe479aa3bd5365df2bc9a56df46","id":128082035,"location_subtype":"","month":"2025-05"},{"category":"burglary","location_type":"Force","location":{"latitude":"53.914717","street":{"id":2113219,"name":"On or near Wrenbeck Drive"},"longitude":"-1.690442"},"context":"","outcome_status":{"category":"Investigation complete; no suspect identified","date":"2025-06"},"persistent_id":"ad7e99f386324e905a9aab12e53b364c2dbbf54e6a49c2eb7644ddea9e73b800","id":128091079,"location_subtype":"","month":"2025-05"},{"category":"burglary","location_type":"Force","location":{"latitude":"53.915200","street":{"id":2113333,"name":"On or near Wrenbeck Close"},"longitude":"-1.689388"},"context":"","outcome_status":{"category":"Investigation complete; no suspect identified","date":"2025-05"},"persistent_id":"b03c4708ea6690f9ce429bce2ec3a6b75b88c6ba3ea79d4a3d1fa2fa091e5152","id":128092809,"location_subtype":"","month":"2025-05"},{"category":"burglary","location_type":"Force","location":{"latitude":"53.902642","street":{"id":2113607,"name":"On or near Cambridge Grove"},"longitude":"-1.685326"},"context":"","outcome_status":{"category":"Court result unavailable","date":"2025-11"},"persistent_id":"dec6f71b7a35c3fe0c4212fb07b326ae59cb6199bd6b31771067aa3d016c547a","id":128082259,"location_subtype":"","month":"2025-05"},{"category":"burglary","location_type":"Force","location":{"latitude":"53.903239","street":{"id":2113497,"name":"On or near Shirley Close"},"longitude":"-1.686768"},"context":"","outcome_status":{"category":"Court result unavailable","date":"2025-11"},"persistent_id":"7f227836f9677c99c04fef25ec398dc02138b0194d122becfeefae842108e285","id":128085274,"location_subtype":"","month":"2025-05"},{"category":"burglary","location_type":"Force","location":{"latitude":"53.903239","street":{"id":2113497,"name":"On or near Shirley Close"},"longitude":"-1.686768"},"context":"","outcome_status":{"category":"Investigation complete; no suspect identified","date":"2025-05"},"persistent_id":"ce77b70b56ecfd5e0f9877b2826c9a6821d3c06f5475b95d4e370c34a9c2fc59","id":128085479,"location_subtype":"","month":"2025-05"},{"category":"criminal-damage-arson","location_type":"Force","location":{"latitude":"53.904733","street":{"id":2112682,"name":"On or near Guycroft"},"longitude":"-1.698096"},"context":"","outcome_status":{"category":"Investigation complete; no suspect identified","date":"2025-06"},"persistent_id":"d68c96cbe4a07c93b008670373b813248b9eeada8be64708118c1dbae5b09970","id":128078282,"location_subtype":"","month":"2025-05"},{"category":"other-theft","location_type":"Force","location":{"latitude":"53.900645","street":{"id":2113758,"name":"On or near Leeds Road"},"longitude":"-1.681080"},"context":"","outcome_status":{"category":"Unable to prosecute suspect","date":"2025-05"},"persistent_id":"fc27f267a7ec8a5395c3a513832feb13d358987013427105fae7ad04af101cca","id":128093492,"location_subtype":"","month":"2025-05"},{"category":"public-order","location_type":"Force","location":{"latitude":"53.903462","street":{"id":2112576,"name":"On or near Avenue Terrace"},"longitude":"-1.700190"},"context":"","outcome_status":{"category":"Unable to prosecute suspect","date":"2025-05"},"persistent_id":"3a6b8a00a4b17afff51c7c569b7421ec430680e4b77c938cb5008d0759aca3f1","id":128095937,"location_subtype":"","month":"2025-05"},{"category":"public-order","location_type":"Force","location":{"latitude":"53.905669","street":{"id":2112872,"name":"On or near Beech Hill"},"longitude":"-1.695060"},"context":"","outcome_status":{"category":"Investigation complete; no suspect identified","date":"2025-05"},"persistent_id":"84053328a848608ae8fe3f9b4dc16ee2b9d6f168cbcc7a0e9c07a454bd110399","id":128079294,"location_subtype":"","month":"2025-05"},{"category":"public-order","location_type":"Force","location":{"latitude":"53.913520","street":{"id":2112305,"name":"On or near Weston Crescent"},"longitude":"-1.704137"},"context":"","outcome_status":{"category":"Unable to prosecute suspect","date":"2025-06"},"persistent_id":"2d3edbdbed64041d10c14a5edaa717240262e34984bf9fec2f8033773ff3f1a0","id":128098016,"location_subtype":"","month":"2025-05"},{"category":"public-order","location_type":"Force","location":{"latitude":"53.905669","street":{"id":2112872,"name":"On or near Beech Hill"},"longitude":"-1.695060"},"context":"","outcome_status":{"category":"Investigation complete; no suspect identified","date":"2025-05"},"persistent_id":"7013523dde4ed20a7336a1e1b30de43edd6f97ead04e934468dcafa4ba4da522","id":128093321,"location_subtype":"","month":"2025-05"},{"category":"public-order","location_type":"Force","location":{"latitude":"53.904613","street":{"id":2113020,"name":"On or near New Market"},"longitude":"-1.693135"},"context":"","outcome_status":{"category":"Investigation complete; no suspect identified","date":"2025-05"},"persistent_id":"484d3aa6b026e4a28c3f9d63e4f81bd5b9d4031909a082abe248d04ff49d8f39","id":128080985,"location_subtype":"","month":"2025-05"},{"category":"robbery","location_type":"Force","location":{"latitude":"53.902484","street":{"id":2113023,"name":"On or near Station Road"},"longitude":"-1.693485"},"context":"","outcome_status":{"category":"Status update unavailable","date":"2025-09"},"persistent_id":"2c097540d603819cf5dabf2cac41366006fd16f48a790a51b01cc57834a97a73","id":128085288,"location_subtype":"","month":"2025-05"},{"category":"shoplifting","location_type":"Force","location":{"latitude":"53.902484","street":{"id":2113023,"name":"On or near Station Road"},"longitude":"-1.693485"},"context":"","outcome_status":{"category":"Court result unavailable","date":"2026-01"},"persistent_id":"dc11422876a55531da4ca1b9fdb96b15dc0e51b7d1f5e24981d33fea7e353b04","id":128077115,"location_subtype":"","month":"2025-05"},{"category":"shoplifting","location_type":"Force","location":{"latitude":"53.905236","street":{"id":2112991,"name":"On or near Kirkgate"},"longitude":"-1.694272"},"context":"","outcome_status":{"category":"Investigation complete; no suspect identified","date":"2025-06"},"persistent_id":"cfc39fd5851462ba8e2b211cd1cccc933570e9fef39d6d6d0e0e516bb5b8fbfc","id":128095434,"location_subtype":"","month":"2025-05"},{"category":"shoplifting","location_type":"Force","location":{"latitude":"53.902484","street":{"id":2113023,"name":"On or near Station Road"},"longitude":"-1.693485"},"context":"","outcome_status":{"category":"Investigation complete; no suspect identified","date":"2025-06"},"persistent_id":"a2baa6ab33d90ff36e4601313132fe0499649b3e3ff4e10235b5eec7932e4c9b","id":128093962,"location_subtype":"","month":"2025-05"},{"category":"shoplifting","location_type":"Force","location":{"latitude":"53.902484","street":{"id":2113023,"name":"On or near Station Road"},"longitude":"-1.693485"},"context":"","outcome_status":{"category":"Investigation complete; no suspect identified","date":"2025-05"},"persistent_id":"5bc603223b72d6c8ff2698d959f9194912994903e0317743824f1e517ffb6941","id":128076810,"location_subtype":"","month":"2025-05"},{"category":"vehicle-crime","location_type":"Force","location":{"latitude":"53.903601","street":{"id":2112858,"name":"On or near Parking Area"},"longitude":"-1.694649"},"context":"","outcome_status":{"category":"Investigation complete; no suspect identified","date":"2025-07"},"persistent_id":"d6a3cf1ab8efe99deb2af87fc9bf446a07b06e94d6267a686387e696d9287d80","id":128096984,"location_subtype":"","month":"2025-05"},{"category":"vehicle-crime","location_type":"Force","location":{"latitude":"53.908499","street":{"id":2112862,"name":"On or near Mill Lane"},"longitude":"-1.694339"},"context":"","outcome_status":{"category":"Investigation complete; no suspect identified","date":"2025-05"},"persistent_id":"94c60880ba9fa9270301d82fe3c0ddc264a8469305f7e9e88feee1a57f851470","id":128093055,"location_subtype":"","month":"2025-05"},{"category":"vehicle-crime","location_type":"Force","location":{"latitude":"53.905493","street":{"id":2113052,"name":"On or near Market Street"},"longitude":"-1.692839"},"context":"","outcome_status":{"category":"Investigation complete; no suspect identified","date":"2025-05"},"persistent_id":"9ba248f751f5f16a4999334a19d44db92fd5eb8f9c5e7511d404cacaa39cc186","id":128088193,"location_subtype":"","month":"2025-05"},{"category":"vehicle-crime","location_type":"Force","location":{"latitude":"53.914013","street":{"id":2113378,"name":"On or near Turner Crescent"},"longitude":"-1.689169"},"context":"","outcome_status":{"category":"Investigation complete; no suspect identified","date":"2025-05"},"persistent_id":"1431685e5cbb57b115530b8aabe0bcdb650ccc2f37d1e154d9a3684e2c756185","id":128090559,"location_subtype":"","month":"2025-05"},{"category":"vehicle-crime","location_type":"Force","location":{"latitude":"53.914013","street":{"id":2113378,"name":"On or near Turner Crescent"},"longitude":"-1.689169"},"context":"","outcome_status":{"category":"Investigation complete; no suspect identified","date":"2025-05"},"persistent_id":"c17dee3420769607bf7e65c404b7df1a72d63dc39340377ce136d752a808478a","id":128090239,"location_subtype":"","month":"2025-05"},{"category":"vehicle-crime","location_type":"Force","location":{"latitude":"53.911845","street":{"id":2112630,"name":"On or near Newall Avenue"},"longitude":"-1.699004"},"context":"","outcome_status":{"category":"Investigation complete; no suspect identified","date":"2025-05"},"persistent_id":"e601ebd6e14253ad26993455d783c3f8ad3c66782d967393cba5b3c1923ae486","id":128088696,"location_subtype":"","month":"2025-05"},{"category":"violent-crime","location_type":"Force","location":{"latitude":"53.905493","street":{"id":2113052,"name":"On or near Market Street"},"longitude":"-1.692839"},"context":"","outcome_status":{"category":"Unable to prosecute suspect","date":"2025-06"},"persistent_id":"58246bdcd2d22db70f648685abb5dba693f84406c0d34ea3f9f363611edf77a6","id":128099771,"location_subtype":"","month":"2025-05"},{"category":"violent-crime","location_type":"Force","location":{"latitude":"53.904586","street":{"id":2113298,"name":"On or near Crow Lane"},"longitude":"-1.689756"},"context":"","outcome_status":{"category":"Unable to prosecute suspect","date":"2025-07"},"persistent_id":"c897fefe7b54e94ada1b0d4cd2eecd414af87a53402ffacdc8db8f689a59f671","id":128088545,"location_subtype":"","month":"2025-05"},{"category":"violent-crime","location_type":"Force","location":{"latitude":"53.915875","street":{"id":2113050,"name":"On or near The Gills"},"longitude":"-1.693129"},"context":"","outcome_status":{"category":"Status update unavailable","date":"2025-09"},"persistent_id":"aa5eeddee5a98bdae15111e2457c54705b71bb0e55b3bf71c27ea1c16c6a247e","id":128088105,"location_subtype":"","month":"2025-05"},{"category":"violent-crime","location_type":"Force","location":{"latitude":"53.904586","street":{"id":2113298,"name":"On or near Crow Lane"},"longitude":"-1.689756"},"context":"","outcome_status":{"category":"Unable to prosecute suspect","date":"2025-05"},"persistent_id":"0b1ce155b2580f54697252beb3cc36fadbbc08bcc8b8dd7c78d5466dc9affc9e","id":128086824,"location_subtype":"","month":"2025-05"},{"category":"violent-crime","location_type":"Force","location":{"latitude":"53.905493","street":{"id":2113052,"name":"On or near Market Street"},"longitude":"-1.692839"},"context":"","outcome_status":{"category":"Unable to prosecute suspect","date":"2025-06"},"persistent_id":"838e35c17924b72ddfc6146087038ce8e2896acc6be9a43b7e15bb2fd51025e8","id":128099766,"location_subtype":"","month":"2025-05"},{"category":"violent-crime","location_type":"Force","location":{"latitude":"53.914717","street":{"id":2113219,"name":"On or near Wrenbeck Drive"},"longitude":"-1.690442"},"context":"","outcome_status":{"category":"Status update unavailable","date":"2025-09"},"persistent_id":"77a7589adc018ab579cd5d67c26f0bccf2a760d399ff9637209bd858c6468d66","id":128099864,"location_subtype":"","month":"2025-05"},{"category":"violent-crime","location_type":"Force","location":{"latitude":"53.901524","street":{"id":2113396,"name":"On or near Craven Street"},"longitude":"-1.687283"},"context":"","outcome_status":{"category":"Unable to prosecute suspect","date":"2025-05"},"persistent_id":"3fd56be1ac1ad5014fd2df88296eff87a89bd5861eaaf06ebbfcb0b3abbd5576","id":128083545,"location_subtype":"","month":"2025-05"},{"category":"violent-crime","location_type":"Force","location":{"latitude":"53.905854","street":{"id":2113317,"name":"On or near Manchester Square"},"longitude":"-1.689869"},"context":"","outcome_status":{"category":"Investigation complete; no suspect identified","date":"2025-05"},"persistent_id":"45456884cdbafa3afb44460a0e1a5fd84dc615f3aa28f778bacff4b70dc3d4e7","id":128083346,"location_subtype":"","month":"2025-05"},{"category":"violent-crime","location_type":"Force","location":{"latitude":"53.911845","street":{"id":2112630,"name":"On or near Newall Avenue"},"longitude":"-1.699004"},"context":"","outcome_status":{"category":"Unable to prosecute suspect","date":"2025-05"},"persistent_id":"1392113186ea054c23485bca48d5ec041f87054b967ef0a734099f7c149d60b6","id":128083015,"location_subtype":"","month":"2025-05"},{"category":"violent-crime","location_type":"Force","location":{"latitude":"53.915082","street":{"id":2112826,"name":"On or near The Crescent"},"longitude":"-1.696179"},"context":"","outcome_status":{"category":"Unable to prosecute suspect","date":"2025-05"},"persistent_id":"05d8750ce4119e5c3b89953fd45608bbcc9a094a98f6fee0924dc1fc7453b865","id":128082362,"location_subtype":"","month":"2025-05"},{"category":"violent-crime","location_type":"Force","location":{"latitude":"53.909773","street":{"id":2112790,"name":"On or near Billams Hill"},"longitude":"-1.697070"},"context":"","outcome_status":{"category":"Investigation complete; no suspect identified","date":"2025-07"},"persistent_id":"bff3c6ad99cb62e1cabc7aa7f1fcb12dbe822e131596b8f0f05238ecd5ba33ae","id":128099968,"location_subtype":"","month":"2025-05"},{"category":"violent-crime","location_type":"Force","location":{"latitude":"53.904194","street":{"id":2113165,"name":"On or near Further/higher Educational Building"},"longitude":"-1.691053"},"context":"","outcome_status":{"category":"Investigation complete; no suspect identified","date":"2025-05"},"persistent_id":"5b7dadd6978a75ae47d42022e9e8dda9da5dd4eeef8f96f7ebac7e1b029578f6","id":128083918,"location_subtype":"","month":"2025-05"},{"category":"violent-crime","location_type":"Force","location":{"latitude":"53.902484","street":{"id":2113023,"name":"On or near Station Road"},"longitude":"-1.693485"},"context":"","outcome_status":{"category":"Unable to prosecute suspect","date":"2025-05"},"persistent_id":"f70c62e16438172ca65f8a0eb9d4b555139d8a01fdeaf0114e6d32ef4fe2c91b","id":128080872,"location_subtype":"","month":"2025-05"},{"category":"violent-crime","location_type":"Force","location":{"latitude":"53.902484","street":{"id":2113023,"name":"On or near Station Road"},"longitude":"-1.693485"},"context":"","outcome_status":{"category":"Unable to prosecute suspect","date":"2025-07"},"persistent_id":"79174b922a18a6c3feb84cb2ab9e734c5aec53279be6409f6557024d554576cc","id":128080881,"location_subtype":"","month":"2025-05"},{"category":"violent-crime","location_type":"Force","location":{"latitude":"53.907956","street":{"id":2113344,"name":"On or near Wharfedale Mews"},"longitude":"-1.689564"},"context":"","outcome_status":{"category":"Status update unavailable","date":"2025-09"},"persistent_id":"046ecb63e4685c14dc0c6ede052a977fe84e642709e66c9fafba6c7f1e89449f","id":128080312,"location_subtype":"","month":"2025-05"},{"category":"violent-crime","location_type":"Force","location":{"latitude":"53.913520","street":{"id":2112305,"name":"On or near Weston Crescent"},"longitude":"-1.704137"},"context":"","outcome_status":{"category":"Unable to prosecute suspect","date":"2025-09"},"persistent_id":"ac974db52faff98c81c0e13adf5472d864164d7c591ebf3f3cf6ee0325d0f4c2","id":128079904,"location_subtype":"","month":"2025-05"},{"category":"violent-crime","location_type":"Force","location":{"latitude":"53.913520","street":{"id":2112305,"name":"On or near Weston Crescent"},"longitude":"-1.704137"},"context":"","outcome_status":{"category":"Unable to prosecute suspect","date":"2025-09"},"persistent_id":"680333b9ff825c222165339d1b07c94d38be3aa9aa7e31cae20d087b3c5c7b0b","id":128079870,"location_subtype":"","month":"2025-05"},{"category":"violent-crime","location_type":"Force","location":{"latitude":"53.906351","street":{"id":2113210,"name":"On or near Courthouse Street"},"longitude":"-1.691052"},"context":"","outcome_status":{"category":"Investigation complete; no suspect identified","date":"2025-05"},"persistent_id":"00bbc317320b713cf10bf378a240daef0c4bb200107c00b89c9355d5fb69663b","id":128078959,"location_subtype":"","month":"2025-05"},{"category":"violent-crime","location_type":"Force","location":{"latitude":"53.912790","street":{"id":2112878,"name":"On or near Prince Henry Road"},"longitude":"-1.692420"},"context":"","outcome_status":{"category":"Unable to prosecute suspect","date":"2025-05"},"persistent_id":"e684b5a96b08406e2df2688b0ab5024a9230c10b5002bcb3fd2b9b0943aea2a6","id":128077597,"location_subtype":"","month":"2025-05"},{"category":"violent-crime","location_type":"Force","location":{"latitude":"53.915082","street":{"id":2112826,"name":"On or near The Crescent"},"longitude":"-1.696179"},"context":"","outcome_status":{"category":"Action to be taken by another organisation","date":"2025-06"},"persistent_id":"40079f9afa0a2fdca4b546d953132475da29452046e490b03b2f88cc6a3a7314","id":128077569,"location_subtype":"","month":"2025-05"},{"category":"violent-crime","location_type":"Force","location":{"latitude":"53.902781","street":{"id":2113278,"name":"On or near Gay Lane"},"longitude":"-1.690317"},"context":"","outcome_status":{"category":"Unable to prosecute suspect","date":"2025-09"},"persistent_id":"4de3dd3c0f10f55df8e24c227d75247810ce618f2aac3d927786b7a9721c96b1","id":128097200,"location_subtype":"","month":"2025-05"},{"category":"violent-crime","location_type":"Force","location":{"latitude":"53.909629","street":{"id":2113518,"name":"On or near Mill Walk"},"longitude":"-1.686537"},"context":"","outcome_status":{"category":"Unable to prosecute suspect","date":"2025-06"},"persistent_id":"d14e9cda80507c7bcafe1d78f772f047db9d636ab431d826cfbc22ec9080c6b9","id":128098525,"location_subtype":"","month":"2025-05"},{"category":"violent-crime","location_type":"Force","location":{"latitude":"53.905236","street":{"id":2112991,"name":"On or near Kirkgate"},"longitude":"-1.694272"},"context":"","outcome_status":{"category":"Investigation complete; no suspect identified","date":"2025-12"},"persistent_id":"4e67cf5e2fb8308a82c16a20324e0d21026abe24bd8ef6ecf18fae586b6da6eb","id":128095325,"location_subtype":"","month":"2025-05"},{"category":"violent-crime","location_type":"Force","location":{"latitude":"53.905236","street":{"id":2112991,"name":"On or near Kirkgate"},"longitude":"-1.694272"},"context":"","outcome_status":{"category":"Investigation complete; no suspect identified","date":"2025-11"},"persistent_id":"fd687acfc45d0fb8688bfbeff8359b3c57121035789ea59790a7795caf0bed2e","id":128095260,"location_subtype":"","month":"2025-05"},{"category":"violent-crime","location_type":"Force","location":{"latitude":"53.907472","street":{"id":2113176,"name":"On or near North Avenue"},"longitude":"-1.690207"},"context":"","outcome_status":{"category":"Unable to prosecute suspect","date":"2025-09"},"persistent_id":"ae759693a51bca72495ba5eeb7255d083c01646b7984eefcead8a8931fae243a","id":128094222,"location_subtype":"","month":"2025-05"},{"category":"violent-crime","location_type":"Force","location":{"latitude":"53.905564","street":{"id":2112779,"name":"On or near Parking Area"},"longitude":"-1.695959"},"context":"","outcome_status":{"category":"Status update unavailable","date":"2025-09"},"persistent_id":"3ae05c6b58a649595fc7e4bb9f3b623fe2c152a482246f90deb99ba8a6a54a3c","id":128094198,"location_subtype":"","month":"2025-05"},{"category":"violent-crime","location_type":"Force","location":{"latitude":"53.912599","street":{"id":2112619,"name":"On or near Croft Avenue"},"longitude":"-1.698800"},"context":"","outcome_status":{"category":"Unable to prosecute suspect","date":"2025-05"},"persistent_id":"fbbf2cb817f10442904a070bfb856ff9c81143e283be01d4aad35140e5685c51","id":128094201,"location_subtype":"","month":"2025-05"},{"category":"violent-crime","location_type":"Force","location":{"latitude":"53.912236","street":{"id":2113276,"name":"On or near Farnley Lane"},"longitude":"-1.690065"},"context":"","outcome_status":{"category":"Unable to prosecute suspect","date":"2025-06"},"persistent_id":"5283b55c2cf65effa514c45fd1cb45dde83fe99078bd50c0b0757851d5eb7c38","id":128099905,"location_subtype":"","month":"2025-05"},{"category":"violent-crime","location_type":"Force","location":{"latitude":"53.905236","street":{"id":2112991,"name":"On or near Kirkgate"},"longitude":"-1.694272"},"context":"","outcome_status":{"category":"Investigation complete; no suspect identified","date":"2025-05"},"persistent_id":"da9fd34c176ab51aeebeb9cba96d0476f0524e377432e00760be5fc2cee86da6","id":128093468,"location_subtype":"","month":"2025-05"},{"category":"violent-crime","location_type":"Force","location":{"latitude":"53.905236","street":{"id":2112991,"name":"On or near Kirkgate"},"longitude":"-1.694272"},"context":"","outcome_status":{"category":"Unable to prosecute suspect","date":"2025-05"},"persistent_id":"2987d485ea268c0770208b128f9f64cd0eaedcdd27cef005aa9cf104475f64ef","id":128086504,"location_subtype":"","month":"2025-05"},{"category":"violent-crime","location_type":"Force","location":{"latitude":"53.905493","street":{"id":2113052,"name":"On or near Market Street"},"longitude":"-1.692839"},"context":"","outcome_status":{"category":"Unable to prosecute suspect","date":"2025-06"},"persistent_id":"322f079972311660542f291dec63d0c39a127182f5ea0201b3e6cf2a989eca20","id":128099775,"location_subtype":"","month":"2025-05"},{"category":"violent-crime","location_type":"Force","location":{"latitude":"53.903777","street":{"id":2113323,"name":"On or near Wellcroft"},"longitude":"-1.689473"},"context":"","outcome_status":{"category":"Unable to prosecute suspect","date":"2025-11"},"persistent_id":"14446f5885b166aafc2f7e14b269a93bcca785bdfca571ccb0ed62d5e9d4ea22","id":128096518,"location_subtype":"","month":"2025-05"},{"category":"other-crime","location_type":"Force","location":{"latitude":"53.913637","street":{"id":2113288,"name":"On or near Athelstan Lane"},"longitude":"-1.689689"},"context":"","outcome_status":{"category":"Further investigation is not in the public interest","date":"2025-11"},"persistent_id":"377ad9dd73c9bbaa73231d15fa33dd96b2b681c00f131486288ac71453c7d097","id":128085416,"location_subtype":"","month":"2025-05"},{"category":"other-crime","location_type":"Force","location":{"latitude":"53.907956","street":{"id":2113344,"name":"On or near Wharfedale Mews"},"longitude":"-1.689564"},"context":"","outcome_status":{"category":"Status update unavailable","date":"2025-09"},"persistent_id":"9246a5e50aa664d2bd5d2ac85b942c70a9410f006b544a555f3f38268746e21c","id":128081450,"location_subtype":"","month":"2025-05"}]