[{"category":"anti-social-behaviour","location_type":"Force","location":{"latitude":"51.342219","street":{"id":2052918,"name":"On or near Amanda Close"},"longitude":"0.518567"},"context":"","outcome_status":null,"persistent_id":"","id":126145320,"location_subtype":"","month":"2025-02"},{"category":"anti-social-behaviour","location_type":"Force","location":{"latitude":"51.352943","street":{"id":2052611,"name":"On or near Field Close"},"longitude":"0.512922"},"context":"","outcome_status":null,"persistent_id":"","id":126145288,"location_subtype":"","month":"2025-02"},{"category":"anti-social-behaviour","location_type":"Force","location":{"latitude":"51.346461","street":{"id":2053275,"name":"On or near Juniper Close"},"longitude":"0.527058"},"context":"","outcome_status":null,"persistent_id":"","id":126144815,"location_subtype":"","month":"2025-02"},{"category":"anti-social-behaviour","location_type":"Force","location":{"latitude":"51.353291","street":{"id":2053782,"name":"On or near Emily Road"},"longitude":"0.536425"},"context":"","outcome_status":null,"persistent_id":"","id":126144638,"location_subtype":"","month":"2025-02"},{"category":"anti-social-behaviour","location_type":"Force","location":{"latitude":"51.360003","street":{"id":2054313,"name":"On or near Hampshire Close"},"longitude":"0.545027"},"context":"","outcome_status":null,"persistent_id":"","id":126144513,"location_subtype":"","month":"2025-02"},{"category":"anti-social-behaviour","location_type":"Force","location":{"latitude":"51.356126","street":{"id":2053368,"name":"On or near Timberbank"},"longitude":"0.528451"},"context":"","outcome_status":null,"persistent_id":"","id":126144476,"location_subtype":"","month":"2025-02"},{"category":"anti-social-behaviour","location_type":"Force","location":{"latitude":"51.346559","street":{"id":2053882,"name":"On or near Wetheral Drive"},"longitude":"0.535809"},"context":"","outcome_status":null,"persistent_id":"","id":126145623,"location_subtype":"","month":"2025-02"},{"category":"anti-social-behaviour","location_type":"Force","location":{"latitude":"51.359570","street":{"id":2053281,"name":"On or near Colchester Close"},"longitude":"0.526817"},"context":"","outcome_status":null,"persistent_id":"","id":126143575,"location_subtype":"","month":"2025-02"},{"category":"anti-social-behaviour","location_type":"Force","location":{"latitude":"51.351518","street":{"id":2053951,"name":"On or near Burmarsh Close"},"longitude":"0.537304"},"context":"","outcome_status":null,"persistent_id":"","id":126148967,"location_subtype":"","month":"2025-02"},{"category":"anti-social-behaviour","location_type":"Force","location":{"latitude":"51.342100","street":{"id":2053911,"name":"On or near Beeching Road"},"longitude":"0.535721"},"context":"","outcome_status":null,"persistent_id":"","id":126148503,"location_subtype":"","month":"2025-02"},{"category":"anti-social-behaviour","location_type":"Force","location":{"latitude":"51.349830","street":{"id":2053161,"name":"On or near Acres Green Close"},"longitude":"0.524715"},"context":"","outcome_status":null,"persistent_id":"","id":126148311,"location_subtype":"","month":"2025-02"},{"category":"anti-social-behaviour","location_type":"Force","location":{"latitude":"51.347434","street":{"id":2053227,"name":"On or near Kings Oak Mews"},"longitude":"0.525704"},"context":"","outcome_status":null,"persistent_id":"","id":126143855,"location_subtype":"","month":"2025-02"},{"category":"anti-social-behaviour","location_type":"Force","location":{"latitude":"51.342239","street":{"id":2053319,"name":"On or near Sports/recreation Area"},"longitude":"0.526409"},"context":"","outcome_status":null,"persistent_id":"","id":126148383,"location_subtype":"","month":"2025-02"},{"category":"anti-social-behaviour","location_type":"Force","location":{"latitude":"51.362604","street":{"id":2053482,"name":"On or near Ironside Close"},"longitude":"0.529986"},"context":"","outcome_status":null,"persistent_id":"","id":126148379,"location_subtype":"","month":"2025-02"},{"category":"anti-social-behaviour","location_type":"Force","location":{"latitude":"51.341106","street":{"id":2054267,"name":"On or near Sports/recreation Area"},"longitude":"0.546254"},"context":"","outcome_status":null,"persistent_id":"","id":126148431,"location_subtype":"","month":"2025-02"},{"category":"anti-social-behaviour","location_type":"Force","location":{"latitude":"51.346517","street":{"id":2052976,"name":"On or near Sharon Crescent"},"longitude":"0.519435"},"context":"","outcome_status":null,"persistent_id":"","id":126145785,"location_subtype":"","month":"2025-02"},{"category":"anti-social-behaviour","location_type":"Force","location":{"latitude":"51.342731","street":{"id":2053841,"name":"On or near Goad Avenue"},"longitude":"0.535684"},"context":"","outcome_status":null,"persistent_id":"","id":126145789,"location_subtype":"","month":"2025-02"},{"category":"anti-social-behaviour","location_type":"Force","location":{"latitude":"51.351226","street":{"id":2052600,"name":"On or near Barberry Avenue"},"longitude":"0.512469"},"context":"","outcome_status":null,"persistent_id":"","id":126146408,"location_subtype":"","month":"2025-02"},{"category":"anti-social-behaviour","location_type":"Force","location":{"latitude":"51.362604","street":{"id":2053482,"name":"On or near Ironside Close"},"longitude":"0.529986"},"context":"","outcome_status":null,"persistent_id":"","id":126146652,"location_subtype":"","month":"2025-02"},{"category":"anti-social-behaviour","location_type":"Force","location":{"latitude":"51.346183","street":{"id":2054156,"name":"On or near Weybridge Close"},"longitude":"0.541963"},"context":"","outcome_status":null,"persistent_id":"","id":126146763,"location_subtype":"","month":"2025-02"},{"category":"anti-social-behaviour","location_type":"Force","location":{"latitude":"51.346183","street":{"id":2054156,"name":"On or near Weybridge Close"},"longitude":"0.541963"},"context":"","outcome_status":null,"persistent_id":"","id":126146766,"location_subtype":"","month":"2025-02"},{"category":"anti-social-behaviour","location_type":"Force","location":{"latitude":"51.345486","street":{"id":2053892,"name":"On or near Lambeth Close"},"longitude":"0.538449"},"context":"","outcome_status":null,"persistent_id":"","id":126146782,"location_subtype":"","month":"2025-02"},{"category":"burglary","location_type":"Force","location":{"latitude":"51.358871","street":{"id":2053616,"name":"On or near Bader Crescent"},"longitude":"0.531246"},"context":"","outcome_status":{"category":"Investigation complete; no suspect identified","date":"2025-03"},"persistent_id":"23d5b840a55cbacc06ed2e5ade274537c36191cf02b87cb74ef7fa5cdf7fd3a9","id":126165092,"location_subtype":"","month":"2025-02"},{"category":"burglary","location_type":"Force","location":{"latitude":"51.359230","street":{"id":2053762,"name":"On or near Freshwater Road"},"longitude":"0.534210"},"context":"","outcome_status":{"category":"Investigation complete; no suspect identified","date":"2025-03"},"persistent_id":"3b2ed3cbb20d022c8b4f1d3638352cda8c9ab09ab8a4fe8960152f9fe53c8056","id":126165495,"location_subtype":"","month":"2025-02"},{"category":"burglary","location_type":"Force","location":{"latitude":"51.359230","street":{"id":2053762,"name":"On or near Freshwater Road"},"longitude":"0.534210"},"context":"","outcome_status":{"category":"Investigation complete; no suspect identified","date":"2025-02"},"persistent_id":"8a27c1aabbc05c08d70a567250eaf31a2fd94cb8ca9aace83b394d4a39db0bae","id":126168890,"location_subtype":"","month":"2025-02"},{"category":"criminal-damage-arson","location_type":"Force","location":{"latitude":"51.338838","street":{"id":2053341,"name":"On or near Petrol Station"},"longitude":"0.526897"},"context":"","outcome_status":{"category":"Unable to prosecute suspect","date":"2025-02"},"persistent_id":"80b12f33ec1b11f38a52604280e2e99be11961fafd1e2566dbcc53acb1525104","id":126166184,"location_subtype":"","month":"2025-02"},{"category":"criminal-damage-arson","location_type":"Force","location":{"latitude":"51.354949","street":{"id":2054065,"name":"On or near Halifax Close"},"longitude":"0.539203"},"context":"","outcome_status":{"category":"Local resolution","date":"2025-05"},"persistent_id":"4ff148987e0f696ab05e0a9ea060c17f339ed15200314f7d949203eda52c0663","id":126164037,"location_subtype":"","month":"2025-02"},{"category":"criminal-damage-arson","location_type":"Force","location":{"latitude":"51.344239","street":{"id":2054204,"name":"On or near Croydon Close"},"longitude":"0.542042"},"context":"","outcome_status":{"category":"Offender given a caution","date":"2025-03"},"persistent_id":"5cf6f52e66422c99bafc53f5bfea4c49fdae9467e55fd0f4be1a07d679d21356","id":126166186,"location_subtype":"","month":"2025-02"},{"category":"criminal-damage-arson","location_type":"Force","location":{"latitude":"51.359898","street":{"id":2053675,"name":"On or near Tedder Avenue"},"longitude":"0.532006"},"context":"","outcome_status":{"category":"Unable to prosecute suspect","date":"2025-04"},"persistent_id":"8902f5efef6febbce8e42b82478ac20022ad788444533b4ea33ee9729c126160","id":126165789,"location_subtype":"","month":"2025-02"},{"category":"criminal-damage-arson","location_type":"Force","location":{"latitude":"51.356643","street":{"id":2053604,"name":"On or near Heritage Road"},"longitude":"0.531137"},"context":"","outcome_status":{"category":"Investigation complete; no suspect identified","date":"2025-02"},"persistent_id":"476457067be5a5c4eea69bb81272dddcba7a05006c2f7ea9652027998190ac44","id":126164530,"location_subtype":"","month":"2025-02"},{"category":"criminal-damage-arson","location_type":"Force","location":{"latitude":"51.344890","street":{"id":2053339,"name":"On or near The Wirrals"},"longitude":"0.527345"},"context":"","outcome_status":{"category":"Investigation complete; no suspect identified","date":"2025-02"},"persistent_id":"d44e27e6f5cb029bb8f55d4b69630f064039cc4077980ffeafd085a7a49620d3","id":126165378,"location_subtype":"","month":"2025-02"},{"category":"criminal-damage-arson","location_type":"Force","location":{"latitude":"51.345932","street":{"id":2052819,"name":"On or near Pimpernel Way"},"longitude":"0.516531"},"context":"","outcome_status":{"category":"Unable to prosecute suspect","date":"2025-02"},"persistent_id":"f3166f6aeb207ccf3f8e54592051ee2762ac4f1f9bf32f66b4184095a84f5016","id":126166181,"location_subtype":"","month":"2025-02"},{"category":"criminal-damage-arson","location_type":"Force","location":{"latitude":"51.347963","street":{"id":2053179,"name":"On or near Bleakwood Road"},"longitude":"0.525388"},"context":"","outcome_status":{"category":"Investigation complete; no suspect identified","date":"2025-02"},"persistent_id":"0f7e8e0e096e837aa478c4c0a10997ba5f4fae8ae40a3fe5939fca53e708dc9e","id":126166621,"location_subtype":"","month":"2025-02"},{"category":"criminal-damage-arson","location_type":"Force","location":{"latitude":"51.339258","street":{"id":2053300,"name":"On or near Fontana"},"longitude":"0.526604"},"context":"","outcome_status":{"category":"Investigation complete; no suspect identified","date":"2025-02"},"persistent_id":"539c94ea6b741f7966fa6600341f4ec54986fc786452b19d91b3739702a95a5b","id":126167108,"location_subtype":"","month":"2025-02"},{"category":"criminal-damage-arson","location_type":"Force","location":{"latitude":"51.361685","street":{"id":2053641,"name":"On or near Packer Place"},"longitude":"0.531717"},"context":"","outcome_status":{"category":"Investigation complete; no suspect identified","date":"2025-02"},"persistent_id":"25c998587c2ef4d8c6b949712f6c54f9b3ca132f3dfe032be803d79345f22a36","id":126167112,"location_subtype":"","month":"2025-02"},{"category":"criminal-damage-arson","location_type":"Force","location":{"latitude":"51.351272","street":{"id":2053221,"name":"On or near Further/higher Educational Building"},"longitude":"0.526104"},"context":"","outcome_status":{"category":"Investigation complete; no suspect identified","date":"2025-03"},"persistent_id":"8b80f98ef2fa81f5f2ef7180de96981ac5206a1d6fd6886ad3bdd57e9a07c954","id":126165377,"location_subtype":"","month":"2025-02"},{"category":"criminal-damage-arson","location_type":"Force","location":{"latitude":"51.347388","street":{"id":2053019,"name":"On or near Silverweed Road"},"longitude":"0.520761"},"context":"","outcome_status":{"category":"Investigation complete; no suspect identified","date":"2025-02"},"persistent_id":"c67f8ae8df475f1d99c34171cd18ce9a6fc1a7e6561a0190cbb5a9998346a1be","id":126168787,"location_subtype":"","month":"2025-02"},{"category":"criminal-damage-arson","location_type":"Force","location":{"latitude":"51.347156","street":{"id":2052878,"name":"On or near Sorrell Road"},"longitude":"0.519413"},"context":"","outcome_status":{"category":"Unable to prosecute suspect","date":"2025-02"},"persistent_id":"923efe85b4ece6488f78532972bcde73f957b4993fa0c339ff59ae58bb96fc8a","id":126169986,"location_subtype":"","month":"2025-02"},{"category":"criminal-damage-arson","location_type":"Force","location":{"latitude":"51.356647","street":{"id":2053780,"name":"On or near Clover Bank View"},"longitude":"0.533895"},"context":"","outcome_status":{"category":"Investigation complete; no suspect identified","date":"2025-03"},"persistent_id":"9120616eb52afb9b2e33d331f7c176d156445849983269eb8df42352dd6d3039","id":126169177,"location_subtype":"","month":"2025-02"},{"category":"criminal-damage-arson","location_type":"Force","location":{"latitude":"51.347156","street":{"id":2052878,"name":"On or near Sorrell Road"},"longitude":"0.519413"},"context":"","outcome_status":{"category":"Investigation complete; no suspect identified","date":"2025-02"},"persistent_id":"f814efc74387b49f81c235080f60c83d52593982973ff0d813381615bba98cbb","id":126150671,"location_subtype":"","month":"2025-02"},{"category":"criminal-damage-arson","location_type":"Force","location":{"latitude":"51.347388","street":{"id":2053019,"name":"On or near Silverweed Road"},"longitude":"0.520761"},"context":"","outcome_status":{"category":"Investigation complete; no suspect identified","date":"2025-02"},"persistent_id":"015969c07a7bfed071bbb2fcc9cfc4404e82d6fa349f77c5b6a000be81eba907","id":126164528,"location_subtype":"","month":"2025-02"},{"category":"criminal-damage-arson","location_type":"Force","location":{"latitude":"51.338519","street":{"id":2054151,"name":"On or near Whitcombe Close"},"longitude":"0.540347"},"context":"","outcome_status":{"category":"Investigation complete; no suspect identified","date":"2025-02"},"persistent_id":"b814c023938397ed91f7bb71522cc87d69e7f820dc952e8675116fc6454bcc0a","id":126157694,"location_subtype":"","month":"2025-02"},{"category":"criminal-damage-arson","location_type":"Force","location":{"latitude":"51.358640","street":{"id":2054229,"name":"On or near Sheridan Close"},"longitude":"0.542768"},"context":"","outcome_status":{"category":"Unable to prosecute suspect","date":"2025-02"},"persistent_id":"a4d3c9b2e6c8f8d18684bc7e9227c359deb98413eec231cebc19f1eb2015fdfc","id":126169557,"location_subtype":"","month":"2025-02"},{"category":"drugs","location_type":"Force","location":{"latitude":"51.358640","street":{"id":2054229,"name":"On or near Sheridan Close"},"longitude":"0.542768"},"context":"","outcome_status":{"category":"Unable to prosecute suspect","date":"2025-10"},"persistent_id":"37fd9b00e1fc51735135a7be0df88f6a6ce17b79ddf14f21108cb0aaa9dbd55d","id":126161524,"location_subtype":"","month":"2025-02"},{"category":"drugs","location_type":"Force","location":{"latitude":"51.357766","street":{"id":2052812,"name":"On or near Alamein Avenue"},"longitude":"0.522868"},"context":"","outcome_status":{"category":"Investigation complete; no suspect identified","date":"2025-02"},"persistent_id":"b450980d7008c0813f5bd337f394a9f64546d584e6cf7f08c4a0d747664bfdc1","id":126163218,"location_subtype":"","month":"2025-02"},{"category":"drugs","location_type":"Force","location":{"latitude":"51.341106","street":{"id":2054267,"name":"On or near Sports/recreation Area"},"longitude":"0.546254"},"context":"","outcome_status":{"category":"Local resolution","date":"2025-02"},"persistent_id":"ef170e49b36832b7fc3f5262606fb877fedfbbcc381a3e9945652b2df8064498","id":126164974,"location_subtype":"","month":"2025-02"},{"category":"other-theft","location_type":"Force","location":{"latitude":"51.350716","street":{"id":2052993,"name":"On or near Meadow Close"},"longitude":"0.520743"},"context":"","outcome_status":{"category":"Investigation complete; no suspect identified","date":"2025-02"},"persistent_id":"b0b8bfd2cee3c2293a72d4d1f747541a10f058291690632518be7db31df3c535","id":126167605,"location_subtype":"","month":"2025-02"},{"category":"other-theft","location_type":"Force","location":{"latitude":"51.340775","street":{"id":2053914,"name":"On or near Petrol Station"},"longitude":"0.536017"},"context":"","outcome_status":{"category":"Investigation complete; no suspect identified","date":"2025-02"},"persistent_id":"ba36085a641e84b3e86bd9f0add6bbca87fa3a06ff75ab258c262ac42a6f0f10","id":126152784,"location_subtype":"","month":"2025-02"},{"category":"other-theft","location_type":"Force","location":{"latitude":"51.353916","street":{"id":2053678,"name":"On or near Raleigh Close"},"longitude":"0.531648"},"context":"","outcome_status":{"category":"Investigation complete; no suspect identified","date":"2025-02"},"persistent_id":"da8538ab17d1bc87bdde1c8239505f9dd3122cabb6ca3d3a4c09b519ba3a369f","id":126166706,"location_subtype":"","month":"2025-02"},{"category":"other-theft","location_type":"Force","location":{"latitude":"51.351488","street":{"id":2052916,"name":"On or near Quickthorn Crescent"},"longitude":"0.518717"},"context":"","outcome_status":{"category":"Investigation complete; no suspect identified","date":"2025-02"},"persistent_id":"2005507ab51098c2c9523deece3037737aa4a72d10ee09ed42c5151920ebd6ff","id":126170060,"location_subtype":"","month":"2025-02"},{"category":"other-theft","location_type":"Force","location":{"latitude":"51.358723","street":{"id":2053439,"name":"On or near Mountbatten Avenue"},"longitude":"0.529772"},"context":"","outcome_status":{"category":"Investigation complete; no suspect identified","date":"2025-02"},"persistent_id":"6c77f44903b2aafc79a534fb535deeeb25fbc05a5dd921cad4126b8939541cfe","id":126156008,"location_subtype":"","month":"2025-02"},{"category":"other-theft","location_type":"Force","location":{"latitude":"51.356316","street":{"id":2053188,"name":"On or near Tobruk Way"},"longitude":"0.525474"},"context":"","outcome_status":{"category":"Unable to prosecute suspect","date":"2025-02"},"persistent_id":"27b929553e4dad4cb5a33ee389df505924532f6c912d0ac9652ba66806f45414","id":126168844,"location_subtype":"","month":"2025-02"},{"category":"other-theft","location_type":"Force","location":{"latitude":"51.337089","street":{"id":2053445,"name":"On or near Buckland Close"},"longitude":"0.528308"},"context":"","outcome_status":{"category":"Unable to prosecute suspect","date":"2025-02"},"persistent_id":"b829de8def1034cca481f689509da082f3f18186103c9819814279f4bf9beeff","id":126150971,"location_subtype":"","month":"2025-02"},{"category":"other-theft","location_type":"Force","location":{"latitude":"51.344239","street":{"id":2054204,"name":"On or near Croydon Close"},"longitude":"0.542042"},"context":"","outcome_status":{"category":"Unable to prosecute suspect","date":"2025-02"},"persistent_id":"fe8cb626527cbd2e07c734b79816fda420ccf0b694288cbd051f0a0038cfce13","id":126170061,"location_subtype":"","month":"2025-02"},{"category":"other-theft","location_type":"Force","location":{"latitude":"51.358871","street":{"id":2053616,"name":"On or near Bader Crescent"},"longitude":"0.531246"},"context":"","outcome_status":{"category":"Investigation complete; no suspect identified","date":"2025-03"},"persistent_id":"3c7b4d739d897d9b4fd1103d8b10bf0fc21492779284b3c0e93569bf621ac136","id":126159713,"location_subtype":"","month":"2025-02"},{"category":"other-theft","location_type":"Force","location":{"latitude":"51.340775","street":{"id":2053914,"name":"On or near Petrol Station"},"longitude":"0.536017"},"context":"","outcome_status":{"category":"Court result unavailable","date":"2025-09"},"persistent_id":"c97604fc77c98a2c2c4287edb9da5c3eb2bcfcea5cae6c95297a14dcafa25814","id":126169624,"location_subtype":"","month":"2025-02"},{"category":"possession-of-weapons","location_type":"Force","location":{"latitude":"51.359230","street":{"id":2053762,"name":"On or near Freshwater Road"},"longitude":"0.534210"},"context":"","outcome_status":{"category":"Unable to prosecute suspect","date":"2025-02"},"persistent_id":"7b2b18188b9d109254562ab75c5d7dbbf64c60067edd08ecfec882f11fd9b380","id":126149387,"location_subtype":"","month":"2025-02"},{"category":"possession-of-weapons","location_type":"Force","location":{"latitude":"51.351272","street":{"id":2053221,"name":"On or near Further/higher Educational Building"},"longitude":"0.526104"},"context":"","outcome_status":{"category":"Further action is not in the public interest","date":"2025-03"},"persistent_id":"78b46752a37c99d8c84bcb8f2868dd770235028e8815f92977675664435f91ec","id":126156112,"location_subtype":"","month":"2025-02"},{"category":"possession-of-weapons","location_type":"Force","location":{"latitude":"51.351272","street":{"id":2053221,"name":"On or near Further/higher Educational Building"},"longitude":"0.526104"},"context":"","outcome_status":{"category":"Further action is not in the public interest","date":"2025-03"},"persistent_id":"09d94e4322d369cd95f52582d8a79c26c5be18d0015adf06cf05c46f3bbb910d","id":126154388,"location_subtype":"","month":"2025-02"},{"category":"public-order","location_type":"Force","location":{"latitude":"51.358075","street":{"id":2053811,"name":"On or near Coverdale Close"},"longitude":"0.534793"},"context":"","outcome_status":{"category":"Investigation complete; no suspect identified","date":"2025-03"},"persistent_id":"90ed5ff58e073c31661b5675e990f729808aa283fdde08865f7388f5a3521718","id":126168469,"location_subtype":"","month":"2025-02"},{"category":"public-order","location_type":"Force","location":{"latitude":"51.353291","street":{"id":2053782,"name":"On or near Emily Road"},"longitude":"0.536425"},"context":"","outcome_status":{"category":"Investigation complete; no suspect identified","date":"2025-03"},"persistent_id":"fdee8f1429f3534c6e13f4ae557be3c8645482ea9f55539bf5b77d447e4d29e0","id":126151108,"location_subtype":"","month":"2025-02"},{"category":"public-order","location_type":"Force","location":{"latitude":"51.353291","street":{"id":2053782,"name":"On or near Emily Road"},"longitude":"0.536425"},"context":"","outcome_status":{"category":"Investigation complete; no suspect identified","date":"2025-02"},"persistent_id":"9918b8d6712c1f5d5e7550a80a1b2936df58cb70cb476ebcca2e4980fbc6c627","id":126149447,"location_subtype":"","month":"2025-02"},{"category":"public-order","location_type":"Force","location":{"latitude":"51.340545","street":{"id":2053346,"name":"On or near Silver Birches"},"longitude":"0.526962"},"context":"","outcome_status":{"category":"Investigation complete; no suspect identified","date":"2025-02"},"persistent_id":"5446a4fcc0e729176e128164ce1aadb1cef97ca919cb3e7e3000539f2394f54e","id":126152908,"location_subtype":"","month":"2025-02"},{"category":"public-order","location_type":"Force","location":{"latitude":"51.340545","street":{"id":2053346,"name":"On or near Silver Birches"},"longitude":"0.526962"},"context":"","outcome_status":{"category":"Investigation complete; no suspect identified","date":"2025-02"},"persistent_id":"35b1eaa8c62686402c0de773f6830ff070e6db07a87a82685f1d0d98725afafb","id":126166734,"location_subtype":"","month":"2025-02"},{"category":"public-order","location_type":"Force","location":{"latitude":"51.336997","street":{"id":2053834,"name":"On or near Swingate Close"},"longitude":"0.535468"},"context":"","outcome_status":{"category":"Court result unavailable","date":"2025-09"},"persistent_id":"36406833a9131fb3fea88faffee0da6f6598cb086ab08be6c23796f62c91022e","id":126167211,"location_subtype":"","month":"2025-02"},{"category":"public-order","location_type":"Force","location":{"latitude":"51.362604","street":{"id":2053482,"name":"On or near Ironside Close"},"longitude":"0.529986"},"context":"","outcome_status":{"category":"Unable to prosecute suspect","date":"2025-02"},"persistent_id":"e967c7260a771891eb13789f88316a77a893f96f661dc63b265cf3803f8b1629","id":126166735,"location_subtype":"","month":"2025-02"},{"category":"shoplifting","location_type":"Force","location":{"latitude":"51.346410","street":{"id":2052990,"name":"On or near Teasel Road"},"longitude":"0.520664"},"context":"","outcome_status":{"category":"Investigation complete; no suspect identified","date":"2025-02"},"persistent_id":"94693d859ec8f60fd4cfb130990e962683a34dd9baba9b13ca7d21db8f0c3435","id":126168121,"location_subtype":"","month":"2025-02"},{"category":"shoplifting","location_type":"Force","location":{"latitude":"51.353291","street":{"id":2053782,"name":"On or near Emily Road"},"longitude":"0.536425"},"context":"","outcome_status":{"category":"Status update unavailable","date":"2025-06"},"persistent_id":"1ea2075e58bbfdc0cf2982205cea1994ef38d34bbe9b3d1b21e23b0c4fa32e22","id":126151291,"location_subtype":"","month":"2025-02"},{"category":"shoplifting","location_type":"Force","location":{"latitude":"51.353291","street":{"id":2053782,"name":"On or near Emily Road"},"longitude":"0.536425"},"context":"","outcome_status":{"category":"Local resolution","date":"2025-03"},"persistent_id":"c6797980384085419fb106258950720474bc86e806da48540839a2badcfe605c","id":126164652,"location_subtype":"","month":"2025-02"},{"category":"shoplifting","location_type":"Force","location":{"latitude":"51.353291","street":{"id":2053782,"name":"On or near Emily Road"},"longitude":"0.536425"},"context":"","outcome_status":{"category":"Investigation complete; no suspect identified","date":"2025-02"},"persistent_id":"247a39c169ff24273f01facfad6dcfeab2463ee4f671e2a316ba87bc58721a7a","id":126156376,"location_subtype":"","month":"2025-02"},{"category":"shoplifting","location_type":"Force","location":{"latitude":"51.353291","street":{"id":2053782,"name":"On or near Emily Road"},"longitude":"0.536425"},"context":"","outcome_status":{"category":"Investigation complete; no suspect identified","date":"2025-02"},"persistent_id":"98ce01dd36c8b8c9eb216bebb87a5f04a522dd5854429efb4c50dba0ffd7f78f","id":126156373,"location_subtype":"","month":"2025-02"},{"category":"shoplifting","location_type":"Force","location":{"latitude":"51.353291","street":{"id":2053782,"name":"On or near Emily Road"},"longitude":"0.536425"},"context":"","outcome_status":{"category":"Investigation complete; no suspect identified","date":"2025-02"},"persistent_id":"2854f66b504671c6971a20e63ed6555d6b3692159bbfef199d796864e2a4cb57","id":126164651,"location_subtype":"","month":"2025-02"},{"category":"shoplifting","location_type":"Force","location":{"latitude":"51.353291","street":{"id":2053782,"name":"On or near Emily Road"},"longitude":"0.536425"},"context":"","outcome_status":{"category":"Investigation complete; no suspect identified","date":"2025-02"},"persistent_id":"bd73df7ac13c75aa3fc030c9c40c4102f0e411f81ea5c711445b8e1ce03d6131","id":126161719,"location_subtype":"","month":"2025-02"},{"category":"theft-from-the-person","location_type":"Force","location":{"latitude":"51.357724","street":{"id":2053582,"name":"On or near Churchill Avenue"},"longitude":"0.530235"},"context":"","outcome_status":{"category":"Offender given a caution","date":"2025-03"},"persistent_id":"fb6e62969c3689ec3e1d3d3df68fcc7c58180603cc20f37f2171c6a7a6142e00","id":126171003,"location_subtype":"","month":"2025-02"},{"category":"theft-from-the-person","location_type":"Force","location":{"latitude":"51.356316","street":{"id":2053188,"name":"On or near Tobruk Way"},"longitude":"0.525474"},"context":"","outcome_status":{"category":"Unable to prosecute suspect","date":"2025-02"},"persistent_id":"9d3c38eeb94bbdc38c444750286712125be4b1705951cc66260d49c0781e5957","id":126167290,"location_subtype":"","month":"2025-02"},{"category":"vehicle-crime","location_type":"Force","location":{"latitude":"51.339041","street":{"id":2052852,"name":"On or near Victoria Road"},"longitude":"0.517876"},"context":"","outcome_status":{"category":"Investigation complete; no suspect identified","date":"2025-04"},"persistent_id":"f8dcb4ffa04dd8e7d04ae3b9e2ae29c2ce472299033fd83a88f9ccf5c310c82a","id":126167739,"location_subtype":"","month":"2025-02"},{"category":"vehicle-crime","location_type":"Force","location":{"latitude":"51.356316","street":{"id":2053188,"name":"On or near Tobruk Way"},"longitude":"0.525474"},"context":"","outcome_status":{"category":"Investigation complete; no suspect identified","date":"2025-02"},"persistent_id":"5eeb65d4a38c8f115d7ed1420d08f4941fd95acf18435a08ccfdc184478e2f87","id":126166846,"location_subtype":"","month":"2025-02"},{"category":"vehicle-crime","location_type":"Force","location":{"latitude":"51.356909","street":{"id":2053670,"name":"On or near Flamingo Close"},"longitude":"0.532588"},"context":"","outcome_status":{"category":"Unable to prosecute suspect","date":"2025-02"},"persistent_id":"84563b9a62aab1947c39b942a6e312ad3263ca632bab4f7acadb0630184f9acc","id":126162691,"location_subtype":"","month":"2025-02"},{"category":"vehicle-crime","location_type":"Force","location":{"latitude":"51.356751","street":{"id":2053478,"name":"On or near Silver Bank"},"longitude":"0.529060"},"context":"","outcome_status":{"category":"Unable to prosecute suspect","date":"2025-02"},"persistent_id":"1d52450bfb8be13b9b4623a2c066084d35e13d95a8163dd10b80b00915a78085","id":126163573,"location_subtype":"","month":"2025-02"},{"category":"vehicle-crime","location_type":"Force","location":{"latitude":"51.342985","street":{"id":2052700,"name":"On or near Norton Grove"},"longitude":"0.514732"},"context":"","outcome_status":{"category":"Unable to prosecute suspect","date":"2025-02"},"persistent_id":"b17e684c99c0c9a340226f4d473887da0c57521d485a0c44ed9a0b7c70853bf1","id":126165948,"location_subtype":"","month":"2025-02"},{"category":"vehicle-crime","location_type":"Force","location":{"latitude":"51.340052","street":{"id":2053803,"name":"On or near Savage Road"},"longitude":"0.534387"},"context":"","outcome_status":{"category":"Investigation complete; no suspect identified","date":"2025-02"},"persistent_id":"ffb7d48394120f864bca1760a3590f169f7dfd7bae1086c93cdb75782b966254","id":126158512,"location_subtype":"","month":"2025-02"},{"category":"vehicle-crime","location_type":"Force","location":{"latitude":"51.354152","street":{"id":2053729,"name":"On or near Monarch Close"},"longitude":"0.532795"},"context":"","outcome_status":{"category":"Investigation complete; no suspect identified","date":"2025-02"},"persistent_id":"615ecac03f51ebb852423716288f0be7a9863ea708b9d3b355823f648a7024e1","id":126165577,"location_subtype":"","month":"2025-02"},{"category":"vehicle-crime","location_type":"Force","location":{"latitude":"51.360708","street":{"id":2053998,"name":"On or near Heathfield Close"},"longitude":"0.538228"},"context":"","outcome_status":{"category":"Unable to prosecute suspect","date":"2025-06"},"persistent_id":"f1e8a92bfdea554671ddeb9e8cf7863961cabe48354256c17994d1e2a01707fb","id":126160036,"location_subtype":"","month":"2025-02"},{"category":"violent-crime","location_type":"Force","location":{"latitude":"51.357766","street":{"id":2052812,"name":"On or near Alamein Avenue"},"longitude":"0.522868"},"context":"","outcome_status":{"category":"Unable to prosecute suspect","date":"2025-05"},"persistent_id":"d17691115a8aa9159adf5cd67bbb96718d30d0db90dd4da54bfe5a5696ae0a70","id":126169817,"location_subtype":"","month":"2025-02"},{"category":"violent-crime","location_type":"Force","location":{"latitude":"51.361039","street":{"id":2054024,"name":"On or near Solent Gardens"},"longitude":"0.538706"},"context":"","outcome_status":{"category":"Unable to prosecute suspect","date":"2025-08"},"persistent_id":"1fd51a674da150cec444d1dcbec0b5de21b29fa062cff7b8d4f51fc5e23625dc","id":126170714,"location_subtype":"","month":"2025-02"},{"category":"violent-crime","location_type":"Force","location":{"latitude":"51.359141","street":{"id":2053923,"name":"On or near Snowdon Close"},"longitude":"0.536217"},"context":"","outcome_status":{"category":"Unable to prosecute suspect","date":"2025-02"},"persistent_id":"8eddbd615c4e4d2b1d77783e78c3b23ff0c1d57e0f27cc7a1b1e958ab96012f3","id":126165250,"location_subtype":"","month":"2025-02"},{"category":"violent-crime","location_type":"Force","location":{"latitude":"51.360708","street":{"id":2053998,"name":"On or near Heathfield Close"},"longitude":"0.538228"},"context":"","outcome_status":{"category":"Unable to prosecute suspect","date":"2025-02"},"persistent_id":"b5b7e3505d9cda01a53f0f66907bb596f8f7dc933e04d8bbe831ebe8e5b42be0","id":126150100,"location_subtype":"","month":"2025-02"},{"category":"violent-crime","location_type":"Force","location":{"latitude":"51.354548","street":{"id":2053037,"name":"On or near Burma Way"},"longitude":"0.522777"},"context":"","outcome_status":{"category":"Offender given a caution","date":"2025-04"},"persistent_id":"801996bda2bf58461e6d0ca062bba8a559ebf7f350556d62373b7a5ea9a3d514","id":126165648,"location_subtype":"","month":"2025-02"},{"category":"violent-crime","location_type":"Force","location":{"latitude":"51.359230","street":{"id":2053762,"name":"On or near Freshwater Road"},"longitude":"0.534210"},"context":"","outcome_status":{"category":"Action to be taken by another organisation","date":"2025-02"},"persistent_id":"f72a5e9850373c1dd1aba72e8730d708a6407f0e3d3dd92ed2acdf1b6e0cd98d","id":126150095,"location_subtype":"","month":"2025-02"},{"category":"violent-crime","location_type":"Force","location":{"latitude":"51.347945","street":{"id":2052857,"name":"On or near King George Road"},"longitude":"0.516584"},"context":"","outcome_status":{"category":"Unable to prosecute suspect","date":"2025-03"},"persistent_id":"f8967efd60d86e618a9e1e6674effef732b7f7060612cb529b888ba648739a7f","id":126169810,"location_subtype":"","month":"2025-02"},{"category":"violent-crime","location_type":"Force","location":{"latitude":"51.358640","street":{"id":2054229,"name":"On or near Sheridan Close"},"longitude":"0.542768"},"context":"","outcome_status":{"category":"Unable to prosecute suspect","date":"2025-02"},"persistent_id":"eb0a17059b080305c46c9ac3588f295612c0e92a966633a11af755614435856b","id":126169845,"location_subtype":"","month":"2025-02"},{"category":"violent-crime","location_type":"Force","location":{"latitude":"51.359141","street":{"id":2053923,"name":"On or near Snowdon Close"},"longitude":"0.536217"},"context":"","outcome_status":{"category":"Unable to prosecute suspect","date":"2025-02"},"persistent_id":"b0f874bbadda9876751355b99fd100280cee1e03d9b6841ec8e06fd9516a98d5","id":126165248,"location_subtype":"","month":"2025-02"},{"category":"violent-crime","location_type":"Force","location":{"latitude":"51.359141","street":{"id":2053923,"name":"On or near Snowdon Close"},"longitude":"0.536217"},"context":"","outcome_status":{"category":"Unable to prosecute suspect","date":"2025-02"},"persistent_id":"823ecae81dab1e2642b4a32f626a0153f28ede21a1be06b7e06c2d46d2b5f718","id":126165251,"location_subtype":"","month":"2025-02"},{"category":"violent-crime","location_type":"Force","location":{"latitude":"51.361685","street":{"id":2053641,"name":"On or near Packer Place"},"longitude":"0.531717"},"context":"","outcome_status":{"category":"Unable to prosecute suspect","date":"2025-03"},"persistent_id":"2aa2b28801e1737b91cd00025b7d003ede28656e9a9cae922f74dc1433645fb8","id":126171097,"location_subtype":"","month":"2025-02"},{"category":"violent-crime","location_type":"Force","location":{"latitude":"51.354548","street":{"id":2053037,"name":"On or near Burma Way"},"longitude":"0.522777"},"context":"","outcome_status":{"category":"Unable to prosecute suspect","date":"2025-03"},"persistent_id":"f593915cbb959cd3bf8dec19c198f4d10e27767e74c37f54fed56c7a16980ed4","id":126171091,"location_subtype":"","month":"2025-02"},{"category":"violent-crime","location_type":"Force","location":{"latitude":"51.358960","street":{"id":2053120,"name":"On or near Cherbourg Crescent"},"longitude":"0.524643"},"context":"","outcome_status":{"category":"Unable to prosecute suspect","date":"2025-03"},"persistent_id":"30837e1c1e6ce21873a97a14c812c12947e20ab89ef0c50a347ca5e3f1bf24b7","id":126170232,"location_subtype":"","month":"2025-02"},{"category":"violent-crime","location_type":"Force","location":{"latitude":"51.351021","street":{"id":2054230,"name":"On or near Poachers Close"},"longitude":"0.541987"},"context":"","outcome_status":{"category":"Unable to prosecute suspect","date":"2025-03"},"persistent_id":"9493b46c0ac91bb757beafd7ddb0fadf98427732291f476d3d4a2b7b457b30ea","id":126169839,"location_subtype":"","month":"2025-02"},{"category":"violent-crime","location_type":"Force","location":{"latitude":"51.357380","street":{"id":2053262,"name":"On or near Arnhem Drive"},"longitude":"0.525763"},"context":"","outcome_status":{"category":"Unable to prosecute suspect","date":"2025-02"},"persistent_id":"a0f4fa1043f0538a12990de38bf2241e724bdc079a7e3876e3d67f7369dfdd6d","id":126169822,"location_subtype":"","month":"2025-02"},{"category":"violent-crime","location_type":"Force","location":{"latitude":"51.342100","street":{"id":2053911,"name":"On or near Beeching Road"},"longitude":"0.535721"},"context":"","outcome_status":{"category":"Status update unavailable","date":"2025-06"},"persistent_id":"bf2b9885ee36720be70c2d45f9b0665d0faec8a1aa54ecbe6aa9ef081dc72d9e","id":126169431,"location_subtype":"","month":"2025-02"},{"category":"violent-crime","location_type":"Force","location":{"latitude":"51.356126","street":{"id":2053368,"name":"On or near Timberbank"},"longitude":"0.528451"},"context":"","outcome_status":{"category":"Action to be taken by another organisation","date":"2025-03"},"persistent_id":"ce5bdb893b74a6ac41afcf4b5feb0e260bf0d5d293253dd17df5d2c4e2673e43","id":126169425,"location_subtype":"","month":"2025-02"},{"category":"violent-crime","location_type":"Force","location":{"latitude":"51.352316","street":{"id":2053137,"name":"On or near Bradfields Avenue West"},"longitude":"0.523717"},"context":"","outcome_status":{"category":"Investigation complete; no suspect identified","date":"2025-05"},"persistent_id":"595f88eb7256edd3c526ea7ec7f97e84144ff8862411bec0565d06a3d53f08b7","id":126169418,"location_subtype":"","month":"2025-02"},{"category":"violent-crime","location_type":"Force","location":{"latitude":"51.358640","street":{"id":2054229,"name":"On or near Sheridan Close"},"longitude":"0.542768"},"context":"","outcome_status":{"category":"Status update unavailable","date":"2025-06"},"persistent_id":"6c954b6dbcb6fbc0165222d031f638dfe59a7d72d4824bb5119e6b40fde8de78","id":126153552,"location_subtype":"","month":"2025-02"},{"category":"violent-crime","location_type":"Force","location":{"latitude":"51.358640","street":{"id":2054229,"name":"On or near Sheridan Close"},"longitude":"0.542768"},"context":"","outcome_status":{"category":"Unable to prosecute suspect","date":"2025-03"},"persistent_id":"4a3306910f2881c55ffce2e14ad0c9597f30cc5572d783cc8d8a4ec508d0b72d","id":126153561,"location_subtype":"","month":"2025-02"},{"category":"violent-crime","location_type":"Force","location":{"latitude":"51.358640","street":{"id":2054229,"name":"On or near Sheridan Close"},"longitude":"0.542768"},"context":"","outcome_status":{"category":"Unable to prosecute suspect","date":"2025-03"},"persistent_id":"e9d8b8d4330354c926c459c8a997c3dfa407c3408f99dc2caae8041294951fb1","id":126153556,"location_subtype":"","month":"2025-02"},{"category":"violent-crime","location_type":"Force","location":{"latitude":"51.360708","street":{"id":2053998,"name":"On or near Heathfield Close"},"longitude":"0.538228"},"context":"","outcome_status":{"category":"Unable to prosecute suspect","date":"2025-02"},"persistent_id":"46d34d961bbd3d4db088a2546f617b654b8d072258528cb008cb53065824bd9c","id":126153538,"location_subtype":"","month":"2025-02"},{"category":"violent-crime","location_type":"Force","location":{"latitude":"51.346571","street":{"id":2053957,"name":"On or near Richmond Close"},"longitude":"0.538581"},"context":"","outcome_status":{"category":"Unable to prosecute suspect","date":"2025-02"},"persistent_id":"1ec17785efb95da3d877a16a17f3ac13cc805cffab49051400e013349710269e","id":126153543,"location_subtype":"","month":"2025-02"},{"category":"violent-crime","location_type":"Force","location":{"latitude":"51.358640","street":{"id":2054229,"name":"On or near Sheridan Close"},"longitude":"0.542768"},"context":"","outcome_status":{"category":"Unable to prosecute suspect","date":"2025-02"},"persistent_id":"2b13e635d0d46e7a821f8c29e040265409a3cb88b87658cee53787d373b1c64f","id":126155093,"location_subtype":"","month":"2025-02"},{"category":"violent-crime","location_type":"Force","location":{"latitude":"51.344239","street":{"id":2054204,"name":"On or near Croydon Close"},"longitude":"0.542042"},"context":"","outcome_status":{"category":"Unable to prosecute suspect","date":"2025-03"},"persistent_id":"3601ad0d6760adb7c225eb9a0c611b55eeb7b3ba835bd3e9696b39ccd1e4e088","id":126151867,"location_subtype":"","month":"2025-02"},{"category":"violent-crime","location_type":"Force","location":{"latitude":"51.354165","street":{"id":2054227,"name":"On or near Vixen Close"},"longitude":"0.542578"},"context":"","outcome_status":{"category":"Unable to prosecute suspect","date":"2026-01"},"persistent_id":"165e2d7890943b33c45a36112023f188428c8c06425fe4727bb1afedbd23ce13","id":126168659,"location_subtype":"","month":"2025-02"},{"category":"violent-crime","location_type":"Force","location":{"latitude":"51.362401","street":{"id":2054070,"name":"On or near Fallowfield"},"longitude":"0.539342"},"context":"","outcome_status":{"category":"Local resolution","date":"2025-03"},"persistent_id":"61036d6db64be81e7ac1d2121ac2428855045f38d7196877503ba2a1c322fc75","id":126167842,"location_subtype":"","month":"2025-02"},{"category":"violent-crime","location_type":"Force","location":{"latitude":"51.361156","street":{"id":2053736,"name":"On or near Montgomery Avenue"},"longitude":"0.533326"},"context":"","outcome_status":{"category":"Unable to prosecute suspect","date":"2025-03"},"persistent_id":"f7890c25dad707fa144743ef4b7954dd8d522cc1cc8440c2e72501a063944382","id":126167382,"location_subtype":"","month":"2025-02"},{"category":"violent-crime","location_type":"Force","location":{"latitude":"51.351272","street":{"id":2053221,"name":"On or near Further/higher Educational Building"},"longitude":"0.526104"},"context":"","outcome_status":{"category":"Local resolution","date":"2025-03"},"persistent_id":"e754b91a77c099d78e6ff4391b1c83e8f78bc073e63d0cfb6897bbad4267b20c","id":126166451,"location_subtype":"","month":"2025-02"},{"category":"violent-crime","location_type":"Force","location":{"latitude":"51.354548","street":{"id":2053037,"name":"On or near Burma Way"},"longitude":"0.522777"},"context":"","outcome_status":{"category":"Unable to prosecute suspect","date":"2025-04"},"persistent_id":"025be250e6ac72f41d2402944dacd197793bdeafa2baae2c6c502c73033eb8c0","id":126165649,"location_subtype":"","month":"2025-02"},{"category":"violent-crime","location_type":"Force","location":{"latitude":"51.336607","street":{"id":2053461,"name":"On or near Betteridge Close"},"longitude":"0.528999"},"context":"","outcome_status":{"category":"Unable to prosecute suspect","date":"2025-03"},"persistent_id":"e4b84a760808a556cc10cf0395f7fd2e825641c0b6129598abf31984ab1b9b5f","id":126164798,"location_subtype":"","month":"2025-02"},{"category":"violent-crime","location_type":"Force","location":{"latitude":"51.351272","street":{"id":2053221,"name":"On or near Further/higher Educational Building"},"longitude":"0.526104"},"context":"","outcome_status":{"category":"Unable to prosecute suspect","date":"2025-04"},"persistent_id":"83bf8f60a67c0bce1247da588b80b94c033dbfde0d985ff9633afb55a4b2544e","id":126164792,"location_subtype":"","month":"2025-02"},{"category":"violent-crime","location_type":"Force","location":{"latitude":"51.351272","street":{"id":2053221,"name":"On or near Further/higher Educational Building"},"longitude":"0.526104"},"context":"","outcome_status":{"category":"Unable to prosecute suspect","date":"2025-04"},"persistent_id":"dee5bbcb056796c5218066908d881614feb98890823c0c056dcba01740ec9dbb","id":126164793,"location_subtype":"","month":"2025-02"},{"category":"violent-crime","location_type":"Force","location":{"latitude":"51.336997","street":{"id":2053834,"name":"On or near Swingate Close"},"longitude":"0.535468"},"context":"","outcome_status":{"category":"Unable to prosecute suspect","date":"2025-03"},"persistent_id":"119c5d9b258e2776de8ac45fd2485689a7b89b834db67f01a38c5eab4636aad3","id":126164405,"location_subtype":"","month":"2025-02"},{"category":"violent-crime","location_type":"Force","location":{"latitude":"51.351272","street":{"id":2053221,"name":"On or near Further/higher Educational Building"},"longitude":"0.526104"},"context":"","outcome_status":{"category":"Unable to prosecute suspect","date":"2025-04"},"persistent_id":"2be67934cb2861bdac2b916c1596032ed5fcb77cf4da8bc1a3aa5ceb3eb9e4cf","id":126164394,"location_subtype":"","month":"2025-02"},{"category":"violent-crime","location_type":"Force","location":{"latitude":"51.361932","street":{"id":2053792,"name":"On or near Stalin Avenue"},"longitude":"0.534417"},"context":"","outcome_status":{"category":"Status update unavailable","date":"2025-06"},"persistent_id":"a88a1682d97829cf2ac9f06575278ae7371f5c839f053175144ce5d15af1be89","id":126162877,"location_subtype":"","month":"2025-02"},{"category":"violent-crime","location_type":"Force","location":{"latitude":"51.351893","street":{"id":2053112,"name":"On or near Walderslade Road"},"longitude":"0.523306"},"context":"","outcome_status":{"category":"Unable to prosecute suspect","date":"2025-04"},"persistent_id":"db89397ef7285f35ea2da9569f4542d3fdc42656ad1c867f5c808398a9846e59","id":126163749,"location_subtype":"","month":"2025-02"},{"category":"violent-crime","location_type":"Force","location":{"latitude":"51.358640","street":{"id":2054229,"name":"On or near Sheridan Close"},"longitude":"0.542768"},"context":"","outcome_status":{"category":"Unable to prosecute suspect","date":"2025-06"},"persistent_id":"0d91068af280091392622489462e1ebe83112955284fcd9c6bdd21fff10309a4","id":126161178,"location_subtype":"","month":"2025-02"},{"category":"violent-crime","location_type":"Force","location":{"latitude":"51.344605","street":{"id":2052694,"name":"On or near Sedge Crescent"},"longitude":"0.515079"},"context":"","outcome_status":{"category":"Unable to prosecute suspect","date":"2025-02"},"persistent_id":"131bb8ea985554e568e0d2db0a75305949ef2fcd5a67c57ac12d4094c6c58fc4","id":126161152,"location_subtype":"","month":"2025-02"},{"category":"violent-crime","location_type":"Force","location":{"latitude":"51.361904","street":{"id":2054139,"name":"On or near Ryde Close"},"longitude":"0.540306"},"context":"","outcome_status":{"category":"Unable to prosecute suspect","date":"2025-04"},"persistent_id":"ff711e25c025da62b338b148e77b4cf7f3700713c61431d7bccc5458caada0e9","id":126158866,"location_subtype":"","month":"2025-02"},{"category":"violent-crime","location_type":"Force","location":{"latitude":"51.355428","street":{"id":2053773,"name":"On or near Dove Close"},"longitude":"0.535322"},"context":"","outcome_status":{"category":"Unable to prosecute suspect","date":"2025-03"},"persistent_id":"b3c23afd3ac55ca92025d069548d58733a595937bee6487279fb369ec32adf9d","id":126156942,"location_subtype":"","month":"2025-02"},{"category":"violent-crime","location_type":"Force","location":{"latitude":"51.351620","street":{"id":2053662,"name":"On or near Swallow Rise"},"longitude":"0.531794"},"context":"","outcome_status":{"category":"Unable to prosecute suspect","date":"2025-02"},"persistent_id":"cc79a7ce2a4ec7fd8af67430aa02d23ca6786a3709119a624385db6236fc4772","id":126156904,"location_subtype":"","month":"2025-02"},{"category":"violent-crime","location_type":"Force","location":{"latitude":"51.356647","street":{"id":2053780,"name":"On or near Clover Bank View"},"longitude":"0.533895"},"context":"","outcome_status":{"category":"Investigation complete; no suspect identified","date":"2025-02"},"persistent_id":"ae8944208d0ac311088dc88dd3adf0bc2a827b179151e816e3989e659e762763","id":126156937,"location_subtype":"","month":"2025-02"},{"category":"violent-crime","location_type":"Force","location":{"latitude":"51.346410","street":{"id":2052990,"name":"On or near Teasel Road"},"longitude":"0.520664"},"context":"","outcome_status":{"category":"Unable to prosecute suspect","date":"2025-02"},"persistent_id":"f34906f3946c0c4c6db3e3879e9d6a9d66323d3a53f319bd4891f866a3d991fe","id":126158814,"location_subtype":"","month":"2025-02"},{"category":"violent-crime","location_type":"Force","location":{"latitude":"51.360003","street":{"id":2054313,"name":"On or near Hampshire Close"},"longitude":"0.545027"},"context":"","outcome_status":{"category":"Unable to prosecute suspect","date":"2025-02"},"persistent_id":"dc882a639b8eabfbdaa8e6a57ec398fc907db3faf07600451460f4056fee1bfb","id":126158887,"location_subtype":"","month":"2025-02"},{"category":"violent-crime","location_type":"Force","location":{"latitude":"51.360003","street":{"id":2054313,"name":"On or near Hampshire Close"},"longitude":"0.545027"},"context":"","outcome_status":{"category":"Unable to prosecute suspect","date":"2025-02"},"persistent_id":"7be6b534956495ef544590949834bda78e74e3faa6f09101f8de8d357aa9758b","id":126158891,"location_subtype":"","month":"2025-02"},{"category":"violent-crime","location_type":"Force","location":{"latitude":"51.347434","street":{"id":2053227,"name":"On or near Kings Oak Mews"},"longitude":"0.525704"},"context":"","outcome_status":{"category":"Action to be taken by another organisation","date":"2025-02"},"persistent_id":"81534d6ba2a20bbf5904770f6137734f978f385ad0ae62b5abe75db26a30ecac","id":126162864,"location_subtype":"","month":"2025-02"},{"category":"violent-crime","location_type":"Force","location":{"latitude":"51.352493","street":{"id":2052853,"name":"On or near Snodhurst Avenue"},"longitude":"0.517996"},"context":"","outcome_status":{"category":"Investigation complete; no suspect identified","date":"2025-02"},"persistent_id":"e57ebacfc7f66705c6fc608b293d871105c349370964587524757a1eeae31308","id":126168640,"location_subtype":"","month":"2025-02"},{"category":"violent-crime","location_type":"Force","location":{"latitude":"51.349562","street":{"id":2054085,"name":"On or near Tay Close"},"longitude":"0.539996"},"context":"","outcome_status":{"category":"Unable to prosecute suspect","date":"2025-02"},"persistent_id":"01c067391b31512fe36506de93fc49e42e494a46ce669571e4528877b87bde45","id":126166464,"location_subtype":"","month":"2025-02"},{"category":"violent-crime","location_type":"Force","location":{"latitude":"51.357358","street":{"id":2053311,"name":"On or near Shalfleet Close"},"longitude":"0.526767"},"context":"","outcome_status":{"category":"Unable to prosecute suspect","date":"2025-02"},"persistent_id":"5ad133b18a70ba5ea41f1073fa0275650643a90f8fca7bbbf26590a1d0c7ef2a","id":126163755,"location_subtype":"","month":"2025-02"},{"category":"violent-crime","location_type":"Force","location":{"latitude":"51.347278","street":{"id":2053891,"name":"On or near Scotby Avenue"},"longitude":"0.535820"},"context":"","outcome_status":{"category":"Unable to prosecute suspect","date":"2025-02"},"persistent_id":"9f94ce6f29adffd96ae3afe785a39198c54653c061619c647aadfb44ab0f3a10","id":126163771,"location_subtype":"","month":"2025-02"},{"category":"violent-crime","location_type":"Force","location":{"latitude":"51.335467","street":{"id":2053125,"name":"On or near Forest Drive"},"longitude":"0.523868"},"context":"","outcome_status":{"category":"Investigation complete; no suspect identified","date":"2025-02"},"persistent_id":"9fdeb6f52687288c0aa93a423b9b7d4ba97915069063028e60b4cd4d7c57414b","id":126164392,"location_subtype":"","month":"2025-02"},{"category":"violent-crime","location_type":"Force","location":{"latitude":"51.361685","street":{"id":2053641,"name":"On or near Packer Place"},"longitude":"0.531717"},"context":"","outcome_status":{"category":"Unable to prosecute suspect","date":"2025-02"},"persistent_id":"f6e0bdc9d40830369bc1e65ec45e86157851f81c44fdb4af14da999721c0702c","id":126164402,"location_subtype":"","month":"2025-02"},{"category":"violent-crime","location_type":"Force","location":{"latitude":"51.357724","street":{"id":2053582,"name":"On or near Churchill Avenue"},"longitude":"0.530235"},"context":"","outcome_status":{"category":"Unable to prosecute suspect","date":"2025-02"},"persistent_id":"66a8229e583211e09144f4b00b0d6720b76110e73bc4e86c1b735b98c85bb578","id":126164796,"location_subtype":"","month":"2025-02"},{"category":"violent-crime","location_type":"Force","location":{"latitude":"51.343966","street":{"id":2053559,"name":"On or near Southbourne Grove"},"longitude":"0.530137"},"context":"","outcome_status":{"category":"Unable to prosecute suspect","date":"2025-02"},"persistent_id":"5e5ac03edd1120ea99eba37e58c4da48da40cae19353bb9da8dca012a2599a7e","id":126164801,"location_subtype":"","month":"2025-02"},{"category":"violent-crime","location_type":"Force","location":{"latitude":"51.362604","street":{"id":2053482,"name":"On or near Ironside Close"},"longitude":"0.529986"},"context":"","outcome_status":{"category":"Unable to prosecute suspect","date":"2025-02"},"persistent_id":"8ee9deb6cc83b393f7e12dd42262f6b0db2985b128c97a57cb89a6d11a66e4ab","id":126165243,"location_subtype":"","month":"2025-02"},{"category":"violent-crime","location_type":"Force","location":{"latitude":"51.359141","street":{"id":2053923,"name":"On or near Snowdon Close"},"longitude":"0.536217"},"context":"","outcome_status":{"category":"Unable to prosecute suspect","date":"2025-02"},"persistent_id":"d24edc6389de804412606199d33d2bbe62cf4c7cfb270895ba7e98d2e02d397e","id":126165249,"location_subtype":"","month":"2025-02"},{"category":"violent-crime","location_type":"Force","location":{"latitude":"51.356126","street":{"id":2053368,"name":"On or near Timberbank"},"longitude":"0.528451"},"context":"","outcome_status":{"category":"Action to be taken by another organisation","date":"2025-02"},"persistent_id":"13e766c41e2ae9b43775238940a36c68124590990b977cc5dacc35676e058c81","id":126166456,"location_subtype":"","month":"2025-02"},{"category":"violent-crime","location_type":"Force","location":{"latitude":"51.341907","street":{"id":2053229,"name":"On or near Sports/recreation Area"},"longitude":"0.526269"},"context":"","outcome_status":{"category":"Unable to prosecute suspect","date":"2025-02"},"persistent_id":"7eaf995c0ec345faaf40b70ec34600f423f03bc612775c2c3a6199a7a9a32e35","id":126167377,"location_subtype":"","month":"2025-02"},{"category":"violent-crime","location_type":"Force","location":{"latitude":"51.341907","street":{"id":2053229,"name":"On or near Sports/recreation Area"},"longitude":"0.526269"},"context":"","outcome_status":{"category":"Unable to prosecute suspect","date":"2025-02"},"persistent_id":"1cf47ec1b9a7c364f1f8551f0c9dcea9ca9bf0e82c5793156bfd4a5d2b5dd834","id":126167378,"location_subtype":"","month":"2025-02"},{"category":"violent-crime","location_type":"Force","location":{"latitude":"51.342307","street":{"id":2053621,"name":"On or near Hillborough Grove"},"longitude":"0.531582"},"context":"","outcome_status":{"category":"Unable to prosecute suspect","date":"2025-02"},"persistent_id":"c14b998a32b234589e170d5620cba5140e4ef81bc73891817338396916a78cd3","id":126168653,"location_subtype":"","month":"2025-02"},{"category":"violent-crime","location_type":"Force","location":{"latitude":"51.342797","street":{"id":2053411,"name":"On or near Brendon Avenue"},"longitude":"0.529685"},"context":"","outcome_status":{"category":"Unable to prosecute suspect","date":"2025-02"},"persistent_id":"13ec821895e145d8915115bac8c7c8111dde360afe77231355e7aa9c9b21ac45","id":126169048,"location_subtype":"","month":"2025-02"},{"category":"violent-crime","location_type":"Force","location":{"latitude":"51.340870","street":{"id":2053859,"name":"On or near Huckleberry Close"},"longitude":"0.535638"},"context":"","outcome_status":{"category":"Unable to prosecute suspect","date":"2025-02"},"persistent_id":"851865c2a089e2115bf734b7dca2e638ee0cdee403f70b72a0471cbfe46e885b","id":126169430,"location_subtype":"","month":"2025-02"},{"category":"violent-crime","location_type":"Force","location":{"latitude":"51.361932","street":{"id":2053792,"name":"On or near Stalin Avenue"},"longitude":"0.534417"},"context":"","outcome_status":{"category":"Unable to prosecute suspect","date":"2025-02"},"persistent_id":"d4a03e34b434485cc531b51c1ae8524c77303ae9875b151bd28fb2ace1ba8d07","id":126170246,"location_subtype":"","month":"2025-02"},{"category":"violent-crime","location_type":"Force","location":{"latitude":"51.347156","street":{"id":2052878,"name":"On or near Sorrell Road"},"longitude":"0.519413"},"context":"","outcome_status":{"category":"Court result unavailable","date":"2025-09"},"persistent_id":"94fe2d461681e9d251f25aa8d8408123ef4f162cf4f00b84d679255072d304e0","id":126170700,"location_subtype":"","month":"2025-02"},{"category":"violent-crime","location_type":"Force","location":{"latitude":"51.358960","street":{"id":2053120,"name":"On or near Cherbourg Crescent"},"longitude":"0.524643"},"context":"","outcome_status":{"category":"Unable to prosecute suspect","date":"2025-02"},"persistent_id":"ac9667416824a98c21232d5345321c971f17ba85e8e85663a140aad6a02b9f3f","id":126164789,"location_subtype":"","month":"2025-02"},{"category":"violent-crime","location_type":"Force","location":{"latitude":"51.351272","street":{"id":2053221,"name":"On or near Further/higher Educational Building"},"longitude":"0.526104"},"context":"","outcome_status":{"category":"Unable to prosecute suspect","date":"2025-02"},"persistent_id":"38e496fb464e17f03801827349b0fc446d468839c5ab7023d985c67ae481c9fa","id":126165654,"location_subtype":"","month":"2025-02"},{"category":"violent-crime","location_type":"Force","location":{"latitude":"51.353326","street":{"id":2054006,"name":"On or near Defoe Close"},"longitude":"0.537734"},"context":"","outcome_status":{"category":"Unable to prosecute suspect","date":"2025-02"},"persistent_id":"edf40f85e188bf3617183712e0a24dfcfa6ad1f487faf37a2df38c172ae7964d","id":126150104,"location_subtype":"","month":"2025-02"},{"category":"violent-crime","location_type":"Force","location":{"latitude":"51.360089","street":{"id":2053909,"name":"On or near Fisher Road"},"longitude":"0.536485"},"context":"","outcome_status":{"category":"Unable to prosecute suspect","date":"2025-02"},"persistent_id":"aa1cd41b6528611d108e2d910b7df84f67f3f2e6944363f10e6361c1c8d03644","id":126151838,"location_subtype":"","month":"2025-02"},{"category":"violent-crime","location_type":"Force","location":{"latitude":"51.352557","street":{"id":2053677,"name":"On or near Resolution Close"},"longitude":"0.532119"},"context":"","outcome_status":{"category":"Unable to prosecute suspect","date":"2025-04"},"persistent_id":"af8bf01a75cf95d99549e6c990498bebe11116856c471574793728a48a8d4459","id":126155081,"location_subtype":"","month":"2025-02"},{"category":"violent-crime","location_type":"Force","location":{"latitude":"51.352291","street":{"id":2052758,"name":"On or near Concord Avenue"},"longitude":"0.515644"},"context":"","outcome_status":{"category":"Action to be taken by another organisation","date":"2025-04"},"persistent_id":"7a7610b9be347caefe4c258680f95eadb67450673a78b6f6ea2b04dcf4f95a2a","id":126168637,"location_subtype":"","month":"2025-02"},{"category":"violent-crime","location_type":"Force","location":{"latitude":"51.351272","street":{"id":2053221,"name":"On or near Further/higher Educational Building"},"longitude":"0.526104"},"context":"","outcome_status":{"category":"Unable to prosecute suspect","date":"2025-04"},"persistent_id":"96b8e0a0c7589c50ae46cca7da02d1a6a7e37927af63869123a900a588b20c2d","id":126164794,"location_subtype":"","month":"2025-02"},{"category":"violent-crime","location_type":"Force","location":{"latitude":"51.351272","street":{"id":2053221,"name":"On or near Further/higher Educational Building"},"longitude":"0.526104"},"context":"","outcome_status":{"category":"Offender given a caution","date":"2025-07"},"persistent_id":"63f90c8047daa4a72b09d27a3643bf3023787d345b910f61b08af3e31dda25ac","id":126164791,"location_subtype":"","month":"2025-02"},{"category":"violent-crime","location_type":"Force","location":{"latitude":"51.347156","street":{"id":2052878,"name":"On or near Sorrell Road"},"longitude":"0.519413"},"context":"","outcome_status":{"category":"Court result unavailable","date":"2025-09"},"persistent_id":"fba62798b4fc40e1aa4f39e9d6a37b3b4389153de5149b8bf38354cc79cdc9ec","id":126170701,"location_subtype":"","month":"2025-02"},{"category":"other-crime","location_type":"Force","location":{"latitude":"51.361932","street":{"id":2053792,"name":"On or near Stalin Avenue"},"longitude":"0.534417"},"context":"","outcome_status":{"category":"Unable to prosecute suspect","date":"2025-03"},"persistent_id":"d8f84141da938343af2a4a2de22c65f24e48a737cac93d4791334879291bc13c","id":126171105,"location_subtype":"","month":"2025-02"},{"category":"other-crime","location_type":"Force","location":{"latitude":"51.352730","street":{"id":2052983,"name":"On or near Meadside Walk"},"longitude":"0.521183"},"context":"","outcome_status":{"category":"Investigation complete; no suspect identified","date":"2025-02"},"persistent_id":"65434fc1da30256e451476812b152f2d812a44892afcfcefe628b9cfcdc1fe91","id":126169596,"location_subtype":"","month":"2025-02"},{"category":"other-crime","location_type":"Force","location":{"latitude":"51.360089","street":{"id":2053909,"name":"On or near Fisher Road"},"longitude":"0.536485"},"context":"","outcome_status":{"category":"Investigation complete; no suspect identified","date":"2025-02"},"persistent_id":"3ec6e78ede38a0e4dbf700b9952cabf6af418a4faabd52e7e16cb3561c86bf00","id":126167580,"location_subtype":"","month":"2025-02"},{"category":"other-crime","location_type":"Force","location":{"latitude":"51.348806","street":{"id":2053840,"name":"On or near Bilsington Close"},"longitude":"0.535071"},"context":"","outcome_status":{"category":"Unable to prosecute suspect","date":"2025-02"},"persistent_id":"e34ef28ecee02ff956168b5b00ee1cea26c57f0a70c893dce999de7b81b2f36d","id":126165001,"location_subtype":"","month":"2025-02"},{"category":"other-crime","location_type":"Force","location":{"latitude":"51.355964","street":{"id":2054221,"name":"On or near Manchester Close"},"longitude":"0.541715"},"context":"","outcome_status":{"category":"Court result unavailable","date":"2025-10"},"persistent_id":"95f487f8387f8aa06affb7b4a6f99f65cc6e529f2abde1e6737ba2e74fea3ad5","id":126165830,"location_subtype":"","month":"2025-02"},{"category":"other-crime","location_type":"Force","location":{"latitude":"51.361932","street":{"id":2053792,"name":"On or near Stalin Avenue"},"longitude":"0.534417"},"context":"","outcome_status":{"category":"Status update unavailable","date":"2025-06"},"persistent_id":"00ec1aff8c3a1b2801f5bdbc8f37fab99810159cd325d389fc6309400f0f5988","id":126166461,"location_subtype":"","month":"2025-02"},{"category":"other-crime","location_type":"Force","location":{"latitude":"51.347388","street":{"id":2053019,"name":"On or near Silverweed Road"},"longitude":"0.520761"},"context":"","outcome_status":{"category":"Unable to prosecute suspect","date":"2025-03"},"persistent_id":"ecc2c864294b4290772b792b2c703437d83f49a51347b95c444a181c4aa34713","id":126170440,"location_subtype":"","month":"2025-02"}]