[{"category":"anti-social-behaviour","location_type":"Force","location":{"latitude":"51.339262","street":{"id":2057718,"name":"On or near Parking Area"},"longitude":"0.735327"},"context":"","outcome_status":null,"persistent_id":"","id":133333558,"location_subtype":"","month":"2026-01"},{"category":"anti-social-behaviour","location_type":"Force","location":{"latitude":"51.339913","street":{"id":2057845,"name":"On or near Parking Area"},"longitude":"0.741311"},"context":"","outcome_status":null,"persistent_id":"","id":133334671,"location_subtype":"","month":"2026-01"},{"category":"anti-social-behaviour","location_type":"Force","location":{"latitude":"51.341148","street":{"id":2057704,"name":"On or near Parking Area"},"longitude":"0.734276"},"context":"","outcome_status":null,"persistent_id":"","id":133334693,"location_subtype":"","month":"2026-01"},{"category":"anti-social-behaviour","location_type":"Force","location":{"latitude":"51.338594","street":{"id":2057756,"name":"On or near Roman Square"},"longitude":"0.736594"},"context":"","outcome_status":null,"persistent_id":"","id":133334787,"location_subtype":"","month":"2026-01"},{"category":"anti-social-behaviour","location_type":"Force","location":{"latitude":"51.342143","street":{"id":2057596,"name":"On or near Frederick Street"},"longitude":"0.729783"},"context":"","outcome_status":null,"persistent_id":"","id":133334804,"location_subtype":"","month":"2026-01"},{"category":"anti-social-behaviour","location_type":"Force","location":{"latitude":"51.341148","street":{"id":2057704,"name":"On or near Parking Area"},"longitude":"0.734276"},"context":"","outcome_status":null,"persistent_id":"","id":133334851,"location_subtype":"","month":"2026-01"},{"category":"anti-social-behaviour","location_type":"Force","location":{"latitude":"51.348470","street":{"id":2057249,"name":"On or near Wellington Road"},"longitude":"0.709880"},"context":"","outcome_status":null,"persistent_id":"","id":133332858,"location_subtype":"","month":"2026-01"},{"category":"anti-social-behaviour","location_type":"Force","location":{"latitude":"51.339262","street":{"id":2057718,"name":"On or near Parking Area"},"longitude":"0.735327"},"context":"","outcome_status":null,"persistent_id":"","id":133332875,"location_subtype":"","month":"2026-01"},{"category":"anti-social-behaviour","location_type":"Force","location":{"latitude":"51.342411","street":{"id":2057554,"name":"On or near Arthur Street"},"longitude":"0.728334"},"context":"","outcome_status":null,"persistent_id":"","id":133332902,"location_subtype":"","month":"2026-01"},{"category":"anti-social-behaviour","location_type":"Force","location":{"latitude":"51.342356","street":{"id":2057647,"name":"On or near Parking Area"},"longitude":"0.731849"},"context":"","outcome_status":null,"persistent_id":"","id":133332932,"location_subtype":"","month":"2026-01"},{"category":"anti-social-behaviour","location_type":"Force","location":{"latitude":"51.341148","street":{"id":2057704,"name":"On or near Parking Area"},"longitude":"0.734276"},"context":"","outcome_status":null,"persistent_id":"","id":133333015,"location_subtype":"","month":"2026-01"},{"category":"anti-social-behaviour","location_type":"Force","location":{"latitude":"51.338492","street":{"id":2057694,"name":"On or near Police Station"},"longitude":"0.734131"},"context":"","outcome_status":null,"persistent_id":"","id":133333107,"location_subtype":"","month":"2026-01"},{"category":"anti-social-behaviour","location_type":"Force","location":{"latitude":"51.339871","street":{"id":2057742,"name":"On or near High Street"},"longitude":"0.736986"},"context":"","outcome_status":null,"persistent_id":"","id":133333147,"location_subtype":"","month":"2026-01"},{"category":"anti-social-behaviour","location_type":"Force","location":{"latitude":"51.338473","street":{"id":2057859,"name":"On or near Heather Close"},"longitude":"0.741770"},"context":"","outcome_status":null,"persistent_id":"","id":133333166,"location_subtype":"","month":"2026-01"},{"category":"anti-social-behaviour","location_type":"Force","location":{"latitude":"51.342356","street":{"id":2057647,"name":"On or near Parking Area"},"longitude":"0.731849"},"context":"","outcome_status":null,"persistent_id":"","id":133333200,"location_subtype":"","month":"2026-01"},{"category":"anti-social-behaviour","location_type":"Force","location":{"latitude":"51.342281","street":{"id":2057843,"name":"On or near Crown Quay Lane"},"longitude":"0.741222"},"context":"","outcome_status":null,"persistent_id":"","id":133333215,"location_subtype":"","month":"2026-01"},{"category":"anti-social-behaviour","location_type":"Force","location":{"latitude":"51.340836","street":{"id":2057625,"name":"On or near West Street"},"longitude":"0.731084"},"context":"","outcome_status":null,"persistent_id":"","id":133334768,"location_subtype":"","month":"2026-01"},{"category":"anti-social-behaviour","location_type":"Force","location":{"latitude":"51.333226","street":{"id":2057179,"name":"On or near The Street"},"longitude":"0.704774"},"context":"","outcome_status":null,"persistent_id":"","id":133334616,"location_subtype":"","month":"2026-01"},{"category":"anti-social-behaviour","location_type":"Force","location":{"latitude":"51.331574","street":{"id":2057740,"name":"On or near Violet Court"},"longitude":"0.736391"},"context":"","outcome_status":null,"persistent_id":"","id":133334456,"location_subtype":"","month":"2026-01"},{"category":"anti-social-behaviour","location_type":"Force","location":{"latitude":"51.346203","street":{"id":2057436,"name":"On or near Staplehurst Road"},"longitude":"0.721910"},"context":"","outcome_status":null,"persistent_id":"","id":133334231,"location_subtype":"","month":"2026-01"},{"category":"anti-social-behaviour","location_type":"Force","location":{"latitude":"51.339871","street":{"id":2057742,"name":"On or near High Street"},"longitude":"0.736986"},"context":"","outcome_status":null,"persistent_id":"","id":133334194,"location_subtype":"","month":"2026-01"},{"category":"anti-social-behaviour","location_type":"Force","location":{"latitude":"51.339262","street":{"id":2057718,"name":"On or near Parking Area"},"longitude":"0.735327"},"context":"","outcome_status":null,"persistent_id":"","id":133333267,"location_subtype":"","month":"2026-01"},{"category":"anti-social-behaviour","location_type":"Force","location":{"latitude":"51.339871","street":{"id":2057742,"name":"On or near High Street"},"longitude":"0.736986"},"context":"","outcome_status":null,"persistent_id":"","id":133332955,"location_subtype":"","month":"2026-01"},{"category":"anti-social-behaviour","location_type":"Force","location":{"latitude":"51.342396","street":{"id":2057198,"name":"On or near Maylam Gardens"},"longitude":"0.707281"},"context":"","outcome_status":null,"persistent_id":"","id":133333505,"location_subtype":"","month":"2026-01"},{"category":"anti-social-behaviour","location_type":"Force","location":{"latitude":"51.342356","street":{"id":2057647,"name":"On or near Parking Area"},"longitude":"0.731849"},"context":"","outcome_status":null,"persistent_id":"","id":133332935,"location_subtype":"","month":"2026-01"},{"category":"anti-social-behaviour","location_type":"Force","location":{"latitude":"51.340860","street":{"id":2057758,"name":"On or near Parking Area"},"longitude":"0.737002"},"context":"","outcome_status":null,"persistent_id":"","id":133333313,"location_subtype":"","month":"2026-01"},{"category":"anti-social-behaviour","location_type":"Force","location":{"latitude":"51.341148","street":{"id":2057704,"name":"On or near Parking Area"},"longitude":"0.734276"},"context":"","outcome_status":null,"persistent_id":"","id":133333361,"location_subtype":"","month":"2026-01"},{"category":"anti-social-behaviour","location_type":"Force","location":{"latitude":"51.341835","street":{"id":2057670,"name":"On or near Fountain Street"},"longitude":"0.732996"},"context":"","outcome_status":null,"persistent_id":"","id":133333378,"location_subtype":"","month":"2026-01"},{"category":"anti-social-behaviour","location_type":"Force","location":{"latitude":"51.327880","street":{"id":2057738,"name":"On or near Primrose Avenue"},"longitude":"0.736272"},"context":"","outcome_status":null,"persistent_id":"","id":133333396,"location_subtype":"","month":"2026-01"},{"category":"anti-social-behaviour","location_type":"Force","location":{"latitude":"51.329005","street":{"id":2057587,"name":"On or near Cobham Avenue"},"longitude":"0.730079"},"context":"","outcome_status":null,"persistent_id":"","id":133333417,"location_subtype":"","month":"2026-01"},{"category":"anti-social-behaviour","location_type":"Force","location":{"latitude":"51.342051","street":{"id":2057857,"name":"On or near Shopping Area"},"longitude":"0.741842"},"context":"","outcome_status":null,"persistent_id":"","id":133333491,"location_subtype":"","month":"2026-01"},{"category":"anti-social-behaviour","location_type":"Force","location":{"latitude":"51.343210","street":{"id":2057746,"name":"On or near Cambria Crescent"},"longitude":"0.736883"},"context":"","outcome_status":null,"persistent_id":"","id":133333500,"location_subtype":"","month":"2026-01"},{"category":"anti-social-behaviour","location_type":"Force","location":{"latitude":"51.341148","street":{"id":2057704,"name":"On or near Parking Area"},"longitude":"0.734276"},"context":"","outcome_status":null,"persistent_id":"","id":133333502,"location_subtype":"","month":"2026-01"},{"category":"anti-social-behaviour","location_type":"Force","location":{"latitude":"51.329367","street":{"id":2057500,"name":"On or near Parking Area"},"longitude":"0.725751"},"context":"","outcome_status":null,"persistent_id":"","id":133333508,"location_subtype":"","month":"2026-01"},{"category":"anti-social-behaviour","location_type":"Force","location":{"latitude":"51.341148","street":{"id":2057704,"name":"On or near Parking Area"},"longitude":"0.734276"},"context":"","outcome_status":null,"persistent_id":"","id":133333660,"location_subtype":"","month":"2026-01"},{"category":"anti-social-behaviour","location_type":"Force","location":{"latitude":"51.325619","street":{"id":2057156,"name":"On or near Hearts Delight Road"},"longitude":"0.707054"},"context":"","outcome_status":null,"persistent_id":"","id":133333542,"location_subtype":"","month":"2026-01"},{"category":"anti-social-behaviour","location_type":"Force","location":{"latitude":"51.339986","street":{"id":2057804,"name":"On or near The Butts"},"longitude":"0.739750"},"context":"","outcome_status":null,"persistent_id":"","id":133333548,"location_subtype":"","month":"2026-01"},{"category":"anti-social-behaviour","location_type":"Force","location":{"latitude":"51.339913","street":{"id":2057845,"name":"On or near Parking Area"},"longitude":"0.741311"},"context":"","outcome_status":null,"persistent_id":"","id":133333553,"location_subtype":"","month":"2026-01"},{"category":"anti-social-behaviour","location_type":"Force","location":{"latitude":"51.341148","street":{"id":2057704,"name":"On or near Parking Area"},"longitude":"0.734276"},"context":"","outcome_status":null,"persistent_id":"","id":133333576,"location_subtype":"","month":"2026-01"},{"category":"anti-social-behaviour","location_type":"Force","location":{"latitude":"51.341148","street":{"id":2057704,"name":"On or near Parking Area"},"longitude":"0.734276"},"context":"","outcome_status":null,"persistent_id":"","id":133333581,"location_subtype":"","month":"2026-01"},{"category":"anti-social-behaviour","location_type":"Force","location":{"latitude":"51.339262","street":{"id":2057718,"name":"On or near Parking Area"},"longitude":"0.735327"},"context":"","outcome_status":null,"persistent_id":"","id":133333616,"location_subtype":"","month":"2026-01"},{"category":"anti-social-behaviour","location_type":"Force","location":{"latitude":"51.333314","street":{"id":2057208,"name":"On or near Mountview"},"longitude":"0.706804"},"context":"","outcome_status":null,"persistent_id":"","id":133333628,"location_subtype":"","month":"2026-01"},{"category":"anti-social-behaviour","location_type":"Force","location":{"latitude":"51.338492","street":{"id":2057694,"name":"On or near Police Station"},"longitude":"0.734131"},"context":"","outcome_status":null,"persistent_id":"","id":133333643,"location_subtype":"","month":"2026-01"},{"category":"anti-social-behaviour","location_type":"Force","location":{"latitude":"51.339262","street":{"id":2057718,"name":"On or near Parking Area"},"longitude":"0.735327"},"context":"","outcome_status":null,"persistent_id":"","id":133333693,"location_subtype":"","month":"2026-01"},{"category":"anti-social-behaviour","location_type":"Force","location":{"latitude":"51.339262","street":{"id":2057718,"name":"On or near Parking Area"},"longitude":"0.735327"},"context":"","outcome_status":null,"persistent_id":"","id":133333757,"location_subtype":"","month":"2026-01"},{"category":"anti-social-behaviour","location_type":"Force","location":{"latitude":"51.339986","street":{"id":2057804,"name":"On or near The Butts"},"longitude":"0.739750"},"context":"","outcome_status":null,"persistent_id":"","id":133333766,"location_subtype":"","month":"2026-01"},{"category":"anti-social-behaviour","location_type":"Force","location":{"latitude":"51.342492","street":{"id":2057527,"name":"On or near Hawthorn Road"},"longitude":"0.727176"},"context":"","outcome_status":null,"persistent_id":"","id":133333886,"location_subtype":"","month":"2026-01"},{"category":"anti-social-behaviour","location_type":"Force","location":{"latitude":"51.339986","street":{"id":2057804,"name":"On or near The Butts"},"longitude":"0.739750"},"context":"","outcome_status":null,"persistent_id":"","id":133333910,"location_subtype":"","month":"2026-01"},{"category":"anti-social-behaviour","location_type":"Force","location":{"latitude":"51.340860","street":{"id":2057758,"name":"On or near Parking Area"},"longitude":"0.737002"},"context":"","outcome_status":null,"persistent_id":"","id":133334030,"location_subtype":"","month":"2026-01"},{"category":"anti-social-behaviour","location_type":"Force","location":{"latitude":"51.338492","street":{"id":2057694,"name":"On or near Police Station"},"longitude":"0.734131"},"context":"","outcome_status":null,"persistent_id":"","id":133334073,"location_subtype":"","month":"2026-01"},{"category":"anti-social-behaviour","location_type":"Force","location":{"latitude":"51.335577","street":{"id":2057558,"name":"On or near Valenciennes Road"},"longitude":"0.728661"},"context":"","outcome_status":null,"persistent_id":"","id":133334100,"location_subtype":"","month":"2026-01"},{"category":"anti-social-behaviour","location_type":"Force","location":{"latitude":"51.341114","street":{"id":2057660,"name":"On or near Pembury Street"},"longitude":"0.732666"},"context":"","outcome_status":null,"persistent_id":"","id":133334197,"location_subtype":"","month":"2026-01"},{"category":"anti-social-behaviour","location_type":"Force","location":{"latitude":"51.331706","street":{"id":2057712,"name":"On or near Manwood Close"},"longitude":"0.734963"},"context":"","outcome_status":null,"persistent_id":"","id":133334229,"location_subtype":"","month":"2026-01"},{"category":"anti-social-behaviour","location_type":"Force","location":{"latitude":"51.326012","street":{"id":2057732,"name":"On or near Marigold Drive"},"longitude":"0.736921"},"context":"","outcome_status":null,"persistent_id":"","id":133334326,"location_subtype":"","month":"2026-01"},{"category":"anti-social-behaviour","location_type":"Force","location":{"latitude":"51.339821","street":{"id":2057878,"name":"On or near Lime Grove"},"longitude":"0.743315"},"context":"","outcome_status":null,"persistent_id":"","id":133334500,"location_subtype":"","month":"2026-01"},{"category":"anti-social-behaviour","location_type":"Force","location":{"latitude":"51.341022","street":{"id":2057684,"name":"On or near Station Street"},"longitude":"0.733522"},"context":"","outcome_status":null,"persistent_id":"","id":133334515,"location_subtype":"","month":"2026-01"},{"category":"anti-social-behaviour","location_type":"Force","location":{"latitude":"51.341022","street":{"id":2057684,"name":"On or near Station Street"},"longitude":"0.733522"},"context":"","outcome_status":null,"persistent_id":"","id":133334598,"location_subtype":"","month":"2026-01"},{"category":"bicycle-theft","location_type":"Force","location":{"latitude":"51.338473","street":{"id":2057859,"name":"On or near Heather Close"},"longitude":"0.741770"},"context":"","outcome_status":{"category":"Investigation complete; no suspect identified","date":"2026-01"},"persistent_id":"9afcd11385ff128796a1b0b0b8b466fa3449af81b91143b97e623f16bf7c22e3","id":133336061,"location_subtype":"","month":"2026-01"},{"category":"burglary","location_type":"Force","location":{"latitude":"51.329759","street":{"id":2057805,"name":"On or near Marjoram Drive"},"longitude":"0.739772"},"context":"","outcome_status":{"category":"Under investigation","date":"2026-01"},"persistent_id":"0d0d36f61e93de294618b41a1fe89df91c26c010174607bfc2414744acb84849","id":133338306,"location_subtype":"","month":"2026-01"},{"category":"burglary","location_type":"Force","location":{"latitude":"51.326760","street":{"id":2057479,"name":"On or near Chegworth Gardens"},"longitude":"0.725682"},"context":"","outcome_status":{"category":"Under investigation","date":"2026-01"},"persistent_id":"b9d3d1a3e84792bc3275fb1a320e23e7360a62b7eb93e754341e9840b125a20c","id":133344123,"location_subtype":"","month":"2026-01"},{"category":"burglary","location_type":"Force","location":{"latitude":"51.344554","street":{"id":2057413,"name":"On or near Cavell Way"},"longitude":"0.720893"},"context":"","outcome_status":{"category":"Investigation complete; no suspect identified","date":"2026-01"},"persistent_id":"dc6f395fd7f88d16e213f0fa562e5ef6ed2c890a38542e84e5db09b85f045c02","id":133343807,"location_subtype":"","month":"2026-01"},{"category":"burglary","location_type":"Force","location":{"latitude":"51.331634","street":{"id":2057456,"name":"On or near Weald Court"},"longitude":"0.725340"},"context":"","outcome_status":{"category":"Under investigation","date":"2026-01"},"persistent_id":"805cdb50e3cd134555ad216871c13f5835e2e01c9fa9e92384f9b865ce534d05","id":133345317,"location_subtype":"","month":"2026-01"},{"category":"burglary","location_type":"Force","location":{"latitude":"51.338268","street":{"id":2057834,"name":"On or near Parking Area"},"longitude":"0.740896"},"context":"","outcome_status":{"category":"Awaiting court outcome","date":"2026-01"},"persistent_id":"9a1900a362af28d3d1d8c316f236a5f835b4708aedc505672ed64cd062d84428","id":133345318,"location_subtype":"","month":"2026-01"},{"category":"burglary","location_type":"Force","location":{"latitude":"51.345980","street":{"id":2057245,"name":"On or near Sandford Road"},"longitude":"0.709819"},"context":"","outcome_status":{"category":"Under investigation","date":"2026-01"},"persistent_id":"7af2def3da2a44d13a827a91d2d7a6367dd0a07df86d88d82f7b1edf7ddab978","id":133341764,"location_subtype":"","month":"2026-01"},{"category":"criminal-damage-arson","location_type":"Force","location":{"latitude":"51.339871","street":{"id":2057742,"name":"On or near High Street"},"longitude":"0.736986"},"context":"","outcome_status":{"category":"Investigation complete; no suspect identified","date":"2026-01"},"persistent_id":"325e7f69c67a0448075d98f7f52ddff5527fd86ea501dbea045b8a7ef73a72d2","id":133336432,"location_subtype":"","month":"2026-01"},{"category":"criminal-damage-arson","location_type":"Force","location":{"latitude":"51.349337","street":{"id":2057287,"name":"On or near Papyrus Drive"},"longitude":"0.712804"},"context":"","outcome_status":{"category":"Under investigation","date":"2026-01"},"persistent_id":"2d57bbcb4ad4e70680a88db176a50cff5be49e5c224205c5efc5ffab4708682e","id":133336808,"location_subtype":"","month":"2026-01"},{"category":"criminal-damage-arson","location_type":"Force","location":{"latitude":"51.326012","street":{"id":2057732,"name":"On or near Marigold Drive"},"longitude":"0.736921"},"context":"","outcome_status":{"category":"Investigation complete; no suspect identified","date":"2026-01"},"persistent_id":"182bd1957b51fb436f5f5154d0c488276b73e141125ea30cac7afd8a28230437","id":133344158,"location_subtype":"","month":"2026-01"},{"category":"criminal-damage-arson","location_type":"Force","location":{"latitude":"51.346857","street":{"id":2057638,"name":"On or near St Paul's Street"},"longitude":"0.730896"},"context":"","outcome_status":{"category":"Investigation complete; no suspect identified","date":"2026-01"},"persistent_id":"b87a960afbd8a24f0607d4d1ad3af1f98afcc2727af4fa9f0a6a22d3fa386d69","id":133343010,"location_subtype":"","month":"2026-01"},{"category":"criminal-damage-arson","location_type":"Force","location":{"latitude":"51.331868","street":{"id":2057705,"name":"On or near Supermarket"},"longitude":"0.733824"},"context":"","outcome_status":{"category":"Unable to prosecute suspect","date":"2026-01"},"persistent_id":"4b6560ca93e4c1479c18f8062b187850bc8193c6f136986970f64189cf3d005c","id":133341806,"location_subtype":"","month":"2026-01"},{"category":"criminal-damage-arson","location_type":"Force","location":{"latitude":"51.339986","street":{"id":2057804,"name":"On or near The Butts"},"longitude":"0.739750"},"context":"","outcome_status":{"category":"Investigation complete; no suspect identified","date":"2026-01"},"persistent_id":"2b2ee4ea5b503b749fac54eafef3ca3076462420d6aac099e3b93af7236c180a","id":133338730,"location_subtype":"","month":"2026-01"},{"category":"criminal-damage-arson","location_type":"Force","location":{"latitude":"51.343256","street":{"id":2057435,"name":"On or near Victoria Road"},"longitude":"0.722956"},"context":"","outcome_status":{"category":"Under investigation","date":"2026-01"},"persistent_id":"db6cd893ec18089ff9940931239bc621ca9df006b68a17e6c3798beefb9d8455","id":133344960,"location_subtype":"","month":"2026-01"},{"category":"criminal-damage-arson","location_type":"Force","location":{"latitude":"51.335399","street":{"id":2057430,"name":"On or near Kent Avenue"},"longitude":"0.722404"},"context":"","outcome_status":{"category":"Investigation complete; no suspect identified","date":"2026-01"},"persistent_id":"4a83cee664d80ca78e8b23734dc4bbe44b3993d53689a77f2cc4672d1bdc4d32","id":133344961,"location_subtype":"","month":"2026-01"},{"category":"criminal-damage-arson","location_type":"Force","location":{"latitude":"51.328621","street":{"id":2057794,"name":"On or near Honesty Close"},"longitude":"0.738814"},"context":"","outcome_status":{"category":"Investigation complete; no suspect identified","date":"2026-01"},"persistent_id":"35888809f3239ec21799259f9d87159e61fb95a3c2340199466d6f607d44c45a","id":133344159,"location_subtype":"","month":"2026-01"},{"category":"criminal-damage-arson","location_type":"Force","location":{"latitude":"51.335577","street":{"id":2057558,"name":"On or near Valenciennes Road"},"longitude":"0.728661"},"context":"","outcome_status":{"category":"Under investigation","date":"2026-01"},"persistent_id":"17e390d5f4d0a15578509b187854aa37601ada838224b7cd940202e93dab091a","id":133341805,"location_subtype":"","month":"2026-01"},{"category":"criminal-damage-arson","location_type":"Force","location":{"latitude":"51.328621","street":{"id":2057794,"name":"On or near Honesty Close"},"longitude":"0.738814"},"context":"","outcome_status":{"category":"Investigation complete; no suspect identified","date":"2026-01"},"persistent_id":"199d598f15db467ef082fc564aa28adc808aa06a323d74803e75b9c27b9fd18c","id":133339086,"location_subtype":"","month":"2026-01"},{"category":"criminal-damage-arson","location_type":"Force","location":{"latitude":"51.341132","street":{"id":2057358,"name":"On or near Adelaide Drive"},"longitude":"0.717575"},"context":"","outcome_status":{"category":"Unable to prosecute suspect","date":"2026-01"},"persistent_id":"7e9c05b7e76ec9fedee854c69aa95013f8e813c5743a0e16f8cef1cab2834182","id":133336809,"location_subtype":"","month":"2026-01"},{"category":"criminal-damage-arson","location_type":"Force","location":{"latitude":"51.346203","street":{"id":2057436,"name":"On or near Staplehurst Road"},"longitude":"0.721910"},"context":"","outcome_status":{"category":"Under investigation","date":"2026-01"},"persistent_id":"61a140fc9b5f9a263e52d0070065dfd4390afdd5076e990bd7279a175b7a90f8","id":133343008,"location_subtype":"","month":"2026-01"},{"category":"criminal-damage-arson","location_type":"Force","location":{"latitude":"51.344052","street":{"id":2057510,"name":"On or near Watson's Hill"},"longitude":"0.726608"},"context":"","outcome_status":{"category":"Investigation complete; no suspect identified","date":"2026-01"},"persistent_id":"06567e85fc98ee59e7e97cdf1c0f5d3382091fd221fa62b07f81fb490450ed92","id":133340221,"location_subtype":"","month":"2026-01"},{"category":"criminal-damage-arson","location_type":"Force","location":{"latitude":"51.335577","street":{"id":2057558,"name":"On or near Valenciennes Road"},"longitude":"0.728661"},"context":"","outcome_status":{"category":"Under investigation","date":"2026-01"},"persistent_id":"751fa883b61436aebaa68f9e3567d9699e3b8043cd50847682996529198afb94","id":133343009,"location_subtype":"","month":"2026-01"},{"category":"criminal-damage-arson","location_type":"Force","location":{"latitude":"51.329759","street":{"id":2057805,"name":"On or near Marjoram Drive"},"longitude":"0.739772"},"context":"","outcome_status":{"category":"Investigation complete; no suspect identified","date":"2026-01"},"persistent_id":"579811fc4de2c92762336d1489d7a13392db524690cf4907a6aa642780e67fdc","id":133346056,"location_subtype":"","month":"2026-01"},{"category":"criminal-damage-arson","location_type":"Force","location":{"latitude":"51.347519","street":{"id":2057256,"name":"On or near Clive Road"},"longitude":"0.710169"},"context":"","outcome_status":{"category":"Further action is not in the public interest","date":"2026-01"},"persistent_id":"2c743a39b07ea46c9534473b2f05b31e629c79d9da9037c95b6baa200c12923b","id":133336431,"location_subtype":"","month":"2026-01"},{"category":"drugs","location_type":"Force","location":{"latitude":"51.341835","street":{"id":2057670,"name":"On or near Fountain Street"},"longitude":"0.732996"},"context":"","outcome_status":{"category":"Awaiting court outcome","date":"2026-01"},"persistent_id":"a0b7dd3043f84765fc28d4a0a2b58095f708ec6f09bd664fbcaa2c5595f26d07","id":133338764,"location_subtype":"","month":"2026-01"},{"category":"drugs","location_type":"Force","location":{"latitude":"51.329757","street":{"id":2057517,"name":"On or near Park Avenue"},"longitude":"0.727927"},"context":"","outcome_status":{"category":"Local resolution","date":"2026-01"},"persistent_id":"a5dba5292a6d12956b89d1575c9343bae6844fa71e760036753ae7f834601bc0","id":133340691,"location_subtype":"","month":"2026-01"},{"category":"drugs","location_type":"Force","location":{"latitude":"51.348360","street":{"id":2057536,"name":"On or near Chappell Way"},"longitude":"0.727410"},"context":"","outcome_status":{"category":"Investigation complete; no suspect identified","date":"2026-01"},"persistent_id":"79511477537e854518b70b792fdc110b8860ae1ff4aaa7a1ca911035685d58d4","id":133342219,"location_subtype":"","month":"2026-01"},{"category":"drugs","location_type":"Force","location":{"latitude":"51.341148","street":{"id":2057704,"name":"On or near Parking Area"},"longitude":"0.734276"},"context":"","outcome_status":{"category":"Unable to prosecute suspect","date":"2026-01"},"persistent_id":"65517384a3ea5f3a587b12b8baa5c2f388640097e9ad0f9f1e14023fe0dc1068","id":133344188,"location_subtype":"","month":"2026-01"},{"category":"drugs","location_type":"Force","location":{"latitude":"51.335577","street":{"id":2057558,"name":"On or near Valenciennes Road"},"longitude":"0.728661"},"context":"","outcome_status":{"category":"Under investigation","date":"2026-01"},"persistent_id":"cade967c1e8f19d3bf65960031a0d68c12e05d58cda587e02fd1b4a13e9d4f04","id":133343051,"location_subtype":"","month":"2026-01"},{"category":"other-theft","location_type":"Force","location":{"latitude":"51.347467","street":{"id":2057551,"name":"On or near Staple Close"},"longitude":"0.728664"},"context":"","outcome_status":{"category":"Investigation complete; no suspect identified","date":"2026-01"},"persistent_id":"34bda7b20fb4b53a11b08d4c57a913d8a35a25b855308bcde710f6c0287c1a36","id":133341483,"location_subtype":"","month":"2026-01"},{"category":"other-theft","location_type":"Force","location":{"latitude":"51.345882","street":{"id":2057548,"name":"On or near Periwinkle Close"},"longitude":"0.729517"},"context":"","outcome_status":{"category":"Under investigation","date":"2026-01"},"persistent_id":"c5f8c60003452e3f77d87b4a3fbf4e9d98d72783e4c64f4160cc4f963de46e7f","id":133345757,"location_subtype":"","month":"2026-01"},{"category":"other-theft","location_type":"Force","location":{"latitude":"51.338473","street":{"id":2057859,"name":"On or near Heather Close"},"longitude":"0.741770"},"context":"","outcome_status":{"category":"Under investigation","date":"2026-01"},"persistent_id":"6d77337670b7496b7b51e0bb86f72847c47c0857b6c82e366bf77bfd5f63e9d7","id":133344220,"location_subtype":"","month":"2026-01"},{"category":"other-theft","location_type":"Force","location":{"latitude":"51.343256","street":{"id":2057435,"name":"On or near Victoria Road"},"longitude":"0.722956"},"context":"","outcome_status":{"category":"Under investigation","date":"2026-01"},"persistent_id":"c4172be174bcd08d3cde8793247d9a520145aecaccd62d582c9bedbe6504f968","id":133345038,"location_subtype":"","month":"2026-01"},{"category":"other-theft","location_type":"Force","location":{"latitude":"51.340860","street":{"id":2057758,"name":"On or near Parking Area"},"longitude":"0.737002"},"context":"","outcome_status":{"category":"Investigation complete; no suspect identified","date":"2026-01"},"persistent_id":"74092965a89655e35a9c8c6bd1c34dd923efd0f98dbe655c1fb2c20662a9dc08","id":133344219,"location_subtype":"","month":"2026-01"},{"category":"other-theft","location_type":"Force","location":{"latitude":"51.337413","street":{"id":2057317,"name":"On or near Borden Lane"},"longitude":"0.715459"},"context":"","outcome_status":{"category":"Investigation complete; no suspect identified","date":"2026-01"},"persistent_id":"7f1a14d63740e7e239f6314a9050006f92ccd185419ab43dc468dbefd0094e2e","id":133342276,"location_subtype":"","month":"2026-01"},{"category":"other-theft","location_type":"Force","location":{"latitude":"51.342356","street":{"id":2057647,"name":"On or near Parking Area"},"longitude":"0.731849"},"context":"","outcome_status":{"category":"Local resolution","date":"2026-01"},"persistent_id":"8695d13f71d2f94c027a743c755d33a5a5c2e8b2617fd11b600db96fbcb8c56d","id":133342277,"location_subtype":"","month":"2026-01"},{"category":"other-theft","location_type":"Force","location":{"latitude":"51.328621","street":{"id":2057794,"name":"On or near Honesty Close"},"longitude":"0.738814"},"context":"","outcome_status":{"category":"Unable to prosecute suspect","date":"2026-01"},"persistent_id":"316f774b5d27d2ba84b22ddba85a980a4c603bdccc5fa98b9bab97117dae948d","id":133340736,"location_subtype":"","month":"2026-01"},{"category":"other-theft","location_type":"Force","location":{"latitude":"51.347467","street":{"id":2057551,"name":"On or near Staple Close"},"longitude":"0.728664"},"context":"","outcome_status":{"category":"Investigation complete; no suspect identified","date":"2026-01"},"persistent_id":"11f5a7e1a0f0f297526180c494f1fe9adeb715359039fae19c6a9adcdf31477e","id":133346098,"location_subtype":"","month":"2026-01"},{"category":"other-theft","location_type":"Force","location":{"latitude":"51.347467","street":{"id":2057551,"name":"On or near Staple Close"},"longitude":"0.728664"},"context":"","outcome_status":{"category":"Investigation complete; no suspect identified","date":"2026-01"},"persistent_id":"c27090398a955e8b20dd6054f7acd7447794451ccd981b642f27a960eae2410e","id":133336888,"location_subtype":"","month":"2026-01"},{"category":"other-theft","location_type":"Force","location":{"latitude":"51.347800","street":{"id":2057599,"name":"On or near Crown Road"},"longitude":"0.730593"},"context":"","outcome_status":{"category":"Investigation complete; no suspect identified","date":"2026-01"},"persistent_id":"5c3f487789d906bd13a2f7486acbb8a747befd1ce2a110c8ad27a58cbccf382b","id":133345758,"location_subtype":"","month":"2026-01"},{"category":"other-theft","location_type":"Force","location":{"latitude":"51.341148","street":{"id":2057704,"name":"On or near Parking Area"},"longitude":"0.734276"},"context":"","outcome_status":{"category":"Unable to prosecute suspect","date":"2026-01"},"persistent_id":"bb1a7a1442db751edc2fe7dea4f6353bb59fcdacfc701b9cef3dc76d9a279c5f","id":133335051,"location_subtype":"","month":"2026-01"},{"category":"other-theft","location_type":"Force","location":{"latitude":"51.342356","street":{"id":2057647,"name":"On or near Parking Area"},"longitude":"0.731849"},"context":"","outcome_status":{"category":"Under investigation","date":"2026-01"},"persistent_id":"34a27d27c30a09de7647dd65fd9e8981126872fb23f8ca9d5a774ebc2224741e","id":133343496,"location_subtype":"","month":"2026-01"},{"category":"other-theft","location_type":"Force","location":{"latitude":"51.345882","street":{"id":2057548,"name":"On or near Periwinkle Close"},"longitude":"0.729517"},"context":"","outcome_status":{"category":"Unable to prosecute suspect","date":"2026-01"},"persistent_id":"d2f159817e4c42c75031ae361761a637f7cfe8c0ac7686881b13790b1fa492fe","id":133341105,"location_subtype":"","month":"2026-01"},{"category":"other-theft","location_type":"Force","location":{"latitude":"51.344501","street":{"id":2057462,"name":"On or near Waterloo Road"},"longitude":"0.723935"},"context":"","outcome_status":{"category":"Investigation complete; no suspect identified","date":"2026-01"},"persistent_id":"d0c29a3d99e38b8e40e09c95d091b3edc1a00795f316870348da81b8cf06c9b8","id":133343495,"location_subtype":"","month":"2026-01"},{"category":"other-theft","location_type":"Force","location":{"latitude":"51.341022","street":{"id":2057684,"name":"On or near Station Street"},"longitude":"0.733522"},"context":"","outcome_status":{"category":"Under investigation","date":"2026-01"},"persistent_id":"fefd40337fb9521834b016651350bce61627156901c1b8fb64261782853bc5c8","id":133346099,"location_subtype":"","month":"2026-01"},{"category":"other-theft","location_type":"Force","location":{"latitude":"51.342904","street":{"id":2057777,"name":"On or near Robertson Drive"},"longitude":"0.738416"},"context":"","outcome_status":{"category":"Investigation complete; no suspect identified","date":"2026-01"},"persistent_id":"40c1f2078025e0d94b34244bd824061bbb8c18c1a9954c49ad6ab1cd528e9403","id":133338037,"location_subtype":"","month":"2026-01"},{"category":"public-order","location_type":"Force","location":{"latitude":"51.341148","street":{"id":2057704,"name":"On or near Parking Area"},"longitude":"0.734276"},"context":"","outcome_status":{"category":"Investigation complete; no suspect identified","date":"2026-01"},"persistent_id":"70a24ef724b91637ab8009f933932afff90a339931e6ff10eaf5b23d3805a034","id":133336168,"location_subtype":"","month":"2026-01"},{"category":"public-order","location_type":"Force","location":{"latitude":"51.331868","street":{"id":2057705,"name":"On or near Supermarket"},"longitude":"0.733824"},"context":"","outcome_status":{"category":"Under investigation","date":"2026-01"},"persistent_id":"24484f82c1c703fb363cf9d20438ebca8286936f85fafbfe05b35e97e31a5c62","id":133346115,"location_subtype":"","month":"2026-01"},{"category":"public-order","location_type":"Force","location":{"latitude":"51.344462","street":{"id":2057708,"name":"On or near Shopping Area"},"longitude":"0.734893"},"context":"","outcome_status":{"category":"Under investigation","date":"2026-01"},"persistent_id":"5e0827d5ce83b3783b4b8dcd046b1a381d96dcb8797c424f2ffb9a04aa95ada0","id":133345420,"location_subtype":"","month":"2026-01"},{"category":"public-order","location_type":"Force","location":{"latitude":"51.341148","street":{"id":2057704,"name":"On or near Parking Area"},"longitude":"0.734276"},"context":"","outcome_status":{"category":"Investigation complete; no suspect identified","date":"2026-01"},"persistent_id":"b21ac692f086325e0227cdea06af2965f77a171572f6ac69cf6130fa9f306b27","id":133337672,"location_subtype":"","month":"2026-01"},{"category":"public-order","location_type":"Force","location":{"latitude":"51.338268","street":{"id":2057834,"name":"On or near Parking Area"},"longitude":"0.740896"},"context":"","outcome_status":{"category":"Investigation complete; no suspect identified","date":"2026-01"},"persistent_id":"3e9743fed4d83d84a95ccc8a01c7d35ef1920ca46803d4683f9f7e64a164c393","id":133338824,"location_subtype":"","month":"2026-01"},{"category":"public-order","location_type":"Force","location":{"latitude":"51.335606","street":{"id":2057167,"name":"On or near Wises Lane"},"longitude":"0.702617"},"context":"","outcome_status":{"category":"Investigation complete; no suspect identified","date":"2026-01"},"persistent_id":"333a29290c239724df82ea7112eda0ec208b518019e47ad2fc6228c95300ceb0","id":133340358,"location_subtype":"","month":"2026-01"},{"category":"public-order","location_type":"Force","location":{"latitude":"51.339986","street":{"id":2057804,"name":"On or near The Butts"},"longitude":"0.739750"},"context":"","outcome_status":{"category":"Investigation complete; no suspect identified","date":"2026-01"},"persistent_id":"47cea9ebbe0b130110e68145fb5c4b73b6632553baca4f5f0de460b29b10ed74","id":133336917,"location_subtype":"","month":"2026-01"},{"category":"public-order","location_type":"Force","location":{"latitude":"51.338492","street":{"id":2057694,"name":"On or near Police Station"},"longitude":"0.734131"},"context":"","outcome_status":{"category":"Under investigation","date":"2026-01"},"persistent_id":"f415a5221177562e39f70f7fa396943d4450e8c567329b66ab1cc91b808d0ce0","id":133341916,"location_subtype":"","month":"2026-01"},{"category":"public-order","location_type":"Force","location":{"latitude":"51.338492","street":{"id":2057694,"name":"On or near Police Station"},"longitude":"0.734131"},"context":"","outcome_status":{"category":"Under investigation","date":"2026-01"},"persistent_id":"4126e00f7fa32309057c3afb1ae4eb69b0fdb2a782566ee638bad3c879bd1c71","id":133343524,"location_subtype":"","month":"2026-01"},{"category":"public-order","location_type":"Force","location":{"latitude":"51.339006","street":{"id":2057862,"name":"On or near Victoria Mews"},"longitude":"0.743195"},"context":"","outcome_status":{"category":"Under investigation","date":"2026-01"},"persistent_id":"8ce5d158069a3eb8a2027ac37cf28bcbcc8ecd101d16d45f6b41437389b89b57","id":133345062,"location_subtype":"","month":"2026-01"},{"category":"public-order","location_type":"Force","location":{"latitude":"51.338594","street":{"id":2057756,"name":"On or near Roman Square"},"longitude":"0.736594"},"context":"","outcome_status":{"category":"Awaiting court outcome","date":"2026-01"},"persistent_id":"19fee465ce5ab980344343e9affa0b713e6104e7780860b6646feab3cdae9099","id":133335474,"location_subtype":"","month":"2026-01"},{"category":"public-order","location_type":"Force","location":{"latitude":"51.341148","street":{"id":2057704,"name":"On or near Parking Area"},"longitude":"0.734276"},"context":"","outcome_status":{"category":"Awaiting court outcome","date":"2026-01"},"persistent_id":"1dab748453c07e88a47a13f961c24b31a72a2a9ee12db4823348d95595032990","id":133335473,"location_subtype":"","month":"2026-01"},{"category":"robbery","location_type":"Force","location":{"latitude":"51.331868","street":{"id":2057705,"name":"On or near Supermarket"},"longitude":"0.733824"},"context":"","outcome_status":{"category":"Under investigation","date":"2026-01"},"persistent_id":"14ce5aebee0a5520bd883170f4fa268fd9e7837270bf8d581de4ce998631d104","id":133345793,"location_subtype":"","month":"2026-01"},{"category":"robbery","location_type":"Force","location":{"latitude":"51.342051","street":{"id":2057857,"name":"On or near Shopping Area"},"longitude":"0.741842"},"context":"","outcome_status":{"category":"Under investigation","date":"2026-01"},"persistent_id":"bf87ef9e945bc91d67303e03ebb50b656f006146059b00be04a731112ede9aa4","id":133343141,"location_subtype":"","month":"2026-01"},{"category":"robbery","location_type":"Force","location":{"latitude":"51.340836","street":{"id":2057625,"name":"On or near West Street"},"longitude":"0.731084"},"context":"","outcome_status":{"category":"Under investigation","date":"2026-01"},"persistent_id":"d7f607929c78f7f578701ef485e3b61c91bfbc53305b9610e47aad321d9381a8","id":133340369,"location_subtype":"","month":"2026-01"},{"category":"shoplifting","location_type":"Force","location":{"latitude":"51.344462","street":{"id":2057708,"name":"On or near Shopping Area"},"longitude":"0.734893"},"context":"","outcome_status":{"category":"Unable to prosecute suspect","date":"2026-01"},"persistent_id":"7e333ef206a1c8747b04e13af997ffad2ae926989fe207452c5d7e9b1d93ed9d","id":133336586,"location_subtype":"","month":"2026-01"},{"category":"shoplifting","location_type":"Force","location":{"latitude":"51.331868","street":{"id":2057705,"name":"On or near Supermarket"},"longitude":"0.733824"},"context":"","outcome_status":{"category":"Awaiting court outcome","date":"2026-01"},"persistent_id":"3a1d5a3b0c46842d5cd91b3e8c6ab2314e1885361b4720fde6effab86fd69782","id":133343938,"location_subtype":"","month":"2026-01"},{"category":"shoplifting","location_type":"Force","location":{"latitude":"51.344462","street":{"id":2057708,"name":"On or near Shopping Area"},"longitude":"0.734893"},"context":"","outcome_status":{"category":"Investigation complete; no suspect identified","date":"2026-01"},"persistent_id":"211ddc239933e9d17e2e75246ac0f14a9d6aabad896a879263e280885a8bb3ad","id":133345825,"location_subtype":"","month":"2026-01"},{"category":"shoplifting","location_type":"Force","location":{"latitude":"51.339871","street":{"id":2057742,"name":"On or near High Street"},"longitude":"0.736986"},"context":"","outcome_status":{"category":"Investigation complete; no suspect identified","date":"2026-01"},"persistent_id":"295624e63114a785f728cacfd02bbc8faa6ae8c3dd55e025ea7b09e432c9e234","id":133345456,"location_subtype":"","month":"2026-01"},{"category":"shoplifting","location_type":"Force","location":{"latitude":"51.344462","street":{"id":2057708,"name":"On or near Shopping Area"},"longitude":"0.734893"},"context":"","outcome_status":{"category":"Investigation complete; no suspect identified","date":"2026-01"},"persistent_id":"526ec6dbd20f9b730d65fd40a210fe9b742c824976339193e091ee9d4be3e06e","id":133342717,"location_subtype":"","month":"2026-01"},{"category":"shoplifting","location_type":"Force","location":{"latitude":"51.344462","street":{"id":2057708,"name":"On or near Shopping Area"},"longitude":"0.734893"},"context":"","outcome_status":{"category":"Investigation complete; no suspect identified","date":"2026-01"},"persistent_id":"cafc614d4622d1a83cb2a182a249cf9002b2e4ed9adc1961d43abb17be23d7f5","id":133341955,"location_subtype":"","month":"2026-01"},{"category":"shoplifting","location_type":"Force","location":{"latitude":"51.338594","street":{"id":2057756,"name":"On or near Roman Square"},"longitude":"0.736594"},"context":"","outcome_status":{"category":"Investigation complete; no suspect identified","date":"2026-01"},"persistent_id":"2a1ac411191952267e40342a5eaabc3633a7fd087be4172ddf5fd580161c7aa7","id":133343939,"location_subtype":"","month":"2026-01"},{"category":"shoplifting","location_type":"Force","location":{"latitude":"51.338594","street":{"id":2057756,"name":"On or near Roman Square"},"longitude":"0.736594"},"context":"","outcome_status":{"category":"Unable to prosecute suspect","date":"2026-01"},"persistent_id":"075a53f86aa6969afe3a67191b1f3f815272dbe7954c084677c8d5f92eaab3ac","id":133343167,"location_subtype":"","month":"2026-01"},{"category":"shoplifting","location_type":"Force","location":{"latitude":"51.339871","street":{"id":2057742,"name":"On or near High Street"},"longitude":"0.736986"},"context":"","outcome_status":{"category":"Under investigation","date":"2026-01"},"persistent_id":"f5217735036c6bed193125d9fb5945606ca830ac11b53422e3b21e23e1523a38","id":133343566,"location_subtype":"","month":"2026-01"},{"category":"shoplifting","location_type":"Force","location":{"latitude":"51.338594","street":{"id":2057756,"name":"On or near Roman Square"},"longitude":"0.736594"},"context":"","outcome_status":{"category":"Investigation complete; no suspect identified","date":"2026-01"},"persistent_id":"a731c294e6f25a896204f6ed3612403adbca41d111655024784f66eb65920a44","id":133340805,"location_subtype":"","month":"2026-01"},{"category":"shoplifting","location_type":"Force","location":{"latitude":"51.350298","street":{"id":2057328,"name":"On or near Quartz Way"},"longitude":"0.717141"},"context":"","outcome_status":{"category":"Under investigation","date":"2026-01"},"persistent_id":"ee7a3e23781b9858dde26e876fa5bff9292b82384a9102c1d7785914a52585a1","id":133343936,"location_subtype":"","month":"2026-01"},{"category":"shoplifting","location_type":"Force","location":{"latitude":"51.339871","street":{"id":2057742,"name":"On or near High Street"},"longitude":"0.736986"},"context":"","outcome_status":{"category":"Under investigation","date":"2026-01"},"persistent_id":"7f76d3799e8ff6096dc7a301803693f7cc1dd624e8fd17098e89f1ec65bc42f3","id":133345457,"location_subtype":"","month":"2026-01"},{"category":"shoplifting","location_type":"Force","location":{"latitude":"51.344462","street":{"id":2057708,"name":"On or near Shopping Area"},"longitude":"0.734893"},"context":"","outcome_status":{"category":"Awaiting court outcome","date":"2026-01"},"persistent_id":"68357fceac3d6ab9d3f3327aa3bccc1e4ee3157114672312028f30b4dcaeb6ac","id":133345454,"location_subtype":"","month":"2026-01"},{"category":"shoplifting","location_type":"Force","location":{"latitude":"51.338594","street":{"id":2057756,"name":"On or near Roman Square"},"longitude":"0.736594"},"context":"","outcome_status":{"category":"Awaiting court outcome","date":"2026-01"},"persistent_id":"1cc904d4561f2a0586365f6adec1231395723272f399c91d9f471449f0e7f38c","id":133345826,"location_subtype":"","month":"2026-01"},{"category":"shoplifting","location_type":"Force","location":{"latitude":"51.339871","street":{"id":2057742,"name":"On or near High Street"},"longitude":"0.736986"},"context":"","outcome_status":{"category":"Awaiting court outcome","date":"2026-01"},"persistent_id":"92e2e4843c00f214338b48efcb505b2839d48a06573358c3718ba0dd27ec382c","id":133345827,"location_subtype":"","month":"2026-01"},{"category":"shoplifting","location_type":"Force","location":{"latitude":"51.338594","street":{"id":2057756,"name":"On or near Roman Square"},"longitude":"0.736594"},"context":"","outcome_status":{"category":"Investigation complete; no suspect identified","date":"2026-01"},"persistent_id":"d01229a0f751f091138679a286c90cace25f7c229b7a66d83d8c6aef5b1facd9","id":133346452,"location_subtype":"","month":"2026-01"},{"category":"shoplifting","location_type":"Force","location":{"latitude":"51.344462","street":{"id":2057708,"name":"On or near Shopping Area"},"longitude":"0.734893"},"context":"","outcome_status":{"category":"Under investigation","date":"2026-01"},"persistent_id":"b48d496f3b69d870a0d0d64e0c131fdc0eee5a224ca19e3087479c2513808377","id":133343565,"location_subtype":"","month":"2026-01"},{"category":"shoplifting","location_type":"Force","location":{"latitude":"51.344462","street":{"id":2057708,"name":"On or near Shopping Area"},"longitude":"0.734893"},"context":"","outcome_status":{"category":"Investigation complete; no suspect identified","date":"2026-01"},"persistent_id":"476b3967912538b75669eb7b9f953abeaabdc9c5e201d0ee747e3cba85591f89","id":133340804,"location_subtype":"","month":"2026-01"},{"category":"shoplifting","location_type":"Force","location":{"latitude":"51.350298","street":{"id":2057328,"name":"On or near Quartz Way"},"longitude":"0.717141"},"context":"","outcome_status":{"category":"Under investigation","date":"2026-01"},"persistent_id":"8d64697268bbdc05d39670f7261fb3cff8f0dc2f9d00711716e00615d3e2c231","id":133346450,"location_subtype":"","month":"2026-01"},{"category":"shoplifting","location_type":"Force","location":{"latitude":"51.338594","street":{"id":2057756,"name":"On or near Roman Square"},"longitude":"0.736594"},"context":"","outcome_status":{"category":"Under investigation","date":"2026-01"},"persistent_id":"daa0d62094dd76804e78afb6e4ca9322f4609a7fe04bd1050c2abd8f2a0f31d2","id":133346453,"location_subtype":"","month":"2026-01"},{"category":"shoplifting","location_type":"Force","location":{"latitude":"51.344462","street":{"id":2057708,"name":"On or near Shopping Area"},"longitude":"0.734893"},"context":"","outcome_status":{"category":"Investigation complete; no suspect identified","date":"2026-01"},"persistent_id":"1eb6753da3f5e6749219e274bd1a00483a34d7e72bfd7de1a921e6d0c08b1f19","id":133345453,"location_subtype":"","month":"2026-01"},{"category":"shoplifting","location_type":"Force","location":{"latitude":"51.345078","street":{"id":2057680,"name":"On or near Sittingbourne Viaduct"},"longitude":"0.733519"},"context":"","outcome_status":{"category":"Investigation complete; no suspect identified","date":"2026-01"},"persistent_id":"290bc76853f523cd38e844c2266e32c03763638b552a7a8988127a5c475e390e","id":133343937,"location_subtype":"","month":"2026-01"},{"category":"shoplifting","location_type":"Force","location":{"latitude":"51.339262","street":{"id":2057718,"name":"On or near Parking Area"},"longitude":"0.735327"},"context":"","outcome_status":{"category":"Investigation complete; no suspect identified","date":"2026-01"},"persistent_id":"4820936c7bc4b5bc6c7e3effb3cea1d17c9c73d998f0e539bfd05ea0e289a48b","id":133337309,"location_subtype":"","month":"2026-01"},{"category":"shoplifting","location_type":"Force","location":{"latitude":"51.339262","street":{"id":2057718,"name":"On or near Parking Area"},"longitude":"0.735327"},"context":"","outcome_status":{"category":"Investigation complete; no suspect identified","date":"2026-01"},"persistent_id":"57dad99af25385362d56762990186132d225ea64cb281d0801070234ec241cd2","id":133345455,"location_subtype":"","month":"2026-01"},{"category":"shoplifting","location_type":"Force","location":{"latitude":"51.339871","street":{"id":2057742,"name":"On or near High Street"},"longitude":"0.736986"},"context":"","outcome_status":{"category":"Awaiting court outcome","date":"2026-01"},"persistent_id":"e89fa41afbc406bd4ee5a9ceb3d349d8ac127da70d90bd310b59a39713ad5760","id":133344287,"location_subtype":"","month":"2026-01"},{"category":"shoplifting","location_type":"Force","location":{"latitude":"51.350298","street":{"id":2057328,"name":"On or near Quartz Way"},"longitude":"0.717141"},"context":"","outcome_status":{"category":"Investigation complete; no suspect identified","date":"2026-01"},"persistent_id":"a9baae78a5bf6046a41487440ac5bc6ded2c390bec54080641828939735b9c7f","id":133344286,"location_subtype":"","month":"2026-01"},{"category":"shoplifting","location_type":"Force","location":{"latitude":"51.344462","street":{"id":2057708,"name":"On or near Shopping Area"},"longitude":"0.734893"},"context":"","outcome_status":{"category":"Investigation complete; no suspect identified","date":"2026-01"},"persistent_id":"ab7674167dd0d3ad69c1a24044b92fc0a317b40460f6fed1ee3e24acf2ae41ef","id":133342329,"location_subtype":"","month":"2026-01"},{"category":"shoplifting","location_type":"Force","location":{"latitude":"51.339871","street":{"id":2057742,"name":"On or near High Street"},"longitude":"0.736986"},"context":"","outcome_status":{"category":"Unable to prosecute suspect","date":"2026-01"},"persistent_id":"3535bc5ab7654fe053ebdc7fac10781d339e5068630dd5a1b315286f77d5b3f9","id":133342330,"location_subtype":"","month":"2026-01"},{"category":"shoplifting","location_type":"Force","location":{"latitude":"51.344462","street":{"id":2057708,"name":"On or near Shopping Area"},"longitude":"0.734893"},"context":"","outcome_status":{"category":"Awaiting court outcome","date":"2026-01"},"persistent_id":"333dd9a0504a8b8911f470ac4d8efb949ac17ce776de6a74e3f086f030aeef73","id":133344681,"location_subtype":"","month":"2026-01"},{"category":"shoplifting","location_type":"Force","location":{"latitude":"51.350298","street":{"id":2057328,"name":"On or near Quartz Way"},"longitude":"0.717141"},"context":"","outcome_status":{"category":"Under investigation","date":"2026-01"},"persistent_id":"03ce8b6d53fd2b97250ae8d627c20d1093f8c9afaf1a5bf49331660027f72948","id":133338846,"location_subtype":"","month":"2026-01"},{"category":"shoplifting","location_type":"Force","location":{"latitude":"51.341148","street":{"id":2057704,"name":"On or near Parking Area"},"longitude":"0.734276"},"context":"","outcome_status":{"category":"Investigation complete; no suspect identified","date":"2026-01"},"persistent_id":"89ae1bae75624a010a1b99eaeeaeae6ccfd2072494abb42edc741bcf172eafc1","id":133339219,"location_subtype":"","month":"2026-01"},{"category":"shoplifting","location_type":"Force","location":{"latitude":"51.350298","street":{"id":2057328,"name":"On or near Quartz Way"},"longitude":"0.717141"},"context":"","outcome_status":{"category":"Investigation complete; no suspect identified","date":"2026-01"},"persistent_id":"a821d657b38ee2d7530edab0f10a29fa468c6baeebba503860ece483e9cd2d76","id":133339218,"location_subtype":"","month":"2026-01"},{"category":"shoplifting","location_type":"Force","location":{"latitude":"51.350298","street":{"id":2057328,"name":"On or near Quartz Way"},"longitude":"0.717141"},"context":"","outcome_status":{"category":"Under investigation","date":"2026-01"},"persistent_id":"e759a7137d64a08144131135aabdd54c418b3b3d2f581836ba624fd6cc7d2b04","id":133345103,"location_subtype":"","month":"2026-01"},{"category":"shoplifting","location_type":"Force","location":{"latitude":"51.338594","street":{"id":2057756,"name":"On or near Roman Square"},"longitude":"0.736594"},"context":"","outcome_status":{"category":"Awaiting court outcome","date":"2026-01"},"persistent_id":"3b3cbcfe8d017c059de1a3fd2108775b2d54a6b3ecea37670c22ddbca38e717a","id":133338121,"location_subtype":"","month":"2026-01"},{"category":"vehicle-crime","location_type":"Force","location":{"latitude":"51.326929","street":{"id":2057542,"name":"On or near Blandford Gardens"},"longitude":"0.728879"},"context":"","outcome_status":{"category":"Investigation complete; no suspect identified","date":"2026-01"},"persistent_id":"4f2938b3fb4db20d7270602e52ae036fd5bab90c9a7210a16a44ffaeb49b0caf","id":133337738,"location_subtype":"","month":"2026-01"},{"category":"vehicle-crime","location_type":"Force","location":{"latitude":"51.342143","street":{"id":2057596,"name":"On or near Frederick Street"},"longitude":"0.729783"},"context":"","outcome_status":{"category":"Investigation complete; no suspect identified","date":"2026-01"},"persistent_id":"8e10e719102e694a47697cd5a6e3d12e639f00af909f32ce4e374bc9875de13e","id":133343603,"location_subtype":"","month":"2026-01"},{"category":"vehicle-crime","location_type":"Force","location":{"latitude":"51.342183","street":{"id":2057570,"name":"On or near Gibson Street"},"longitude":"0.728867"},"context":"","outcome_status":{"category":"Investigation complete; no suspect identified","date":"2026-01"},"persistent_id":"9c16b4025dc36f184efd5881f11afe35193e44eab17e6fdf16f6fb3aaa8283d6","id":133340432,"location_subtype":"","month":"2026-01"},{"category":"vehicle-crime","location_type":"Force","location":{"latitude":"51.341530","street":{"id":2057666,"name":"On or near Dover Street"},"longitude":"0.732174"},"context":"","outcome_status":{"category":"Investigation complete; no suspect identified","date":"2026-01"},"persistent_id":"34f77056f02cc98e58d484baaad4f9f24c84d2820c05472d216bc3eafa4264ad","id":133340833,"location_subtype":"","month":"2026-01"},{"category":"vehicle-crime","location_type":"Force","location":{"latitude":"51.327880","street":{"id":2057738,"name":"On or near Primrose Avenue"},"longitude":"0.736272"},"context":"","outcome_status":{"category":"Investigation complete; no suspect identified","date":"2026-01"},"persistent_id":"4e67b6359d916085a3db256505d2ce7821c9375687ca36c3f3506299b087c6b7","id":133345857,"location_subtype":"","month":"2026-01"},{"category":"vehicle-crime","location_type":"Force","location":{"latitude":"51.332950","street":{"id":2057155,"name":"On or near Barn Close"},"longitude":"0.704270"},"context":"","outcome_status":{"category":"Investigation complete; no suspect identified","date":"2026-01"},"persistent_id":"58954f0ffeb2e5ee6e37df8b53387b0fe62eb6962a1f771b38771402b64c8c1f","id":133340431,"location_subtype":"","month":"2026-01"},{"category":"vehicle-crime","location_type":"Force","location":{"latitude":"51.338722","street":{"id":2057269,"name":"On or near Cryalls Lane"},"longitude":"0.712536"},"context":"","outcome_status":{"category":"Investigation complete; no suspect identified","date":"2026-01"},"persistent_id":"3e27b17dd2fc5f972fb71c5d6d10be06aa8af374ffb1e6fa3330d634ba2f2322","id":133341183,"location_subtype":"","month":"2026-01"},{"category":"vehicle-crime","location_type":"Force","location":{"latitude":"51.346614","street":{"id":2057298,"name":"On or near Wentworth Drive"},"longitude":"0.714280"},"context":"","outcome_status":{"category":"Investigation complete; no suspect identified","date":"2026-01"},"persistent_id":"77189ae33fcedf2e001939885ab110cad3bab88aedf543ef82c164c3de601953","id":133342352,"location_subtype":"","month":"2026-01"},{"category":"vehicle-crime","location_type":"Force","location":{"latitude":"51.344501","street":{"id":2057462,"name":"On or near Waterloo Road"},"longitude":"0.723935"},"context":"","outcome_status":{"category":"Investigation complete; no suspect identified","date":"2026-01"},"persistent_id":"bf8b68181119d62eb88d1c829c3fa3c188a2575d9561d3b9cc6f3b765cec0d1e","id":133337735,"location_subtype":"","month":"2026-01"},{"category":"vehicle-crime","location_type":"Force","location":{"latitude":"51.329005","street":{"id":2057587,"name":"On or near Cobham Avenue"},"longitude":"0.730079"},"context":"","outcome_status":{"category":"Investigation complete; no suspect identified","date":"2026-01"},"persistent_id":"0d92c30645d57197232c0942b0f4e4a9345dbaebc233010d68d677243e734118","id":133337739,"location_subtype":"","month":"2026-01"},{"category":"vehicle-crime","location_type":"Force","location":{"latitude":"51.334394","street":{"id":2057501,"name":"On or near The Paddock"},"longitude":"0.726178"},"context":"","outcome_status":{"category":"Investigation complete; no suspect identified","date":"2026-01"},"persistent_id":"f3be269b645aba269bbe591d7e69e091545e8a3ec36a19fe10e3269b3e14f62f","id":133338152,"location_subtype":"","month":"2026-01"},{"category":"vehicle-crime","location_type":"Force","location":{"latitude":"51.336585","street":{"id":2057383,"name":"On or near Westerham Road"},"longitude":"0.718598"},"context":"","outcome_status":{"category":"Investigation complete; no suspect identified","date":"2026-01"},"persistent_id":"6042f3bfb790f3dc7ccb9b994cdb96b6ef7d68cb2a431258ba698db6e9301f8b","id":133338491,"location_subtype":"","month":"2026-01"},{"category":"violent-crime","location_type":"Force","location":{"latitude":"51.338268","street":{"id":2057834,"name":"On or near Parking Area"},"longitude":"0.740896"},"context":"","outcome_status":{"category":"Under investigation","date":"2026-01"},"persistent_id":"c7e287e80fcf4261fd7878f12900d14ec2aba5d86911675fe13dfd813610dcb5","id":133337044,"location_subtype":"","month":"2026-01"},{"category":"violent-crime","location_type":"Force","location":{"latitude":"51.337280","street":{"id":2057493,"name":"On or near Manor Grove"},"longitude":"0.725459"},"context":"","outcome_status":{"category":"Unable to prosecute suspect","date":"2026-01"},"persistent_id":"849829358355400547d047f4ba9c51ee5221905fe4aa8a58f75ffce5c347e36a","id":133336324,"location_subtype":"","month":"2026-01"},{"category":"violent-crime","location_type":"Force","location":{"latitude":"51.336417","street":{"id":2057566,"name":"On or near Connaught Road"},"longitude":"0.729285"},"context":"","outcome_status":{"category":"Under investigation","date":"2026-01"},"persistent_id":"75306ab80b9bf49ddf7086cbd167d748f88b95193fa56f59779c2fb95214e5b9","id":133341666,"location_subtype":"","month":"2026-01"},{"category":"violent-crime","location_type":"Force","location":{"latitude":"51.341148","street":{"id":2057704,"name":"On or near Parking Area"},"longitude":"0.734276"},"context":"","outcome_status":{"category":"Under investigation","date":"2026-01"},"persistent_id":"77906d81d444f64938c99e2ee3aff17f31961879209ae69e2e2050f6622d2c9f","id":133341668,"location_subtype":"","month":"2026-01"},{"category":"violent-crime","location_type":"Force","location":{"latitude":"51.338473","street":{"id":2057859,"name":"On or near Heather Close"},"longitude":"0.741770"},"context":"","outcome_status":{"category":"Under investigation","date":"2026-01"},"persistent_id":"2da1293d9521df07cefc371c315104d7404aad17557fc7df921e8bbcaca454ca","id":133341670,"location_subtype":"","month":"2026-01"},{"category":"violent-crime","location_type":"Force","location":{"latitude":"51.338473","street":{"id":2057859,"name":"On or near Heather Close"},"longitude":"0.741770"},"context":"","outcome_status":{"category":"Under investigation","date":"2026-01"},"persistent_id":"ccbb48c0d587be48e5413b9c2dc1f3358a8ff255ff45e3339ffff400eab5d862","id":133341671,"location_subtype":"","month":"2026-01"},{"category":"violent-crime","location_type":"Force","location":{"latitude":"51.341022","street":{"id":2057684,"name":"On or near Station Street"},"longitude":"0.733522"},"context":"","outcome_status":{"category":"Unable to prosecute suspect","date":"2026-01"},"persistent_id":"04303e48cc441349d92f9f771683a8765daf5fa05fc6d624123ad0e1f14233fc","id":133341667,"location_subtype":"","month":"2026-01"},{"category":"violent-crime","location_type":"Force","location":{"latitude":"51.350298","street":{"id":2057328,"name":"On or near Quartz Way"},"longitude":"0.717141"},"context":"","outcome_status":{"category":"Investigation complete; no suspect identified","date":"2026-01"},"persistent_id":"53e3f5810dc5355071029d78b567abea64412c5d54be25553319d1b435cf6af0","id":133336322,"location_subtype":"","month":"2026-01"},{"category":"violent-crime","location_type":"Force","location":{"latitude":"51.344462","street":{"id":2057708,"name":"On or near Shopping Area"},"longitude":"0.734893"},"context":"","outcome_status":{"category":"Local resolution","date":"2026-01"},"persistent_id":"7ff35b755d409b56bb51b74633f6eab5890523f5f0bff1b79f6538824095a7a3","id":133335998,"location_subtype":"","month":"2026-01"},{"category":"violent-crime","location_type":"Force","location":{"latitude":"51.335577","street":{"id":2057558,"name":"On or near Valenciennes Road"},"longitude":"0.728661"},"context":"","outcome_status":{"category":"Under investigation","date":"2026-01"},"persistent_id":"44bbdcd0701eb1ca385a6e9bd905d850ac4ec4d3ee24cd41a469e40b7d25d0b8","id":133342076,"location_subtype":"","month":"2026-01"},{"category":"violent-crime","location_type":"Force","location":{"latitude":"51.335577","street":{"id":2057558,"name":"On or near Valenciennes Road"},"longitude":"0.728661"},"context":"","outcome_status":{"category":"Under investigation","date":"2026-01"},"persistent_id":"f850abc1514afb623246e583b05624e119eb6e85cedd38274ac35f04bcbb4d60","id":133342077,"location_subtype":"","month":"2026-01"},{"category":"violent-crime","location_type":"Force","location":{"latitude":"51.331868","street":{"id":2057705,"name":"On or near Supermarket"},"longitude":"0.733824"},"context":"","outcome_status":{"category":"Unable to prosecute suspect","date":"2026-01"},"persistent_id":"b6f37a8ac5dc9cf1048d3cb3763517bffc1758ef36c4c5f153328416be706039","id":133342078,"location_subtype":"","month":"2026-01"},{"category":"violent-crime","location_type":"Force","location":{"latitude":"51.338902","street":{"id":2057451,"name":"On or near Barrow Grove"},"longitude":"0.723359"},"context":"","outcome_status":{"category":"Unable to prosecute suspect","date":"2026-01"},"persistent_id":"92201f47505ceecaa6a255421ac4b3ff383f90e39aaa65f243a6a869f164177c","id":133335618,"location_subtype":"","month":"2026-01"},{"category":"violent-crime","location_type":"Force","location":{"latitude":"51.341022","street":{"id":2057684,"name":"On or near Station Street"},"longitude":"0.733522"},"context":"","outcome_status":{"category":"Unable to prosecute suspect","date":"2026-01"},"persistent_id":"640565632e2581e00fe3846595681a6c66b34b95773e28bcb927cd5227bb4698","id":133335219,"location_subtype":"","month":"2026-01"},{"category":"violent-crime","location_type":"Force","location":{"latitude":"51.342729","street":{"id":2057582,"name":"On or near Laburnum Place"},"longitude":"0.729373"},"context":"","outcome_status":{"category":"Under investigation","date":"2026-01"},"persistent_id":"fe9c5dea6a290c21901af70e2b7660fe0b994aed8829b991cc42f8b7ae6d0624","id":133342467,"location_subtype":"","month":"2026-01"},{"category":"violent-crime","location_type":"Force","location":{"latitude":"51.338268","street":{"id":2057834,"name":"On or near Parking Area"},"longitude":"0.740896"},"context":"","outcome_status":{"category":"Under investigation","date":"2026-01"},"persistent_id":"94a5ca22d7fbdf8c9e2667a9dc56e2b8f0a8d5a268f2136dff3b54f0d40c9962","id":133342468,"location_subtype":"","month":"2026-01"},{"category":"violent-crime","location_type":"Force","location":{"latitude":"51.343675","street":{"id":2057261,"name":"On or near Westlands Avenue"},"longitude":"0.711478"},"context":"","outcome_status":{"category":"Investigation complete; no suspect identified","date":"2026-01"},"persistent_id":"f56ac494e59ab592beed9c758e26494607c449cda52071801ad949ad3eb9dabe","id":133335617,"location_subtype":"","month":"2026-01"},{"category":"violent-crime","location_type":"Force","location":{"latitude":"51.341022","street":{"id":2057684,"name":"On or near Station Street"},"longitude":"0.733522"},"context":"","outcome_status":{"category":"Unable to prosecute suspect","date":"2026-01"},"persistent_id":"da01d018fbd4dfa9a683360fa47326b6f0eebeb7c5536c6f1f80a05bc0d985cb","id":133335220,"location_subtype":"","month":"2026-01"},{"category":"violent-crime","location_type":"Force","location":{"latitude":"51.340836","street":{"id":2057625,"name":"On or near West Street"},"longitude":"0.731084"},"context":"","outcome_status":{"category":"Unable to prosecute suspect","date":"2026-01"},"persistent_id":"4ebf86066caca47695c2e95d6a470404a41165c8e98e569e3cf1903d6010f6b0","id":133335216,"location_subtype":"","month":"2026-01"},{"category":"violent-crime","location_type":"Force","location":{"latitude":"51.350298","street":{"id":2057328,"name":"On or near Quartz Way"},"longitude":"0.717141"},"context":"","outcome_status":{"category":"Investigation complete; no suspect identified","date":"2026-01"},"persistent_id":"30b2bfe8838f35163f6376720494c837e3b65a104118b1de8d5996541e85912c","id":133335214,"location_subtype":"","month":"2026-01"},{"category":"violent-crime","location_type":"Force","location":{"latitude":"51.346857","street":{"id":2057638,"name":"On or near St Paul's Street"},"longitude":"0.730896"},"context":"","outcome_status":{"category":"Under investigation","date":"2026-01"},"persistent_id":"ead2a6a264a84ec2b1650a78cb3430c6fe8838ae29cbc00b68a3eb4bf9912a99","id":133346553,"location_subtype":"","month":"2026-01"},{"category":"violent-crime","location_type":"Force","location":{"latitude":"51.345275","street":{"id":2057474,"name":"On or near Springfield Road"},"longitude":"0.724311"},"context":"","outcome_status":{"category":"Under investigation","date":"2026-01"},"persistent_id":"dde228732e7981fee57dc3c3958c663a9eab0d98203a75c3be24f2ff195d6f16","id":133343299,"location_subtype":"","month":"2026-01"},{"category":"violent-crime","location_type":"Force","location":{"latitude":"51.346857","street":{"id":2057638,"name":"On or near St Paul's Street"},"longitude":"0.730896"},"context":"","outcome_status":{"category":"Under investigation","date":"2026-01"},"persistent_id":"af3ccdb5a4cb56247f75729c4aa262ed5a0ab30649ce5d35c3c431f04e1c2303","id":133346552,"location_subtype":"","month":"2026-01"},{"category":"violent-crime","location_type":"Force","location":{"latitude":"51.338084","street":{"id":2057873,"name":"On or near Fairview Road"},"longitude":"0.742637"},"context":"","outcome_status":{"category":"Under investigation","date":"2026-01"},"persistent_id":"c2dca3591ca584a54951421270971fa3f38d07cff24a6c52d08eb89ad4457dc1","id":133345974,"location_subtype":"","month":"2026-01"},{"category":"violent-crime","location_type":"Force","location":{"latitude":"51.346857","street":{"id":2057638,"name":"On or near St Paul's Street"},"longitude":"0.730896"},"context":"","outcome_status":{"category":"Under investigation","date":"2026-01"},"persistent_id":"38eeb842cc1b6c0ab897fb0b7aaaaaa1256ee58263d1f31430d28dfd227282bc","id":133345973,"location_subtype":"","month":"2026-01"},{"category":"violent-crime","location_type":"Force","location":{"latitude":"51.342904","street":{"id":2057777,"name":"On or near Robertson Drive"},"longitude":"0.738416"},"context":"","outcome_status":{"category":"Under investigation","date":"2026-01"},"persistent_id":"4d5986959351858eddf5003caa1e0fce551d398e3760b286d86fe442b769f343","id":133337858,"location_subtype":"","month":"2026-01"},{"category":"violent-crime","location_type":"Force","location":{"latitude":"51.342051","street":{"id":2057857,"name":"On or near Shopping Area"},"longitude":"0.741842"},"context":"","outcome_status":{"category":"Unable to prosecute suspect","date":"2026-01"},"persistent_id":"0644275aded4db6ca67f208fb0129a7936528fc53a79b635490ca305d8200724","id":133340123,"location_subtype":"","month":"2026-01"},{"category":"violent-crime","location_type":"Force","location":{"latitude":"51.329666","street":{"id":2057784,"name":"On or near Crocus Drive"},"longitude":"0.738761"},"context":"","outcome_status":{"category":"Unable to prosecute suspect","date":"2026-01"},"persistent_id":"c06ee7a74bef4dc2320747399347b536dccd06395fb11c8d8554ad50b075fdbb","id":133343725,"location_subtype":"","month":"2026-01"},{"category":"violent-crime","location_type":"Force","location":{"latitude":"51.335862","street":{"id":2057386,"name":"On or near Hever Place"},"longitude":"0.719503"},"context":"","outcome_status":{"category":"Unable to prosecute suspect","date":"2026-01"},"persistent_id":"fe99b98bc8c1031c1b12251f3acfc8789c06a73c102ab69b2295e35403a73b46","id":133340549,"location_subtype":"","month":"2026-01"},{"category":"violent-crime","location_type":"Force","location":{"latitude":"51.339821","street":{"id":2057878,"name":"On or near Lime Grove"},"longitude":"0.743315"},"context":"","outcome_status":{"category":"Investigation complete; no suspect identified","date":"2026-01"},"persistent_id":"a7fd026cd1d1117eb670a427e5b75c947dcfdc2d0d9dc94d5cadc944f3133cdc","id":133340553,"location_subtype":"","month":"2026-01"},{"category":"violent-crime","location_type":"Force","location":{"latitude":"51.341148","street":{"id":2057704,"name":"On or near Parking Area"},"longitude":"0.734276"},"context":"","outcome_status":{"category":"Investigation complete; no suspect identified","date":"2026-01"},"persistent_id":"fa16e6719ecf6aa4eee0ac6c2b3ff153a2114a35344fb1ca8df4ca2d23a17379","id":133336327,"location_subtype":"","month":"2026-01"},{"category":"violent-crime","location_type":"Force","location":{"latitude":"51.339552","street":{"id":2057618,"name":"On or near William Street"},"longitude":"0.730620"},"context":"","outcome_status":{"category":"Awaiting court outcome","date":"2026-01"},"persistent_id":"c3e15e6eeedbfcf814ac5e68582aaae9947a34d26e6b0dd5093075370276749f","id":133336325,"location_subtype":"","month":"2026-01"},{"category":"violent-crime","location_type":"Force","location":{"latitude":"51.343210","street":{"id":2057746,"name":"On or near Cambria Crescent"},"longitude":"0.736883"},"context":"","outcome_status":{"category":"Under investigation","date":"2026-01"},"persistent_id":"5da696b68dbbb9af0b7aaa3354c434e8521d00651189c7a98e043c539fccd697","id":133341283,"location_subtype":"","month":"2026-01"},{"category":"violent-crime","location_type":"Force","location":{"latitude":"51.343675","street":{"id":2057261,"name":"On or near Westlands Avenue"},"longitude":"0.711478"},"context":"","outcome_status":{"category":"Under investigation","date":"2026-01"},"persistent_id":"f9eec23e577db886834fa58164b1d23e06fc2147f479effcb8811a37f9500cc5","id":133342075,"location_subtype":"","month":"2026-01"},{"category":"violent-crime","location_type":"Force","location":{"latitude":"51.346494","street":{"id":2057238,"name":"On or near Gibbons Road"},"longitude":"0.709390"},"context":"","outcome_status":{"category":"Under investigation","date":"2026-01"},"persistent_id":"2f7a1d8925a05d711c922fba354dc53180afb4f4b4909f487b55438e1ad80029","id":133344047,"location_subtype":"","month":"2026-01"},{"category":"violent-crime","location_type":"Force","location":{"latitude":"51.338268","street":{"id":2057834,"name":"On or near Parking Area"},"longitude":"0.740896"},"context":"","outcome_status":{"category":"Under investigation","date":"2026-01"},"persistent_id":"13afa7e0f0d5905258fd67d25a986bca0d4ce7c74abcc3130ca513a3b1c24ce1","id":133340934,"location_subtype":"","month":"2026-01"},{"category":"violent-crime","location_type":"Force","location":{"latitude":"51.340140","street":{"id":2057779,"name":"On or near Parking Area"},"longitude":"0.738165"},"context":"","outcome_status":{"category":"Under investigation","date":"2026-01"},"persistent_id":"40670452e69160cc6002212eac15d68d9b63634c083a5b3dbf86820db74c87a3","id":133340930,"location_subtype":"","month":"2026-01"},{"category":"violent-crime","location_type":"Force","location":{"latitude":"51.343256","street":{"id":2057435,"name":"On or near Victoria Road"},"longitude":"0.722956"},"context":"","outcome_status":{"category":"Under investigation","date":"2026-01"},"persistent_id":"ff16b1e3d9756d7b9bc01d70b30043d25c7e82da03dce452bb4c33ee483e9d1a","id":133339735,"location_subtype":"","month":"2026-01"},{"category":"violent-crime","location_type":"Force","location":{"latitude":"51.339262","street":{"id":2057718,"name":"On or near Parking Area"},"longitude":"0.735327"},"context":"","outcome_status":{"category":"Under investigation","date":"2026-01"},"persistent_id":"9b08c69e0dfabdddddce50fcd26f1f677217e5d6515e7b8e5ea9a2316d2b218a","id":133339332,"location_subtype":"","month":"2026-01"},{"category":"violent-crime","location_type":"Force","location":{"latitude":"51.345183","street":{"id":2057321,"name":"On or near Kenilworth Court"},"longitude":"0.717039"},"context":"","outcome_status":{"category":"Under investigation","date":"2026-01"},"persistent_id":"22f0f3a7b6386c2cbc95b271fdbbe4948a03e36fc0bbd815feca7f1a63a5468e","id":133337434,"location_subtype":"","month":"2026-01"},{"category":"violent-crime","location_type":"Force","location":{"latitude":"51.347519","street":{"id":2057256,"name":"On or near Clive Road"},"longitude":"0.710169"},"context":"","outcome_status":{"category":"Under investigation","date":"2026-01"},"persistent_id":"2ab5c70df4a151359c5e7e9a01afebb5b16303321b43e06b786b7cbf24ebbe27","id":133337039,"location_subtype":"","month":"2026-01"},{"category":"violent-crime","location_type":"Force","location":{"latitude":"51.339262","street":{"id":2057718,"name":"On or near Parking Area"},"longitude":"0.735327"},"context":"","outcome_status":{"category":"Unable to prosecute suspect","date":"2026-01"},"persistent_id":"d93accddc01fd75d9ade76c3009037db385c3e5f1551207a5a125e8158221e83","id":133342878,"location_subtype":"","month":"2026-01"},{"category":"violent-crime","location_type":"Force","location":{"latitude":"51.348830","street":{"id":2057303,"name":"On or near Bristol Close"},"longitude":"0.713736"},"context":"","outcome_status":{"category":"Unable to prosecute suspect","date":"2026-01"},"persistent_id":"a50ff1ae4e00c1b575d21537741efee8dae85078e423c7ba724dd1a6b858869f","id":133336697,"location_subtype":"","month":"2026-01"},{"category":"violent-crime","location_type":"Force","location":{"latitude":"51.347746","street":{"id":2057497,"name":"On or near B2006"},"longitude":"0.725564"},"context":"","outcome_status":{"category":"Unable to prosecute suspect","date":"2026-01"},"persistent_id":"3ac67379d2f62a445f064e5862005da3a954c9bbec8cb2ec7c35deca6457cc1c","id":133336698,"location_subtype":"","month":"2026-01"},{"category":"violent-crime","location_type":"Force","location":{"latitude":"51.341022","street":{"id":2057684,"name":"On or near Station Street"},"longitude":"0.733522"},"context":"","outcome_status":{"category":"Unable to prosecute suspect","date":"2026-01"},"persistent_id":"1ad1c19d62b479173cb7e25b7d3e5d30f522a112a93518d3870dffc9c633aca3","id":133336700,"location_subtype":"","month":"2026-01"},{"category":"violent-crime","location_type":"Force","location":{"latitude":"51.339986","street":{"id":2057804,"name":"On or near The Butts"},"longitude":"0.739750"},"context":"","outcome_status":{"category":"Under investigation","date":"2026-01"},"persistent_id":"e849012dd4e1c230462f9512fcb7f8ea63888a9f995115894c3579b0aca2cc3c","id":133345581,"location_subtype":"","month":"2026-01"},{"category":"violent-crime","location_type":"Force","location":{"latitude":"51.341148","street":{"id":2057704,"name":"On or near Parking Area"},"longitude":"0.734276"},"context":"","outcome_status":{"category":"Under investigation","date":"2026-01"},"persistent_id":"d55a96225cb6c05e816b4a55a8e41817eff047c0f2ba9b31d584a7fc7804bace","id":133345580,"location_subtype":"","month":"2026-01"},{"category":"violent-crime","location_type":"Force","location":{"latitude":"51.333947","street":{"id":2057844,"name":"On or near Merlin Close"},"longitude":"0.742993"},"context":"","outcome_status":{"category":"Awaiting court outcome","date":"2026-01"},"persistent_id":"a63e6325c6ec573cbbb872113078689eb16d929065c3e7343c1cfdfefbbeb23b","id":133337045,"location_subtype":"","month":"2026-01"},{"category":"violent-crime","location_type":"Force","location":{"latitude":"51.343210","street":{"id":2057746,"name":"On or near Cambria Crescent"},"longitude":"0.736883"},"context":"","outcome_status":{"category":"Under investigation","date":"2026-01"},"persistent_id":"c3a6d687136f306c9ee73f8e9bc5409d2c455c8024370f0f004ccfc21c58fd8d","id":133339737,"location_subtype":"","month":"2026-01"},{"category":"violent-crime","location_type":"Force","location":{"latitude":"51.338268","street":{"id":2057834,"name":"On or near Parking Area"},"longitude":"0.740896"},"context":"","outcome_status":{"category":"Unable to prosecute suspect","date":"2026-01"},"persistent_id":"538035b67e5234f85e150506988ac1e9ed4b8b263522fc36cc87d63150314bce","id":133337438,"location_subtype":"","month":"2026-01"},{"category":"violent-crime","location_type":"Force","location":{"latitude":"51.326532","street":{"id":2057727,"name":"On or near Crossways"},"longitude":"0.735086"},"context":"","outcome_status":{"category":"Under investigation","date":"2026-01"},"persistent_id":"a9865e5a8e1d639935634d5e31bcef543f310627b59abd8ae024e83611cb2bba","id":133339736,"location_subtype":"","month":"2026-01"},{"category":"violent-crime","location_type":"Force","location":{"latitude":"51.344279","street":{"id":2057482,"name":"On or near Chalkwell Road"},"longitude":"0.725731"},"context":"","outcome_status":{"category":"Unable to prosecute suspect","date":"2026-01"},"persistent_id":"2b778a16cd962b488700b24f1107683abc759dcff27379b2917b30d5b16ac3b2","id":133339331,"location_subtype":"","month":"2026-01"},{"category":"violent-crime","location_type":"Force","location":{"latitude":"51.338268","street":{"id":2057834,"name":"On or near Parking Area"},"longitude":"0.740896"},"context":"","outcome_status":{"category":"Unable to prosecute suspect","date":"2026-01"},"persistent_id":"78b505894e27f9fce56f8fcf8d5b5e5808bfcf5a82e0b47f4278f92bbb883d85","id":133337859,"location_subtype":"","month":"2026-01"},{"category":"violent-crime","location_type":"Force","location":{"latitude":"51.335399","street":{"id":2057430,"name":"On or near Kent Avenue"},"longitude":"0.722404"},"context":"","outcome_status":{"category":"Investigation complete; no suspect identified","date":"2026-01"},"persistent_id":"37058e8e05a12f7c3b94ca99f23c10c147c3c804fe4e3569e0fe6c90d9e53db4","id":133345232,"location_subtype":"","month":"2026-01"},{"category":"violent-crime","location_type":"Force","location":{"latitude":"51.339006","street":{"id":2057862,"name":"On or near Victoria Mews"},"longitude":"0.743195"},"context":"","outcome_status":{"category":"Under investigation","date":"2026-01"},"persistent_id":"4dfa4694c7e146efae95d82fadbfb25abffdcf74b5c58a02b615c5bbf07e6039","id":133345236,"location_subtype":"","month":"2026-01"},{"category":"violent-crime","location_type":"Force","location":{"latitude":"51.340079","street":{"id":2057394,"name":"On or near Copper Beech Close"},"longitude":"0.720715"},"context":"","outcome_status":{"category":"Under investigation","date":"2026-01"},"persistent_id":"fc154153940175ce20b5ffb562b0ea13b88ce6ac1d30962b37985e2db587988d","id":133325401,"location_subtype":"","month":"2026-01"},{"category":"violent-crime","location_type":"Force","location":{"latitude":"51.335399","street":{"id":2057430,"name":"On or near Kent Avenue"},"longitude":"0.722404"},"context":"","outcome_status":{"category":"Unable to prosecute suspect","date":"2026-01"},"persistent_id":"f50ebf10b8593b32c5199ffcab8f0a7ce6a16f4850d0edadffa1fbc14a45ef52","id":133338239,"location_subtype":"","month":"2026-01"},{"category":"violent-crime","location_type":"Force","location":{"latitude":"51.343700","street":{"id":2057250,"name":"On or near Newlands Avenue"},"longitude":"0.710388"},"context":"","outcome_status":{"category":"Under investigation","date":"2026-01"},"persistent_id":"b651144945ada5559660abea68bee863540137fe426240d4a65ee195dcb59334","id":133324245,"location_subtype":"","month":"2026-01"},{"category":"violent-crime","location_type":"Force","location":{"latitude":"51.339262","street":{"id":2057718,"name":"On or near Parking Area"},"longitude":"0.735327"},"context":"","outcome_status":{"category":"Investigation complete; no suspect identified","date":"2026-01"},"persistent_id":"e92a045eba397e8f9b811872a3c5d2758e4debdeec948290e87772ad6229b393","id":133338619,"location_subtype":"","month":"2026-01"},{"category":"violent-crime","location_type":"Force","location":{"latitude":"51.342051","street":{"id":2057857,"name":"On or near Shopping Area"},"longitude":"0.741842"},"context":"","outcome_status":{"category":"Under investigation","date":"2026-01"},"persistent_id":"ef811b718d068c85bec6e762069c67b4df75dc12cc2d77e28dcf8a583a1683c0","id":133345235,"location_subtype":"","month":"2026-01"},{"category":"violent-crime","location_type":"Force","location":{"latitude":"51.343256","street":{"id":2057435,"name":"On or near Victoria Road"},"longitude":"0.722956"},"context":"","outcome_status":{"category":"Under investigation","date":"2026-01"},"persistent_id":"e4394d76ba8f96886bfcd432e77aa18dccd886359812de79907eb2ca517e50dd","id":133345231,"location_subtype":"","month":"2026-01"},{"category":"violent-crime","location_type":"Force","location":{"latitude":"51.343256","street":{"id":2057435,"name":"On or near Victoria Road"},"longitude":"0.722956"},"context":"","outcome_status":{"category":"Under investigation","date":"2026-01"},"persistent_id":"cbba0424bc1926811e4ed17b983cd48c0e1c18e7e15498bc7c918ae686f56d4f","id":133345230,"location_subtype":"","month":"2026-01"},{"category":"violent-crime","location_type":"Force","location":{"latitude":"51.339871","street":{"id":2057742,"name":"On or near High Street"},"longitude":"0.736986"},"context":"","outcome_status":{"category":"Awaiting court outcome","date":"2026-01"},"persistent_id":"28aadf806b6486e78b01420aa1384b603078f2e482fbd492e6bbe1643375ea61","id":133344824,"location_subtype":"","month":"2026-01"},{"category":"violent-crime","location_type":"Force","location":{"latitude":"51.332808","street":{"id":2057668,"name":"On or near Oast Court"},"longitude":"0.733220"},"context":"","outcome_status":{"category":"Unable to prosecute suspect","date":"2026-01"},"persistent_id":"5c91b2b07b7fc7a43684dfff28f3e58a05a218a43089791a45cfaec93ab62699","id":133340119,"location_subtype":"","month":"2026-01"},{"category":"violent-crime","location_type":"Force","location":{"latitude":"51.330098","street":{"id":2057734,"name":"On or near Bluebell Drive"},"longitude":"0.736806"},"context":"","outcome_status":{"category":"Unable to prosecute suspect","date":"2026-01"},"persistent_id":"501a5e2906157465a1af913cf667acc21f79fffe5d8ae613810181023d81473d","id":133340121,"location_subtype":"","month":"2026-01"},{"category":"violent-crime","location_type":"Force","location":{"latitude":"51.341148","street":{"id":2057704,"name":"On or near Parking Area"},"longitude":"0.734276"},"context":"","outcome_status":{"category":"Investigation complete; no suspect identified","date":"2026-01"},"persistent_id":"5fbdc1aa199de48f1ed392c8229f92ae09ee96499ad6f7eb95e4f717673f3dea","id":133340550,"location_subtype":"","month":"2026-01"},{"category":"violent-crime","location_type":"Force","location":{"latitude":"51.326012","street":{"id":2057732,"name":"On or near Marigold Drive"},"longitude":"0.736921"},"context":"","outcome_status":{"category":"Investigation complete; no suspect identified","date":"2026-01"},"persistent_id":"4329c8a291b9ffeb171101df4589bfb4b1a98e080299da11bdaec968010c75d0","id":133344431,"location_subtype":"","month":"2026-01"},{"category":"violent-crime","location_type":"Force","location":{"latitude":"51.341148","street":{"id":2057704,"name":"On or near Parking Area"},"longitude":"0.734276"},"context":"","outcome_status":{"category":"Investigation complete; no suspect identified","date":"2026-01"},"persistent_id":"7ce78d5ece4ac8471e33fc2aa721c3091cee94ac7faaa4a4dc54ca21eee2af26","id":133340929,"location_subtype":"","month":"2026-01"},{"category":"violent-crime","location_type":"Force","location":{"latitude":"51.336574","street":{"id":2057766,"name":"On or near Sports/recreation Area"},"longitude":"0.737502"},"context":"","outcome_status":{"category":"Under investigation","date":"2026-01"},"persistent_id":"83645b0f30be7e3bd3b56419fe01d3226fded880da8b1f8d138a31c04668658c","id":133338621,"location_subtype":"","month":"2026-01"},{"category":"violent-crime","location_type":"Force","location":{"latitude":"51.337750","street":{"id":2057408,"name":"On or near Windermere Grove"},"longitude":"0.720304"},"context":"","outcome_status":{"category":"Investigation complete; no suspect identified","date":"2026-01"},"persistent_id":"38bd6c536c8151e8fd5a923c3ffc395ce3620cdc789696be7d4cccbb9698485c","id":133337857,"location_subtype":"","month":"2026-01"},{"category":"violent-crime","location_type":"Force","location":{"latitude":"51.340860","street":{"id":2057758,"name":"On or near Parking Area"},"longitude":"0.737002"},"context":"","outcome_status":{"category":"Unable to prosecute suspect","date":"2026-01"},"persistent_id":"b2f9adb45a2c9d885b201255542f82af4d3e389ce402ea3f1fb7a67d359d359e","id":133342880,"location_subtype":"","month":"2026-01"},{"category":"violent-crime","location_type":"Force","location":{"latitude":"51.322745","street":{"id":2057524,"name":"On or near Ruins Barn Road"},"longitude":"0.728186"},"context":"","outcome_status":{"category":"Unable to prosecute suspect","date":"2026-01"},"persistent_id":"6a0c7b1a955a1d31241c71d1611eaae822b849327d934419cc0e95b8cdbc0351","id":133343300,"location_subtype":"","month":"2026-01"},{"category":"other-crime","location_type":"Force","location":{"latitude":"51.334546","street":{"id":2057420,"name":"On or near Harmony Close"},"longitude":"0.721191"},"context":"","outcome_status":{"category":"Action to be taken by another organisation","date":"2026-01"},"persistent_id":"2b575bba9ad3033a4363be672c607765f9e402da2440fc74c5a3474b8ade61c0","id":133343472,"location_subtype":"","month":"2026-01"},{"category":"other-crime","location_type":"Force","location":{"latitude":"51.334546","street":{"id":2057420,"name":"On or near Harmony Close"},"longitude":"0.721191"},"context":"","outcome_status":{"category":"Action to be taken by another organisation","date":"2026-01"},"persistent_id":"10742d8a49b09ed1c294547cc34f0e39471207e717ec627e5572dd0ef84cfdaa","id":133343869,"location_subtype":"","month":"2026-01"},{"category":"other-crime","location_type":"Force","location":{"latitude":"51.344063","street":{"id":2057160,"name":"On or near Dental Close"},"longitude":"0.702468"},"context":"","outcome_status":{"category":"Unable to prosecute suspect","date":"2026-01"},"persistent_id":"02dbff57204f117633e664095ca444312ddb3b3cd607fe6ed006dde959f7ad42","id":133338776,"location_subtype":"","month":"2026-01"},{"category":"other-crime","location_type":"Force","location":{"latitude":"51.337183","street":{"id":2057398,"name":"On or near Berkeley Court"},"longitude":"0.719538"},"context":"","outcome_status":{"category":"Under investigation","date":"2026-01"},"persistent_id":"61328026e5645564d789211f717296cfefb9846ad4f8a567e35a64e38163feec","id":133335797,"location_subtype":"","month":"2026-01"},{"category":"other-crime","location_type":"Force","location":{"latitude":"51.329759","street":{"id":2057805,"name":"On or near Marjoram Drive"},"longitude":"0.739772"},"context":"","outcome_status":{"category":"Unable to prosecute suspect","date":"2026-01"},"persistent_id":"1470855e69f712dd9daf775cd2d4f5cf3ed8cc3006622c4a08179415eb689626","id":133337201,"location_subtype":"","month":"2026-01"},{"category":"other-crime","location_type":"Force","location":{"latitude":"51.342281","street":{"id":2057843,"name":"On or near Crown Quay Lane"},"longitude":"0.741222"},"context":"","outcome_status":{"category":"Offender given a caution","date":"2026-01"},"persistent_id":"ce658a0b121bcdebcb7e1697929b573233b3d737656cdb384ace7f0073acbe21","id":133336481,"location_subtype":"","month":"2026-01"},{"category":"other-crime","location_type":"Force","location":{"latitude":"51.343675","street":{"id":2057261,"name":"On or near Westlands Avenue"},"longitude":"0.711478"},"context":"","outcome_status":{"category":"Under investigation","date":"2026-01"},"persistent_id":"a03a8d645c6c0f62584677366194dc4ee1c1a8fb801b784ed506899d8d4c4841","id":133340293,"location_subtype":"","month":"2026-01"},{"category":"other-crime","location_type":"Force","location":{"latitude":"51.346388","street":{"id":2057675,"name":"On or near Prentis Quay"},"longitude":"0.733655"},"context":"","outcome_status":{"category":"Under investigation","date":"2026-01"},"persistent_id":"f6004d92980ec9bbeb32218d9cdd2b27f5f6a36c51a2424bd09fd342161780b0","id":133339894,"location_subtype":"","month":"2026-01"}]