[{"category":"anti-social-behaviour","location_type":"Force","location":{"latitude":"52.086188","street":{"id":1977189,"name":"On or near Dovecote"},"longitude":"-0.729582"},"context":"","outcome_status":null,"persistent_id":"","id":130753634,"location_subtype":"","month":"2025-08"},{"category":"anti-social-behaviour","location_type":"Force","location":{"latitude":"52.079213","street":{"id":1979312,"name":"On or near Hopton Grove"},"longitude":"-0.707409"},"context":"","outcome_status":null,"persistent_id":"","id":130753555,"location_subtype":"","month":"2025-08"},{"category":"anti-social-behaviour","location_type":"Force","location":{"latitude":"52.079498","street":{"id":1977787,"name":"On or near Mountsfield Close"},"longitude":"-0.726999"},"context":"","outcome_status":null,"persistent_id":"","id":130753563,"location_subtype":"","month":"2025-08"},{"category":"anti-social-behaviour","location_type":"Force","location":{"latitude":"52.087391","street":{"id":1978431,"name":"On or near Ousebank Street"},"longitude":"-0.719462"},"context":"","outcome_status":null,"persistent_id":"","id":130753653,"location_subtype":"","month":"2025-08"},{"category":"anti-social-behaviour","location_type":"Force","location":{"latitude":"52.082967","street":{"id":1978872,"name":"On or near Chartwell Road"},"longitude":"-0.713591"},"context":"","outcome_status":null,"persistent_id":"","id":130753607,"location_subtype":"","month":"2025-08"},{"category":"anti-social-behaviour","location_type":"Force","location":{"latitude":"52.087391","street":{"id":1978431,"name":"On or near Ousebank Street"},"longitude":"-0.719462"},"context":"","outcome_status":null,"persistent_id":"","id":130753650,"location_subtype":"","month":"2025-08"},{"category":"burglary","location_type":"Force","location":{"latitude":"52.085072","street":{"id":1976851,"name":"On or near Ash Hill Road"},"longitude":"-0.738691"},"context":"","outcome_status":{"category":"Investigation complete; no suspect identified","date":"2025-09"},"persistent_id":"7968a9d630471d9fb8a1e8b86cfdd0dc69ac8a24dcebe8018b4da9182476c626","id":130753627,"location_subtype":"","month":"2025-08"},{"category":"burglary","location_type":"Force","location":{"latitude":"52.082803","street":{"id":1977273,"name":"On or near Lime Close"},"longitude":"-0.732509"},"context":"","outcome_status":{"category":"Investigation complete; no suspect identified","date":"2025-08"},"persistent_id":"ee0cc1109effd37b8d535668d47a8cf46fe29cff40657c0d4c9dab84e560e715","id":130753594,"location_subtype":"","month":"2025-08"},{"category":"criminal-damage-arson","location_type":"Force","location":{"latitude":"52.085611","street":{"id":1976523,"name":"On or near Byron Drive"},"longitude":"-0.742836"},"context":"","outcome_status":{"category":"Investigation complete; no suspect identified","date":"2025-09"},"persistent_id":"f5df13ab6a65d62022a30b92995c40721726ff6f24ff9257af57387e620d9942","id":130753633,"location_subtype":"","month":"2025-08"},{"category":"criminal-damage-arson","location_type":"Force","location":{"latitude":"52.087926","street":{"id":1978331,"name":"On or near North Square"},"longitude":"-0.720717"},"context":"","outcome_status":{"category":"Investigation complete; no suspect identified","date":"2025-09"},"persistent_id":"358201adfce441d7a93a06cbe516b0593654a3a73b0c004e2f9669adc753279e","id":130753656,"location_subtype":"","month":"2025-08"},{"category":"criminal-damage-arson","location_type":"Force","location":{"latitude":"52.082187","street":{"id":1977092,"name":"On or near Sports/recreation Area"},"longitude":"-0.735413"},"context":"","outcome_status":{"category":"Investigation complete; no suspect identified","date":"2025-08"},"persistent_id":"b5b608055c3c609597cc925660effc7beda3f127e8a047160518acedbd17599c","id":130753582,"location_subtype":"","month":"2025-08"},{"category":"criminal-damage-arson","location_type":"Force","location":{"latitude":"52.087926","street":{"id":1978331,"name":"On or near North Square"},"longitude":"-0.720717"},"context":"","outcome_status":{"category":"Investigation complete; no suspect identified","date":"2025-08"},"persistent_id":"b770ec99ce74982bbefb5726f1001cc0d0910632700149bb544bac5d300c8dee","id":130753654,"location_subtype":"","month":"2025-08"},{"category":"criminal-damage-arson","location_type":"Force","location":{"latitude":"52.085611","street":{"id":1976523,"name":"On or near Byron Drive"},"longitude":"-0.742836"},"context":"","outcome_status":{"category":"Investigation complete; no suspect identified","date":"2025-09"},"persistent_id":"c9cd8802bf9f0f41aed69973957bff01e7d2cef09d500212029d6f2a7c1d9e2f","id":130753631,"location_subtype":"","month":"2025-08"},{"category":"other-theft","location_type":"Force","location":{"latitude":"52.085539","street":{"id":1978464,"name":"On or near Church View"},"longitude":"-0.717822"},"context":"","outcome_status":{"category":"Unable to prosecute suspect","date":"2025-10"},"persistent_id":"5e0619c813dd89b4ba3c9cb16bdf1d94e4367df8fc445d8968a0491339071e3e","id":130753624,"location_subtype":"","month":"2025-08"},{"category":"other-theft","location_type":"Force","location":{"latitude":"52.082967","street":{"id":1978872,"name":"On or near Chartwell Road"},"longitude":"-0.713591"},"context":"","outcome_status":{"category":"Investigation complete; no suspect identified","date":"2025-09"},"persistent_id":"3b1d2c8f530bcae0142f560ece767715ac174224bb998b7dcaf68566f81475e1","id":130753608,"location_subtype":"","month":"2025-08"},{"category":"other-theft","location_type":"Force","location":{"latitude":"52.084197","street":{"id":1978906,"name":"On or near Chicheley Street"},"longitude":"-0.712636"},"context":"","outcome_status":{"category":"Unable to prosecute suspect","date":"2025-08"},"persistent_id":"96ea6f97bb2a576e2c1e1a7f062a38407101911c0c92b732f95cbea4bc6f8710","id":130753628,"location_subtype":"","month":"2025-08"},{"category":"other-theft","location_type":"Force","location":{"latitude":"52.081695","street":{"id":1977404,"name":"On or near Parking Area"},"longitude":"-0.732365"},"context":"","outcome_status":{"category":"Unable to prosecute suspect","date":"2025-09"},"persistent_id":"2b5be6e5d4cf0ff722bff2f025963cb6d878242df8fe88ed8d8f899fc1ce31ef","id":130753574,"location_subtype":"","month":"2025-08"},{"category":"other-theft","location_type":"Force","location":{"latitude":"52.082967","street":{"id":1978872,"name":"On or near Chartwell Road"},"longitude":"-0.713591"},"context":"","outcome_status":{"category":"Unable to prosecute suspect","date":"2025-10"},"persistent_id":"f9af1e83d61a969728f86cc137b93179a47282381b15bd1585f7ffe401949273","id":130753610,"location_subtype":"","month":"2025-08"},{"category":"possession-of-weapons","location_type":"Force","location":{"latitude":"52.082369","street":{"id":1979133,"name":"On or near The Canons"},"longitude":"-0.709916"},"context":"","outcome_status":{"category":"Further investigation is not in the public interest","date":"2025-12"},"persistent_id":"a9ec3ddad1410b13d7a59739f5b889835fd38fac6683ae1a67c374132e058d75","id":130753592,"location_subtype":"","month":"2025-08"},{"category":"public-order","location_type":"Force","location":{"latitude":"52.083074","street":{"id":1978869,"name":"On or near Ivy Close"},"longitude":"-0.711865"},"context":"","outcome_status":{"category":"Unable to prosecute suspect","date":"2025-08"},"persistent_id":"5e19fdbdc4f26b5e5bf5b26db181a6a16766ba03b7fce3546f6468011eb27c03","id":130753593,"location_subtype":"","month":"2025-08"},{"category":"public-order","location_type":"Force","location":{"latitude":"52.082803","street":{"id":1977273,"name":"On or near Lime Close"},"longitude":"-0.732509"},"context":"","outcome_status":{"category":"Unable to prosecute suspect","date":"2025-10"},"persistent_id":"3f777167bdfe5c1eaa49aa8c4f4a547d7de423b040e49d13ec2d5558b96b95fa","id":130753603,"location_subtype":"","month":"2025-08"},{"category":"public-order","location_type":"Force","location":{"latitude":"52.086160","street":{"id":1978333,"name":"On or near St John Street"},"longitude":"-0.721220"},"context":"","outcome_status":{"category":"Unable to prosecute suspect","date":"2025-09"},"persistent_id":"fe3e79cea3d4b9d5a70ca422c54de233b949a865ec6e2fcbe77475652342c584","id":130753642,"location_subtype":"","month":"2025-08"},{"category":"public-order","location_type":"Force","location":{"latitude":"52.082187","street":{"id":1977092,"name":"On or near Sports/recreation Area"},"longitude":"-0.735413"},"context":"","outcome_status":{"category":"Investigation complete; no suspect identified","date":"2025-12"},"persistent_id":"2b02dfa95676dbd9af74733a795764e425390b659c1d8a73f516f5215f034121","id":130753577,"location_subtype":"","month":"2025-08"},{"category":"shoplifting","location_type":"Force","location":{"latitude":"52.081819","street":{"id":1979139,"name":"On or near Petrol Station"},"longitude":"-0.709800"},"context":"","outcome_status":{"category":"Suspect charged as part of another case","date":"2025-10"},"persistent_id":"49e48c8b19f3f17266ef40a1a7f70aeb11445bb7188d8e66b07afdb430a0853b","id":130753581,"location_subtype":"","month":"2025-08"},{"category":"shoplifting","location_type":"Force","location":{"latitude":"52.081819","street":{"id":1979139,"name":"On or near Petrol Station"},"longitude":"-0.709800"},"context":"","outcome_status":{"category":"Suspect charged as part of another case","date":"2025-10"},"persistent_id":"2b327f4d1eb902d0aef7f492233312758f2ae40e848ac5c434c347e323fa385a","id":130753579,"location_subtype":"","month":"2025-08"},{"category":"shoplifting","location_type":"Force","location":{"latitude":"52.087499","street":{"id":1976426,"name":"On or near Supermarket"},"longitude":"-0.743658"},"context":"","outcome_status":{"category":"Awaiting court outcome","date":"2025-09"},"persistent_id":"060295856dd7487ab5b054f0d84bf2948931f3cf11dc2222153b2c3c3886a0aa","id":130753649,"location_subtype":"","month":"2025-08"},{"category":"shoplifting","location_type":"Force","location":{"latitude":"52.081819","street":{"id":1979139,"name":"On or near Petrol Station"},"longitude":"-0.709800"},"context":"","outcome_status":{"category":"Suspect charged as part of another case","date":"2025-10"},"persistent_id":"50e9ae750b2ea108272152b26b809708800d8e4ec4a28ed46a3ef691f7cea92a","id":130753580,"location_subtype":"","month":"2025-08"},{"category":"shoplifting","location_type":"Force","location":{"latitude":"52.087499","street":{"id":1976426,"name":"On or near Supermarket"},"longitude":"-0.743658"},"context":"","outcome_status":{"category":"Investigation complete; no suspect identified","date":"2025-09"},"persistent_id":"ac365649fdf6a52c503676af4697595b806a85a7a7ecde6db9b733f07a5299c3","id":130753648,"location_subtype":"","month":"2025-08"},{"category":"shoplifting","location_type":"Force","location":{"latitude":"52.081819","street":{"id":1979139,"name":"On or near Petrol Station"},"longitude":"-0.709800"},"context":"","outcome_status":{"category":"Investigation complete; no suspect identified","date":"2025-08"},"persistent_id":"db1075726665c826d821dda63a512adf53cc786c4cf084c2a880afb686766473","id":130753578,"location_subtype":"","month":"2025-08"},{"category":"vehicle-crime","location_type":"Force","location":{"latitude":"52.085678","street":{"id":1978478,"name":"On or near Park View"},"longitude":"-0.719044"},"context":"","outcome_status":{"category":"Investigation complete; no suspect identified","date":"2025-08"},"persistent_id":"e61e0d06be164d231613b016bcb7f7d2e17fd5acd9059a838942e3d01e68090d","id":130753640,"location_subtype":"","month":"2025-08"},{"category":"vehicle-crime","location_type":"Force","location":{"latitude":"52.085054","street":{"id":1978110,"name":"On or near Silver Street"},"longitude":"-0.722857"},"context":"","outcome_status":{"category":"Investigation complete; no suspect identified","date":"2025-09"},"persistent_id":"441d774f717ee7569297aabaab454ccca9fe5693e2b2dfca1c87d1ccc14ed18c","id":130753629,"location_subtype":"","month":"2025-08"},{"category":"vehicle-crime","location_type":"Force","location":{"latitude":"52.086465","street":{"id":1978056,"name":"On or near High Street"},"longitude":"-0.724393"},"context":"","outcome_status":{"category":"Investigation complete; no suspect identified","date":"2025-09"},"persistent_id":"b720558b9e90d2e7edf2abff7dc9c7dc5b1776e8f8b07c2e990ab35da0ff7c09","id":130753641,"location_subtype":"","month":"2025-08"},{"category":"vehicle-crime","location_type":"Force","location":{"latitude":"52.085903","street":{"id":1978564,"name":"On or near Castle Meadow Close"},"longitude":"-0.716571"},"context":"","outcome_status":{"category":"Unable to prosecute suspect","date":"2025-10"},"persistent_id":"cb75c5055c4df002cbb4fc2381276d318a537415416721e7d43201e6e1bb1d08","id":130753630,"location_subtype":"","month":"2025-08"},{"category":"vehicle-crime","location_type":"Force","location":{"latitude":"52.076884","street":{"id":1978089,"name":"On or near Sports/recreation Area"},"longitude":"-0.721289"},"context":"","outcome_status":{"category":"Unable to prosecute suspect","date":"2025-11"},"persistent_id":"071f12b4acaa71d0b2720dc9e5107775259b9f5101d6386af14080e7c158073e","id":130753550,"location_subtype":"","month":"2025-08"},{"category":"violent-crime","location_type":"Force","location":{"latitude":"52.086893","street":{"id":1978111,"name":"On or near Supermarket"},"longitude":"-0.723227"},"context":"","outcome_status":{"category":"Unable to prosecute suspect","date":"2025-10"},"persistent_id":"ef603693bf483c954bd789df79242466fd3cb53dda6d4547bd0a66f9729effcf","id":130753646,"location_subtype":"","month":"2025-08"},{"category":"violent-crime","location_type":"Force","location":{"latitude":"52.085539","street":{"id":1978464,"name":"On or near Church View"},"longitude":"-0.717822"},"context":"","outcome_status":{"category":"Unable to prosecute suspect","date":"2025-09"},"persistent_id":"e94151615dbb0be67c638f9a2d4961a0c174422ba924f81ad137c66a161dd08b","id":130753625,"location_subtype":"","month":"2025-08"},{"category":"violent-crime","location_type":"Force","location":{"latitude":"52.087060","street":{"id":1977706,"name":"On or near Queens Avenue"},"longitude":"-0.727105"},"context":"","outcome_status":{"category":"Unable to prosecute suspect","date":"2025-09"},"persistent_id":"d83b1938267235aed0e146edc8b44f2742e30e633d89914bca5c2f5d64248f6d","id":130753651,"location_subtype":"","month":"2025-08"},{"category":"violent-crime","location_type":"Force","location":{"latitude":"52.086188","street":{"id":1977189,"name":"On or near Dovecote"},"longitude":"-0.729582"},"context":"","outcome_status":{"category":"Action to be taken by another organisation","date":"2025-09"},"persistent_id":"6d2dbd24188f6ff45ea7dfcacfbc748b5ca1f52bf74a8f5759c04a81fd386ad2","id":130753639,"location_subtype":"","month":"2025-08"},{"category":"violent-crime","location_type":"Force","location":{"latitude":"52.082369","street":{"id":1979133,"name":"On or near The Canons"},"longitude":"-0.709916"},"context":"","outcome_status":{"category":"Unable to prosecute suspect","date":"2025-10"},"persistent_id":"cbc7fd464868328203941316bf6999288ee367eb7ec829d580cfa794d3c8694e","id":130753601,"location_subtype":"","month":"2025-08"},{"category":"violent-crime","location_type":"Force","location":{"latitude":"52.081220","street":{"id":1977103,"name":"On or near Annesley Road"},"longitude":"-0.734947"},"context":"","outcome_status":{"category":"Awaiting court outcome","date":"2025-10"},"persistent_id":"c69bef07f7a45edb58e7e2daf850c9f7c7550915b77db97a18d571b55674b39f","id":130753572,"location_subtype":"","month":"2025-08"},{"category":"violent-crime","location_type":"Force","location":{"latitude":"52.082369","street":{"id":1979133,"name":"On or near The Canons"},"longitude":"-0.709916"},"context":"","outcome_status":{"category":"Unable to prosecute suspect","date":"2025-10"},"persistent_id":"0fc4a8012ee2011d4e38259597f378b8651863597a1afb0e09dfd73532871a50","id":130753598,"location_subtype":"","month":"2025-08"},{"category":"violent-crime","location_type":"Force","location":{"latitude":"52.082369","street":{"id":1979133,"name":"On or near The Canons"},"longitude":"-0.709916"},"context":"","outcome_status":{"category":"Unable to prosecute suspect","date":"2025-11"},"persistent_id":"5a3396067c9c64c5172168298c4a028ac2dd162387d82960f269edd4cb6b9de7","id":130753595,"location_subtype":"","month":"2025-08"},{"category":"violent-crime","location_type":"Force","location":{"latitude":"52.086188","street":{"id":1977189,"name":"On or near Dovecote"},"longitude":"-0.729582"},"context":"","outcome_status":{"category":"Offender given a caution","date":"2025-12"},"persistent_id":"9ac2a4b4bcfb356b9a00a55c066e50f7204316f113bc2a1cf26621847b184406","id":130753645,"location_subtype":"","month":"2025-08"},{"category":"violent-crime","location_type":"Force","location":{"latitude":"52.084957","street":{"id":1977756,"name":"On or near Parking Area"},"longitude":"-0.727982"},"context":"","outcome_status":{"category":"Investigation complete; no suspect identified","date":"2025-08"},"persistent_id":"75ee40e9885b28501d6390c7a7cb408ae799000478e7d96ed1940fb1beaff806","id":130753632,"location_subtype":"","month":"2025-08"},{"category":"violent-crime","location_type":"Force","location":{"latitude":"52.082369","street":{"id":1979133,"name":"On or near The Canons"},"longitude":"-0.709916"},"context":"","outcome_status":{"category":"Unable to prosecute suspect","date":"2025-09"},"persistent_id":"9cdced47c3fb943b92f0825fe48c2806245d13178139c45cbe71ac5beb977133","id":130753600,"location_subtype":"","month":"2025-08"},{"category":"violent-crime","location_type":"Force","location":{"latitude":"52.082369","street":{"id":1979133,"name":"On or near The Canons"},"longitude":"-0.709916"},"context":"","outcome_status":{"category":"Offender given a caution","date":"2025-12"},"persistent_id":"6c87c24a20de576eebc601de50c20f982deca8762fd305ab6fa8ceb51b88dd6d","id":130753596,"location_subtype":"","month":"2025-08"},{"category":"violent-crime","location_type":"Force","location":{"latitude":"52.082967","street":{"id":1978872,"name":"On or near Chartwell Road"},"longitude":"-0.713591"},"context":"","outcome_status":{"category":"Unable to prosecute suspect","date":"2025-10"},"persistent_id":"bdda1fa715404c93a0c8317357a51a114896ef33f6096c1c122574c7e430a781","id":130753609,"location_subtype":"","month":"2025-08"},{"category":"violent-crime","location_type":"Force","location":{"latitude":"52.084616","street":{"id":1977801,"name":"On or near Cross Street"},"longitude":"-0.727247"},"context":"","outcome_status":{"category":"Awaiting court outcome","date":"2025-10"},"persistent_id":"c5df75ea2faa8255a9061937ad74d8f23f97a836b4dd9567e4646d29617ba81f","id":130753626,"location_subtype":"","month":"2025-08"},{"category":"violent-crime","location_type":"Force","location":{"latitude":"52.082803","street":{"id":1977273,"name":"On or near Lime Close"},"longitude":"-0.732509"},"context":"","outcome_status":{"category":"Unable to prosecute suspect","date":"2025-09"},"persistent_id":"164d6942e6d552cc4d5d22dd397a78cbff1c8dec871fbdbe63050a955732ac43","id":130753604,"location_subtype":"","month":"2025-08"},{"category":"violent-crime","location_type":"Force","location":{"latitude":"52.087926","street":{"id":1978331,"name":"On or near North Square"},"longitude":"-0.720717"},"context":"","outcome_status":{"category":"Local resolution","date":"2025-09"},"persistent_id":"c342c03139922d04a263cba3978691cb30131f6673c112b6f72e9bdabe6cdb35","id":130753655,"location_subtype":"","month":"2025-08"},{"category":"violent-crime","location_type":"Force","location":{"latitude":"52.081478","street":{"id":1977633,"name":"On or near Whitton Way"},"longitude":"-0.729715"},"context":"","outcome_status":{"category":"Unable to prosecute suspect","date":"2025-08"},"persistent_id":"8a0f6c46db474f3083bf60a68c6b2cea09c39993e5adbb505b76e69301b0a989","id":130753569,"location_subtype":"","month":"2025-08"},{"category":"violent-crime","location_type":"Force","location":{"latitude":"52.081473","street":{"id":1979176,"name":"On or near Lambert Court"},"longitude":"-0.708526"},"context":"","outcome_status":{"category":"Unable to prosecute suspect","date":"2025-08"},"persistent_id":"6164bca4902cef19664e086c17b351f0d45945730121ffefc5d11f094ee14005","id":130753571,"location_subtype":"","month":"2025-08"},{"category":"violent-crime","location_type":"Force","location":{"latitude":"52.086188","street":{"id":1977189,"name":"On or near Dovecote"},"longitude":"-0.729582"},"context":"","outcome_status":{"category":"Unable to prosecute suspect","date":"2025-08"},"persistent_id":"bae1da58d5592d67a4dca93e13813e473c155068b743db794d5b58d588f5386d","id":130753638,"location_subtype":"","month":"2025-08"},{"category":"violent-crime","location_type":"Force","location":{"latitude":"52.079213","street":{"id":1979312,"name":"On or near Hopton Grove"},"longitude":"-0.707409"},"context":"","outcome_status":{"category":"Unable to prosecute suspect","date":"2025-08"},"persistent_id":"94e53600fa8afdda5d40f0219c750f37c5ce4a9b2b7a0b4ac1d61b3c192333fa","id":130753560,"location_subtype":"","month":"2025-08"},{"category":"violent-crime","location_type":"Force","location":{"latitude":"52.082803","street":{"id":1977273,"name":"On or near Lime Close"},"longitude":"-0.732509"},"context":"","outcome_status":{"category":"Investigation complete; no suspect identified","date":"2025-08"},"persistent_id":"1a2bb53d4b8c353931647afce72dcf1ed48b2dd57160b439e59d7c3bc3716c29","id":130753591,"location_subtype":"","month":"2025-08"},{"category":"violent-crime","location_type":"Force","location":{"latitude":"52.082369","street":{"id":1979133,"name":"On or near The Canons"},"longitude":"-0.709916"},"context":"","outcome_status":{"category":"Unable to prosecute suspect","date":"2025-08"},"persistent_id":"742aef0a1c4802a0a4552706dc74e60066c25f27356a71b6f1f9faedcc1fc85f","id":130753599,"location_subtype":"","month":"2025-08"},{"category":"violent-crime","location_type":"Force","location":{"latitude":"52.086188","street":{"id":1977189,"name":"On or near Dovecote"},"longitude":"-0.729582"},"context":"","outcome_status":{"category":"Action to be taken by another organisation","date":"2025-08"},"persistent_id":"37ba19100061d270e933a99da39dd98d72a497b102a258b2d70ec3ad0d364839","id":130753637,"location_subtype":"","month":"2025-08"},{"category":"violent-crime","location_type":"Force","location":{"latitude":"52.082108","street":{"id":1977261,"name":"On or near Cherry Road"},"longitude":"-0.733944"},"context":"","outcome_status":{"category":"Unable to prosecute suspect","date":"2025-08"},"persistent_id":"b8f2dd4def0fa2cda30a8d0f9af06bc41cc2574fd63b18dd304392b50bf825bd","id":130753587,"location_subtype":"","month":"2025-08"},{"category":"violent-crime","location_type":"Force","location":{"latitude":"52.082369","street":{"id":1979133,"name":"On or near The Canons"},"longitude":"-0.709916"},"context":"","outcome_status":{"category":"Unable to prosecute suspect","date":"2025-08"},"persistent_id":"aa62732e6b5f2b18a94f4b9edf2bc79f97bc403e60bbb697876e2be327ef0d6f","id":130753597,"location_subtype":"","month":"2025-08"},{"category":"violent-crime","location_type":"Force","location":{"latitude":"52.086188","street":{"id":1977189,"name":"On or near Dovecote"},"longitude":"-0.729582"},"context":"","outcome_status":{"category":"Action to be taken by another organisation","date":"2025-08"},"persistent_id":"f861d44764cfc047d0f01fc9a5bd058691a7208cf16029e83eac7231ccb5b74c","id":130753636,"location_subtype":"","month":"2025-08"}]