[{"category":"anti-social-behaviour","location_type":"Force","location":{"latitude":"54.954788","street":{"id":1869917,"name":"On or near Supermarket"},"longitude":"-1.726879"},"context":"","outcome_status":null,"persistent_id":"","id":131670749,"location_subtype":"","month":"2025-10"},{"category":"anti-social-behaviour","location_type":"Force","location":{"latitude":"54.958934","street":{"id":1870377,"name":"On or near Linden Road"},"longitude":"-1.710381"},"context":"","outcome_status":null,"persistent_id":"","id":131670988,"location_subtype":"","month":"2025-10"},{"category":"anti-social-behaviour","location_type":"Force","location":{"latitude":"54.953559","street":{"id":1869848,"name":"On or near Sports/recreation Area"},"longitude":"-1.731580"},"context":"","outcome_status":null,"persistent_id":"","id":131671154,"location_subtype":"","month":"2025-10"},{"category":"anti-social-behaviour","location_type":"Force","location":{"latitude":"54.954788","street":{"id":1869917,"name":"On or near Supermarket"},"longitude":"-1.726879"},"context":"","outcome_status":null,"persistent_id":"","id":131671164,"location_subtype":"","month":"2025-10"},{"category":"anti-social-behaviour","location_type":"Force","location":{"latitude":"54.956788","street":{"id":1870035,"name":"On or near Alice Street"},"longitude":"-1.722420"},"context":"","outcome_status":null,"persistent_id":"","id":131671173,"location_subtype":"","month":"2025-10"},{"category":"anti-social-behaviour","location_type":"Force","location":{"latitude":"54.955760","street":{"id":1869992,"name":"On or near Mount Pleasant"},"longitude":"-1.724816"},"context":"","outcome_status":null,"persistent_id":"","id":131671599,"location_subtype":"","month":"2025-10"},{"category":"anti-social-behaviour","location_type":"Force","location":{"latitude":"54.953856","street":{"id":1869890,"name":"On or near Waterloo Street"},"longitude":"-1.729357"},"context":"","outcome_status":null,"persistent_id":"","id":131671616,"location_subtype":"","month":"2025-10"},{"category":"anti-social-behaviour","location_type":"Force","location":{"latitude":"54.954788","street":{"id":1869917,"name":"On or near Supermarket"},"longitude":"-1.726879"},"context":"","outcome_status":null,"persistent_id":"","id":131671632,"location_subtype":"","month":"2025-10"},{"category":"anti-social-behaviour","location_type":"Force","location":{"latitude":"54.954788","street":{"id":1869917,"name":"On or near Supermarket"},"longitude":"-1.726879"},"context":"","outcome_status":null,"persistent_id":"","id":131671883,"location_subtype":"","month":"2025-10"},{"category":"anti-social-behaviour","location_type":"Force","location":{"latitude":"54.954788","street":{"id":1869917,"name":"On or near Supermarket"},"longitude":"-1.726879"},"context":"","outcome_status":null,"persistent_id":"","id":131672101,"location_subtype":"","month":"2025-10"},{"category":"anti-social-behaviour","location_type":"Force","location":{"latitude":"54.954788","street":{"id":1869917,"name":"On or near Supermarket"},"longitude":"-1.726879"},"context":"","outcome_status":null,"persistent_id":"","id":131672104,"location_subtype":"","month":"2025-10"},{"category":"anti-social-behaviour","location_type":"Force","location":{"latitude":"54.954707","street":{"id":1869903,"name":"On or near Back Street"},"longitude":"-1.728274"},"context":"","outcome_status":null,"persistent_id":"","id":131672111,"location_subtype":"","month":"2025-10"},{"category":"anti-social-behaviour","location_type":"Force","location":{"latitude":"54.954707","street":{"id":1869903,"name":"On or near Back Street"},"longitude":"-1.728274"},"context":"","outcome_status":null,"persistent_id":"","id":131666059,"location_subtype":"","month":"2025-10"},{"category":"anti-social-behaviour","location_type":"Force","location":{"latitude":"54.955267","street":{"id":1869966,"name":"On or near Branch Street"},"longitude":"-1.725397"},"context":"","outcome_status":null,"persistent_id":"","id":131666061,"location_subtype":"","month":"2025-10"},{"category":"anti-social-behaviour","location_type":"Force","location":{"latitude":"54.949333","street":{"id":1869996,"name":"On or near Wasdale Crescent"},"longitude":"-1.724298"},"context":"","outcome_status":null,"persistent_id":"","id":131666064,"location_subtype":"","month":"2025-10"},{"category":"anti-social-behaviour","location_type":"Force","location":{"latitude":"54.960779","street":{"id":1870084,"name":"On or near Greenbank"},"longitude":"-1.719332"},"context":"","outcome_status":null,"persistent_id":"","id":131670974,"location_subtype":"","month":"2025-10"},{"category":"anti-social-behaviour","location_type":"Force","location":{"latitude":"54.954826","street":{"id":1870370,"name":"On or near Berryhill Close"},"longitude":"-1.709942"},"context":"","outcome_status":null,"persistent_id":"","id":131665464,"location_subtype":"","month":"2025-10"},{"category":"anti-social-behaviour","location_type":"Force","location":{"latitude":"54.964289","street":{"id":1870427,"name":"On or near Parking Area"},"longitude":"-1.709780"},"context":"","outcome_status":null,"persistent_id":"","id":131671377,"location_subtype":"","month":"2025-10"},{"category":"anti-social-behaviour","location_type":"Force","location":{"latitude":"54.954707","street":{"id":1869903,"name":"On or near Back Street"},"longitude":"-1.728274"},"context":"","outcome_status":null,"persistent_id":"","id":131666300,"location_subtype":"","month":"2025-10"},{"category":"anti-social-behaviour","location_type":"Force","location":{"latitude":"54.963098","street":{"id":1870333,"name":"On or near Lucy Street"},"longitude":"-1.711663"},"context":"","outcome_status":null,"persistent_id":"","id":131670580,"location_subtype":"","month":"2025-10"},{"category":"anti-social-behaviour","location_type":"Force","location":{"latitude":"54.954788","street":{"id":1869917,"name":"On or near Supermarket"},"longitude":"-1.726879"},"context":"","outcome_status":null,"persistent_id":"","id":131670968,"location_subtype":"","month":"2025-10"},{"category":"anti-social-behaviour","location_type":"Force","location":{"latitude":"54.954788","street":{"id":1869917,"name":"On or near Supermarket"},"longitude":"-1.726879"},"context":"","outcome_status":null,"persistent_id":"","id":131671374,"location_subtype":"","month":"2025-10"},{"category":"anti-social-behaviour","location_type":"Force","location":{"latitude":"54.971154","street":{"id":1869881,"name":"On or near Surtees Haugh"},"longitude":"-1.729210"},"context":"","outcome_status":null,"persistent_id":"","id":131666332,"location_subtype":"","month":"2025-10"},{"category":"anti-social-behaviour","location_type":"Force","location":{"latitude":"54.963548","street":{"id":1870215,"name":"On or near Lawrence Court"},"longitude":"-1.715673"},"context":"","outcome_status":null,"persistent_id":"","id":131666827,"location_subtype":"","month":"2025-10"},{"category":"anti-social-behaviour","location_type":"Force","location":{"latitude":"54.953856","street":{"id":1869890,"name":"On or near Waterloo Street"},"longitude":"-1.729357"},"context":"","outcome_status":null,"persistent_id":"","id":131666070,"location_subtype":"","month":"2025-10"},{"category":"anti-social-behaviour","location_type":"Force","location":{"latitude":"54.965808","street":{"id":1870290,"name":"On or near Tyne Street"},"longitude":"-1.713783"},"context":"","outcome_status":null,"persistent_id":"","id":131668682,"location_subtype":"","month":"2025-10"},{"category":"anti-social-behaviour","location_type":"Force","location":{"latitude":"54.956415","street":{"id":1869899,"name":"On or near Beaumont Court"},"longitude":"-1.728716"},"context":"","outcome_status":null,"persistent_id":"","id":131669126,"location_subtype":"","month":"2025-10"},{"category":"anti-social-behaviour","location_type":"Force","location":{"latitude":"54.966031","street":{"id":1870200,"name":"On or near Petrol Station"},"longitude":"-1.715342"},"context":"","outcome_status":null,"persistent_id":"","id":131669133,"location_subtype":"","month":"2025-10"},{"category":"anti-social-behaviour","location_type":"Force","location":{"latitude":"54.954788","street":{"id":1869917,"name":"On or near Supermarket"},"longitude":"-1.726879"},"context":"","outcome_status":null,"persistent_id":"","id":131667526,"location_subtype":"","month":"2025-10"},{"category":"anti-social-behaviour","location_type":"Force","location":{"latitude":"54.955809","street":{"id":1870103,"name":"On or near Simonside Road"},"longitude":"-1.719023"},"context":"","outcome_status":null,"persistent_id":"","id":131667555,"location_subtype":"","month":"2025-10"},{"category":"anti-social-behaviour","location_type":"Force","location":{"latitude":"54.965808","street":{"id":1870290,"name":"On or near Tyne Street"},"longitude":"-1.713783"},"context":"","outcome_status":null,"persistent_id":"","id":131667567,"location_subtype":"","month":"2025-10"},{"category":"anti-social-behaviour","location_type":"Force","location":{"latitude":"54.965031","street":{"id":1870325,"name":"On or near Shopping Area"},"longitude":"-1.712133"},"context":"","outcome_status":null,"persistent_id":"","id":131667831,"location_subtype":"","month":"2025-10"},{"category":"anti-social-behaviour","location_type":"Force","location":{"latitude":"54.955812","street":{"id":1870330,"name":"On or near Lime Street"},"longitude":"-1.712371"},"context":"","outcome_status":null,"persistent_id":"","id":131669426,"location_subtype":"","month":"2025-10"},{"category":"anti-social-behaviour","location_type":"Force","location":{"latitude":"54.965808","street":{"id":1870290,"name":"On or near Tyne Street"},"longitude":"-1.713783"},"context":"","outcome_status":null,"persistent_id":"","id":131669431,"location_subtype":"","month":"2025-10"},{"category":"anti-social-behaviour","location_type":"Force","location":{"latitude":"54.953856","street":{"id":1869890,"name":"On or near Waterloo Street"},"longitude":"-1.729357"},"context":"","outcome_status":null,"persistent_id":"","id":131668087,"location_subtype":"","month":"2025-10"},{"category":"anti-social-behaviour","location_type":"Force","location":{"latitude":"54.950342","street":{"id":1869884,"name":"On or near Lyndhurst Close"},"longitude":"-1.729256"},"context":"","outcome_status":null,"persistent_id":"","id":131668101,"location_subtype":"","month":"2025-10"},{"category":"anti-social-behaviour","location_type":"Force","location":{"latitude":"54.965808","street":{"id":1870290,"name":"On or near Tyne Street"},"longitude":"-1.713783"},"context":"","outcome_status":null,"persistent_id":"","id":131668106,"location_subtype":"","month":"2025-10"},{"category":"anti-social-behaviour","location_type":"Force","location":{"latitude":"54.955809","street":{"id":1870103,"name":"On or near Simonside Road"},"longitude":"-1.719023"},"context":"","outcome_status":null,"persistent_id":"","id":131668510,"location_subtype":"","month":"2025-10"},{"category":"anti-social-behaviour","location_type":"Force","location":{"latitude":"54.965031","street":{"id":1870325,"name":"On or near Shopping Area"},"longitude":"-1.712133"},"context":"","outcome_status":null,"persistent_id":"","id":131669626,"location_subtype":"","month":"2025-10"},{"category":"anti-social-behaviour","location_type":"Force","location":{"latitude":"54.954707","street":{"id":1869903,"name":"On or near Back Street"},"longitude":"-1.728274"},"context":"","outcome_status":null,"persistent_id":"","id":131669636,"location_subtype":"","month":"2025-10"},{"category":"anti-social-behaviour","location_type":"Force","location":{"latitude":"54.954707","street":{"id":1869903,"name":"On or near Back Street"},"longitude":"-1.728274"},"context":"","outcome_status":null,"persistent_id":"","id":131669881,"location_subtype":"","month":"2025-10"},{"category":"anti-social-behaviour","location_type":"Force","location":{"latitude":"54.954788","street":{"id":1869917,"name":"On or near Supermarket"},"longitude":"-1.726879"},"context":"","outcome_status":null,"persistent_id":"","id":131670386,"location_subtype":"","month":"2025-10"},{"category":"anti-social-behaviour","location_type":"Force","location":{"latitude":"54.955892","street":{"id":1869882,"name":"On or near Petrol Station"},"longitude":"-1.730014"},"context":"","outcome_status":null,"persistent_id":"","id":131670389,"location_subtype":"","month":"2025-10"},{"category":"burglary","location_type":"Force","location":{"latitude":"54.961435","street":{"id":1870194,"name":"On or near Ann Street"},"longitude":"-1.715345"},"context":"","outcome_status":{"category":"Awaiting court outcome","date":"2025-10"},"persistent_id":"a91f26af704b873e5c05c9e1c69f6b776fb4564d98513c58b7670e178f004b69","id":131647692,"location_subtype":"","month":"2025-10"},{"category":"burglary","location_type":"Force","location":{"latitude":"54.952460","street":{"id":1869975,"name":"On or near Derwent View"},"longitude":"-1.724043"},"context":"","outcome_status":{"category":"Investigation complete; no suspect identified","date":"2025-11"},"persistent_id":"a3a1e867c80336e389db96f4988b9b316048179bd2a969f7f4cdf43261202bc6","id":131651242,"location_subtype":"","month":"2025-10"},{"category":"criminal-damage-arson","location_type":"Force","location":{"latitude":"54.955892","street":{"id":1869882,"name":"On or near Petrol Station"},"longitude":"-1.730014"},"context":"","outcome_status":{"category":"Under investigation","date":"2025-10"},"persistent_id":"256b07cac51238ea5f3bed7233d487f62a4143de9a017db55b5a1805916fde33","id":131642900,"location_subtype":"","month":"2025-10"},{"category":"criminal-damage-arson","location_type":"Force","location":{"latitude":"54.954707","street":{"id":1869903,"name":"On or near Back Street"},"longitude":"-1.728274"},"context":"","outcome_status":{"category":"Investigation complete; no suspect identified","date":"2025-10"},"persistent_id":"6c225de4c9951e68c151cd9be56a90c812880705723b025079986ed2ab3dcfbb","id":131654920,"location_subtype":"","month":"2025-10"},{"category":"criminal-damage-arson","location_type":"Force","location":{"latitude":"54.954707","street":{"id":1869903,"name":"On or near Back Street"},"longitude":"-1.728274"},"context":"","outcome_status":{"category":"Investigation complete; no suspect identified","date":"2025-11"},"persistent_id":"592982af45af4afd2e9ee36b3294aa77b1a85358cad0118b06187bea3cacbb3c","id":131664548,"location_subtype":"","month":"2025-10"},{"category":"criminal-damage-arson","location_type":"Force","location":{"latitude":"54.970051","street":{"id":1869806,"name":"On or near Storey Lane"},"longitude":"-1.734263"},"context":"","outcome_status":{"category":"Investigation complete; no suspect identified","date":"2025-10"},"persistent_id":"9dd5cc103cc331b6f312472578f28fc650440141c7c106c3dd12b418cf62e97c","id":131641720,"location_subtype":"","month":"2025-10"},{"category":"criminal-damage-arson","location_type":"Force","location":{"latitude":"54.964289","street":{"id":1870427,"name":"On or near Parking Area"},"longitude":"-1.709780"},"context":"","outcome_status":{"category":"Investigation complete; no suspect identified","date":"2025-11"},"persistent_id":"d2edb5d1191786d2f02c3d7837102b3b5da9e52e0a121f6f988f8a5fdde360f2","id":131664012,"location_subtype":"","month":"2025-10"},{"category":"criminal-damage-arson","location_type":"Force","location":{"latitude":"54.954707","street":{"id":1869903,"name":"On or near Back Street"},"longitude":"-1.728274"},"context":"","outcome_status":{"category":"Investigation complete; no suspect identified","date":"2025-10"},"persistent_id":"49069bde3a2d8b55e5b9b16964e679fa50895ce1a4a41e6c1bc0525e112e5c4c","id":131651121,"location_subtype":"","month":"2025-10"},{"category":"criminal-damage-arson","location_type":"Force","location":{"latitude":"54.954788","street":{"id":1869917,"name":"On or near Supermarket"},"longitude":"-1.726879"},"context":"","outcome_status":{"category":"Investigation complete; no suspect identified","date":"2025-10"},"persistent_id":"73aed341c09e56bd2a9a3c95f6e6782fb6f3c6c1518041ee4e249e148c2f0938","id":131650495,"location_subtype":"","month":"2025-10"},{"category":"criminal-damage-arson","location_type":"Force","location":{"latitude":"54.949959","street":{"id":1870000,"name":"On or near Windermere Crescent"},"longitude":"-1.722904"},"context":"","outcome_status":{"category":"Investigation complete; no suspect identified","date":"2025-10"},"persistent_id":"8b4e212379c450f22841a27ffc022874c1d82473634e6a95248fab04ee3a83c9","id":131650339,"location_subtype":"","month":"2025-10"},{"category":"criminal-damage-arson","location_type":"Force","location":{"latitude":"54.955826","street":{"id":1870356,"name":"On or near Hadrian Gardens"},"longitude":"-1.710918"},"context":"","outcome_status":{"category":"Investigation complete; no suspect identified","date":"2025-10"},"persistent_id":"caaae3217ee4043494a7510e87df0d96532745077cd97cdd726a508df3112db9","id":131645546,"location_subtype":"","month":"2025-10"},{"category":"criminal-damage-arson","location_type":"Force","location":{"latitude":"54.956788","street":{"id":1870035,"name":"On or near Alice Street"},"longitude":"-1.722420"},"context":"","outcome_status":{"category":"Investigation complete; no suspect identified","date":"2025-10"},"persistent_id":"c1f4c1f123499bf72a06e2256bc8fdc9501f7fd52f6327c30ed55a2dd45b1ced","id":131644585,"location_subtype":"","month":"2025-10"},{"category":"criminal-damage-arson","location_type":"Force","location":{"latitude":"54.959791","street":{"id":1870478,"name":"On or near Shibdon Crescent"},"longitude":"-1.707720"},"context":"","outcome_status":{"category":"Investigation complete; no suspect identified","date":"2025-10"},"persistent_id":"14e4e54847202e6a4cde9a218829da4283ba13149536c87db30a21b017cb1859","id":131643576,"location_subtype":"","month":"2025-10"},{"category":"criminal-damage-arson","location_type":"Force","location":{"latitude":"54.954516","street":{"id":1870080,"name":"On or near Parkside Avenue"},"longitude":"-1.719531"},"context":"","outcome_status":{"category":"Investigation complete; no suspect identified","date":"2025-10"},"persistent_id":"798241630937eab27658f365b2f481a062fd3e27bbae28d2f52d896a1a48d031","id":131642330,"location_subtype":"","month":"2025-10"},{"category":"criminal-damage-arson","location_type":"Force","location":{"latitude":"54.963910","street":{"id":1870435,"name":"On or near Supermarket"},"longitude":"-1.709439"},"context":"","outcome_status":{"category":"Investigation complete; no suspect identified","date":"2026-01"},"persistent_id":"ee81b7ac0d055b5fedc6f578731083d0c70367dad79524a7000dcbb272fbdccf","id":131664195,"location_subtype":"","month":"2025-10"},{"category":"criminal-damage-arson","location_type":"Force","location":{"latitude":"54.955826","street":{"id":1870356,"name":"On or near Hadrian Gardens"},"longitude":"-1.710918"},"context":"","outcome_status":{"category":"Investigation complete; no suspect identified","date":"2025-10"},"persistent_id":"f198442512e738aeda4331d173e31412f8dd98234e0cdc67f801910d0608ed27","id":131639387,"location_subtype":"","month":"2025-10"},{"category":"criminal-damage-arson","location_type":"Force","location":{"latitude":"54.958934","street":{"id":1870377,"name":"On or near Linden Road"},"longitude":"-1.710381"},"context":"","outcome_status":{"category":"Under investigation","date":"2025-10"},"persistent_id":"324bc6876b7d94ad0a6575ca74dc154e227ad6e05280365feedc638d93ce5c48","id":131650387,"location_subtype":"","month":"2025-10"},{"category":"criminal-damage-arson","location_type":"Force","location":{"latitude":"54.959791","street":{"id":1870478,"name":"On or near Shibdon Crescent"},"longitude":"-1.707720"},"context":"","outcome_status":{"category":"Under investigation","date":"2025-10"},"persistent_id":"1eb98f0086811acfa661d52ae7a3aa011e212d8be321d794ca1fb100aa76ab5e","id":131651402,"location_subtype":"","month":"2025-10"},{"category":"criminal-damage-arson","location_type":"Force","location":{"latitude":"54.957633","street":{"id":1870381,"name":"On or near Ladywell Road"},"longitude":"-1.711015"},"context":"","outcome_status":{"category":"Investigation complete; no suspect identified","date":"2025-10"},"persistent_id":"f5e8343175fc1c857e3974519c6e40fb40af48a7a4a6391219a588b81b0da58e","id":131659829,"location_subtype":"","month":"2025-10"},{"category":"criminal-damage-arson","location_type":"Force","location":{"latitude":"54.958807","street":{"id":1869828,"name":"On or near Frances Street"},"longitude":"-1.733228"},"context":"","outcome_status":{"category":"Under investigation","date":"2025-10"},"persistent_id":"368749ef11348154965c2b5312660437686c79ebe9d00343bf6afbe58e89d116","id":131657072,"location_subtype":"","month":"2025-10"},{"category":"criminal-damage-arson","location_type":"Force","location":{"latitude":"54.954981","street":{"id":1869814,"name":"On or near Milner Crescent"},"longitude":"-1.734550"},"context":"","outcome_status":{"category":"Under investigation","date":"2025-10"},"persistent_id":"2baa442ead3b783e3887ad9978df6401cfe2ef1f61d04ac41c23317e2834f505","id":131638022,"location_subtype":"","month":"2025-10"},{"category":"drugs","location_type":"Force","location":{"latitude":"54.954984","street":{"id":1870326,"name":"On or near Greenrigg"},"longitude":"-1.712002"},"context":"","outcome_status":{"category":"Under investigation","date":"2025-10"},"persistent_id":"1124b1c2a6467603edcfca86efac0562e38c8e6962a400a2bc60a02ff34afb56","id":131633691,"location_subtype":"","month":"2025-10"},{"category":"drugs","location_type":"Force","location":{"latitude":"54.959791","street":{"id":1870478,"name":"On or near Shibdon Crescent"},"longitude":"-1.707720"},"context":"","outcome_status":{"category":"Under investigation","date":"2025-10"},"persistent_id":"5ec90c2968eeccc272ee262e39d29e709cb863dee420977e2c1bdff10561a1f9","id":131645006,"location_subtype":"","month":"2025-10"},{"category":"other-theft","location_type":"Force","location":{"latitude":"54.955826","street":{"id":1870356,"name":"On or near Hadrian Gardens"},"longitude":"-1.710918"},"context":"","outcome_status":{"category":"Investigation complete; no suspect identified","date":"2025-10"},"persistent_id":"bc0d24954523529e46d03763cb88d37d787edd5678f4055bc0736dbc7636e8aa","id":131662005,"location_subtype":"","month":"2025-10"},{"category":"other-theft","location_type":"Force","location":{"latitude":"54.953703","street":{"id":1870046,"name":"On or near Northlands"},"longitude":"-1.721192"},"context":"","outcome_status":{"category":"Investigation complete; no suspect identified","date":"2025-10"},"persistent_id":"e5d7898c9db029683408c505ebf0cb69496b8be732e1c5865ac9d82eb2686757","id":131643808,"location_subtype":"","month":"2025-10"},{"category":"public-order","location_type":"Force","location":{"latitude":"54.954707","street":{"id":1869903,"name":"On or near Back Street"},"longitude":"-1.728274"},"context":"","outcome_status":{"category":"Investigation complete; no suspect identified","date":"2025-11"},"persistent_id":"87c9e7b22671d501cfbe954b2a99a7e7106e6e4f864749dfaf6972a312b4d169","id":131654691,"location_subtype":"","month":"2025-10"},{"category":"public-order","location_type":"Force","location":{"latitude":"54.964455","street":{"id":1870235,"name":"On or near Whitmore Road"},"longitude":"-1.715480"},"context":"","outcome_status":{"category":"Under investigation","date":"2025-10"},"persistent_id":"8a347fc8b0253fdf2070da574830f87873556c9877be81b76e29294de029a035","id":131657273,"location_subtype":"","month":"2025-10"},{"category":"public-order","location_type":"Force","location":{"latitude":"54.953906","street":{"id":1870081,"name":"On or near West Park Gardens"},"longitude":"-1.719770"},"context":"","outcome_status":{"category":"Under investigation","date":"2025-10"},"persistent_id":"75e8b292c2cb72726c8153317a7d9291c943ed0700b9c858f48a26547ba13e58","id":131659878,"location_subtype":"","month":"2025-10"},{"category":"public-order","location_type":"Force","location":{"latitude":"54.954516","street":{"id":1870080,"name":"On or near Parkside Avenue"},"longitude":"-1.719531"},"context":"","outcome_status":{"category":"Under investigation","date":"2025-10"},"persistent_id":"4e7042332ee5a9f8bc4e8b0fa7bcf6f1a53492cb70de3de964cd24a66c4dc899","id":131637478,"location_subtype":"","month":"2025-10"},{"category":"public-order","location_type":"Force","location":{"latitude":"54.949426","street":{"id":1870028,"name":"On or near Spa Well Close"},"longitude":"-1.721518"},"context":"","outcome_status":{"category":"Under investigation","date":"2025-10"},"persistent_id":"e39d1cd8cdf1e9582455c2cc14b79b7c252489530506ba5c1d357cdf80846d1a","id":131646643,"location_subtype":"","month":"2025-10"},{"category":"public-order","location_type":"Force","location":{"latitude":"54.956520","street":{"id":1870396,"name":"On or near East Acres"},"longitude":"-1.707728"},"context":"","outcome_status":{"category":"Under investigation","date":"2025-10"},"persistent_id":"9887ae5c4c9af9e08bb97ce77c87baa05ea0b4feafca53dcdde6712c024fe2b4","id":131651989,"location_subtype":"","month":"2025-10"},{"category":"public-order","location_type":"Force","location":{"latitude":"54.953116","street":{"id":1869912,"name":"On or near Church Street"},"longitude":"-1.727864"},"context":"","outcome_status":{"category":"Investigation complete; no suspect identified","date":"2025-10"},"persistent_id":"b8a29a7486f3525253d5a093909f7e4d3ca616614b841b071b305352f24ccc2e","id":131644578,"location_subtype":"","month":"2025-10"},{"category":"public-order","location_type":"Force","location":{"latitude":"54.950878","street":{"id":1869998,"name":"On or near Ullswater Crescent"},"longitude":"-1.723928"},"context":"","outcome_status":{"category":"Awaiting court outcome","date":"2025-10"},"persistent_id":"e2817a658ce20256cf9f5989d565557dcc036a2978e20e32f38190bc909385d3","id":131648514,"location_subtype":"","month":"2025-10"},{"category":"public-order","location_type":"Force","location":{"latitude":"54.954516","street":{"id":1870080,"name":"On or near Parkside Avenue"},"longitude":"-1.719531"},"context":"","outcome_status":{"category":"Investigation complete; no suspect identified","date":"2025-11"},"persistent_id":"12c137a220a5b0b112eb814b9b2b328b902cd1fcb922190fd7d04c51eb8dd453","id":131665118,"location_subtype":"","month":"2025-10"},{"category":"public-order","location_type":"Force","location":{"latitude":"54.954516","street":{"id":1870080,"name":"On or near Parkside Avenue"},"longitude":"-1.719531"},"context":"","outcome_status":{"category":"Investigation complete; no suspect identified","date":"2025-11"},"persistent_id":"e4a383caa516212e7b3be1b24af5ced4d419de9c73e517a61bbb7098064b0973","id":131660299,"location_subtype":"","month":"2025-10"},{"category":"public-order","location_type":"Force","location":{"latitude":"54.953905","street":{"id":1869926,"name":"On or near Ambrose Court"},"longitude":"-1.727187"},"context":"","outcome_status":{"category":"Investigation complete; no suspect identified","date":"2025-11"},"persistent_id":"3e9ba1e8febbf3f9ef7ab76625938c39aba06f34ac07a0ae54a5f0155e93f7a2","id":131650159,"location_subtype":"","month":"2025-10"},{"category":"shoplifting","location_type":"Force","location":{"latitude":"54.963910","street":{"id":1870435,"name":"On or near Supermarket"},"longitude":"-1.709439"},"context":"","outcome_status":{"category":"Investigation complete; no suspect identified","date":"2025-10"},"persistent_id":"363e922fff2d020963f94b30f7da8753ca6a4b7095dd581c0567352f2a8810df","id":131650222,"location_subtype":"","month":"2025-10"},{"category":"shoplifting","location_type":"Force","location":{"latitude":"54.954788","street":{"id":1869917,"name":"On or near Supermarket"},"longitude":"-1.726879"},"context":"","outcome_status":{"category":"Under investigation","date":"2025-10"},"persistent_id":"aa4691538f0ce1cc3ac0b99bb2f567ca7fd3ca395905c5af3d293885a13fe705","id":131652242,"location_subtype":"","month":"2025-10"},{"category":"shoplifting","location_type":"Force","location":{"latitude":"54.954788","street":{"id":1869917,"name":"On or near Supermarket"},"longitude":"-1.726879"},"context":"","outcome_status":{"category":"Suspect charged as part of another case","date":"2026-01"},"persistent_id":"502d364367ec3c95af8821798a1ca89775c8f070d4447ce58199bb8da08cb019","id":131649076,"location_subtype":"","month":"2025-10"},{"category":"shoplifting","location_type":"Force","location":{"latitude":"54.964289","street":{"id":1870427,"name":"On or near Parking Area"},"longitude":"-1.709780"},"context":"","outcome_status":{"category":"Investigation complete; no suspect identified","date":"2025-10"},"persistent_id":"3e797ad2756e9d0002e3635a1444eb3f8dabe748b307ff732f53767683a4bc74","id":131653377,"location_subtype":"","month":"2025-10"},{"category":"shoplifting","location_type":"Force","location":{"latitude":"54.963910","street":{"id":1870435,"name":"On or near Supermarket"},"longitude":"-1.709439"},"context":"","outcome_status":{"category":"Investigation complete; no suspect identified","date":"2025-10"},"persistent_id":"dea484126418790a435cf93742f5fa3a8916a68fda90a6cf71b4c7a7c45ffa49","id":131660010,"location_subtype":"","month":"2025-10"},{"category":"shoplifting","location_type":"Force","location":{"latitude":"54.954788","street":{"id":1869917,"name":"On or near Supermarket"},"longitude":"-1.726879"},"context":"","outcome_status":{"category":"Suspect charged as part of another case","date":"2026-01"},"persistent_id":"4bf1d849a9acaedc2ca8f5c4812011ff39570942221f32e2102b2f4721251610","id":131649454,"location_subtype":"","month":"2025-10"},{"category":"shoplifting","location_type":"Force","location":{"latitude":"54.954788","street":{"id":1869917,"name":"On or near Supermarket"},"longitude":"-1.726879"},"context":"","outcome_status":{"category":"Under investigation","date":"2025-10"},"persistent_id":"7a964b4587bb0a232d2d9b3f565548f3ba31aca6ae1d850622c820943cc58e01","id":131662674,"location_subtype":"","month":"2025-10"},{"category":"shoplifting","location_type":"Force","location":{"latitude":"54.963910","street":{"id":1870435,"name":"On or near Supermarket"},"longitude":"-1.709439"},"context":"","outcome_status":{"category":"Investigation complete; no suspect identified","date":"2025-10"},"persistent_id":"c552e80bb8654eab4dec69bc84631804f3c1154cfa261c22858f82df15f64b76","id":131653181,"location_subtype":"","month":"2025-10"},{"category":"shoplifting","location_type":"Force","location":{"latitude":"54.954788","street":{"id":1869917,"name":"On or near Supermarket"},"longitude":"-1.726879"},"context":"","outcome_status":{"category":"Investigation complete; no suspect identified","date":"2025-10"},"persistent_id":"b38a2d2efcfded0e474f71551475fdc4007d5fa5387b9ee484411a8496d2cef4","id":131646838,"location_subtype":"","month":"2025-10"},{"category":"shoplifting","location_type":"Force","location":{"latitude":"54.964289","street":{"id":1870427,"name":"On or near Parking Area"},"longitude":"-1.709780"},"context":"","outcome_status":{"category":"Under investigation","date":"2025-10"},"persistent_id":"faf65e3739599c9bcb5a1969bca75263193fd52672c8dca3638af51043d26ab3","id":131664457,"location_subtype":"","month":"2025-10"},{"category":"shoplifting","location_type":"Force","location":{"latitude":"54.963910","street":{"id":1870435,"name":"On or near Supermarket"},"longitude":"-1.709439"},"context":"","outcome_status":{"category":"Investigation complete; no suspect identified","date":"2025-10"},"persistent_id":"d3374482cacccf77d3eeaf6bdec12db1df161f9c2cb521f5cea4a4e15a0170b5","id":131638411,"location_subtype":"","month":"2025-10"},{"category":"shoplifting","location_type":"Force","location":{"latitude":"54.954788","street":{"id":1869917,"name":"On or near Supermarket"},"longitude":"-1.726879"},"context":"","outcome_status":{"category":"Under investigation","date":"2025-10"},"persistent_id":"df61d8a79001d235d6be3f288c3c41feedddefa2374ea8b36b4251d6057442a7","id":131662558,"location_subtype":"","month":"2025-10"},{"category":"shoplifting","location_type":"Force","location":{"latitude":"54.963910","street":{"id":1870435,"name":"On or near Supermarket"},"longitude":"-1.709439"},"context":"","outcome_status":{"category":"Investigation complete; no suspect identified","date":"2025-10"},"persistent_id":"671a7aa2f8d8da4d8500e56ea1a8151e1258e72c1c57f11c4c083db44201f3e1","id":131650228,"location_subtype":"","month":"2025-10"},{"category":"theft-from-the-person","location_type":"Force","location":{"latitude":"54.955787","street":{"id":1870314,"name":"On or near Ash Street"},"longitude":"-1.713308"},"context":"","outcome_status":{"category":"Investigation complete; no suspect identified","date":"2025-10"},"persistent_id":"8bff5cc54b909bee79a026ca90576c5918633127e2fc25709beb5f0ec617be92","id":131633747,"location_subtype":"","month":"2025-10"},{"category":"vehicle-crime","location_type":"Force","location":{"latitude":"54.955910","street":{"id":1869827,"name":"On or near Riding Lea"},"longitude":"-1.731983"},"context":"","outcome_status":{"category":"Investigation complete; no suspect identified","date":"2025-10"},"persistent_id":"7391b36e1ed7cdedcb2e2c4513f1b8b6acca6e29cd4c0d9f1712aeb8df6270ce","id":131659815,"location_subtype":"","month":"2025-10"},{"category":"vehicle-crime","location_type":"Force","location":{"latitude":"54.960584","street":{"id":1869910,"name":"On or near Blackstone Court"},"longitude":"-1.728125"},"context":"","outcome_status":{"category":"Under investigation","date":"2025-10"},"persistent_id":"72e477e17771530f3bbb2527c87708051adaec2f80edcb67810dd2ecc714c547","id":131661304,"location_subtype":"","month":"2025-10"},{"category":"vehicle-crime","location_type":"Force","location":{"latitude":"54.951610","street":{"id":1870034,"name":"On or near Parkland Avenue"},"longitude":"-1.721925"},"context":"","outcome_status":{"category":"Investigation complete; no suspect identified","date":"2025-10"},"persistent_id":"2fdbcc033169d799957c22c7ea82d4b3a26943f1e4736f5d5f31de34aa3ed921","id":131650518,"location_subtype":"","month":"2025-10"},{"category":"vehicle-crime","location_type":"Force","location":{"latitude":"54.960170","street":{"id":1870201,"name":"On or near Edith Avenue"},"longitude":"-1.716181"},"context":"","outcome_status":{"category":"Investigation complete; no suspect identified","date":"2025-10"},"persistent_id":"6b839d643da9ac4a7f660e965e2326aa734f008eb4ae0884ab3d384a3e431c22","id":131662723,"location_subtype":"","month":"2025-10"},{"category":"vehicle-crime","location_type":"Force","location":{"latitude":"54.960170","street":{"id":1870201,"name":"On or near Edith Avenue"},"longitude":"-1.716181"},"context":"","outcome_status":{"category":"Investigation complete; no suspect identified","date":"2025-10"},"persistent_id":"2e1b5140fbacce87910287c24c6dd31ac3a3c7acc064f657ef0a9be8f532225b","id":131661590,"location_subtype":"","month":"2025-10"},{"category":"vehicle-crime","location_type":"Force","location":{"latitude":"54.953848","street":{"id":1869823,"name":"On or near The Close"},"longitude":"-1.733917"},"context":"","outcome_status":{"category":"Investigation complete; no suspect identified","date":"2025-11"},"persistent_id":"164bb2eda5b3530b5c9ca080340de29f1a4e51f3c0eb228751e367d550c78635","id":131660678,"location_subtype":"","month":"2025-10"},{"category":"vehicle-crime","location_type":"Force","location":{"latitude":"54.960584","street":{"id":1869910,"name":"On or near Blackstone Court"},"longitude":"-1.728125"},"context":"","outcome_status":{"category":"Under investigation","date":"2025-10"},"persistent_id":"9661c62514800fa0c7079a44e5ab7b3f165e4bd08d6183a28a5fcc1fecedcaf8","id":131661762,"location_subtype":"","month":"2025-10"},{"category":"violent-crime","location_type":"Force","location":{"latitude":"54.957496","street":{"id":1869857,"name":"On or near Lily Close"},"longitude":"-1.729926"},"context":"","outcome_status":{"category":"Under investigation","date":"2025-10"},"persistent_id":"c26ce93eb4e5d780b83976dee848bd70b95cfc789581c87c51fa9650b3b41a75","id":131655295,"location_subtype":"","month":"2025-10"},{"category":"violent-crime","location_type":"Force","location":{"latitude":"54.960423","street":{"id":1870189,"name":"On or near Ethel Avenue"},"longitude":"-1.716664"},"context":"","outcome_status":{"category":"Under investigation","date":"2025-10"},"persistent_id":"6267e806e5b218140ab2160641fb8cd9a2c306930d331e203a8dc74e951788f8","id":131654107,"location_subtype":"","month":"2025-10"},{"category":"violent-crime","location_type":"Force","location":{"latitude":"54.959577","street":{"id":1870418,"name":"On or near Laurel Road"},"longitude":"-1.708393"},"context":"","outcome_status":{"category":"Investigation complete; no suspect identified","date":"2025-10"},"persistent_id":"bf719652642ed5fd54525afed6cd05112135dc0d76edb6dfc9aa4db4d800b653","id":131652346,"location_subtype":"","month":"2025-10"},{"category":"violent-crime","location_type":"Force","location":{"latitude":"54.959695","street":{"id":1870328,"name":"On or near Maple Road"},"longitude":"-1.712874"},"context":"","outcome_status":{"category":"Under investigation","date":"2025-10"},"persistent_id":"5a54039e752e3ffb460ddfbc87f9c4a5ec71c2b46431644493e85c3e794a2ec5","id":131635471,"location_subtype":"","month":"2025-10"},{"category":"violent-crime","location_type":"Force","location":{"latitude":"54.959695","street":{"id":1870328,"name":"On or near Maple Road"},"longitude":"-1.712874"},"context":"","outcome_status":{"category":"Under investigation","date":"2025-10"},"persistent_id":"da4203d910f7c8904d937109782152c9b0a01c25f7a8f195ad872af436c9271a","id":131635497,"location_subtype":"","month":"2025-10"},{"category":"violent-crime","location_type":"Force","location":{"latitude":"54.953906","street":{"id":1870081,"name":"On or near West Park Gardens"},"longitude":"-1.719770"},"context":"","outcome_status":{"category":"Under investigation","date":"2025-10"},"persistent_id":"edb8e19ffd6bf50e29989c1977ff7d8bd2016d149d37be8ad33df1816b763946","id":131637542,"location_subtype":"","month":"2025-10"},{"category":"violent-crime","location_type":"Force","location":{"latitude":"54.957848","street":{"id":1870631,"name":"On or near The Avenue"},"longitude":"-1.703252"},"context":"","outcome_status":{"category":"Under investigation","date":"2025-10"},"persistent_id":"d4676d88d239c500ec6ea8c9a7271cd8fa54c2b0305a8e11dcff626796ee6823","id":131651735,"location_subtype":"","month":"2025-10"},{"category":"violent-crime","location_type":"Force","location":{"latitude":"54.960366","street":{"id":1869942,"name":"On or near Back Lane"},"longitude":"-1.723379"},"context":"","outcome_status":{"category":"Under investigation","date":"2025-10"},"persistent_id":"d55876ca639b2c202cd21decfc6995ce05ce07a85c153aa583cae84d14126275","id":131651957,"location_subtype":"","month":"2025-10"},{"category":"violent-crime","location_type":"Force","location":{"latitude":"54.967864","street":{"id":1870582,"name":"On or near Factory Road"},"longitude":"-1.705568"},"context":"","outcome_status":{"category":"Under investigation","date":"2025-10"},"persistent_id":"fded8ba3c760c759f883a91e921da11d675e9fda1525e012ed62b40fcb6a35b3","id":131664568,"location_subtype":"","month":"2025-10"},{"category":"violent-crime","location_type":"Force","location":{"latitude":"54.948748","street":{"id":1869888,"name":"On or near Broom Close"},"longitude":"-1.727565"},"context":"","outcome_status":{"category":"Under investigation","date":"2025-10"},"persistent_id":"69d7523959a1ebc7f2be7b0db3ee1f54f9b6022e676a14f3681c789d117f3117","id":131664888,"location_subtype":"","month":"2025-10"},{"category":"violent-crime","location_type":"Force","location":{"latitude":"54.954788","street":{"id":1869917,"name":"On or near Supermarket"},"longitude":"-1.726879"},"context":"","outcome_status":{"category":"Under investigation","date":"2025-10"},"persistent_id":"eaf64129bb121288db8a833379f4edb45578e9948b79eb714ec1f671ee15d1ae","id":131664241,"location_subtype":"","month":"2025-10"},{"category":"violent-crime","location_type":"Force","location":{"latitude":"54.953906","street":{"id":1870081,"name":"On or near West Park Gardens"},"longitude":"-1.719770"},"context":"","outcome_status":{"category":"Under investigation","date":"2025-10"},"persistent_id":"772e831cdf621f7ab974084839bec33e3bc638fb5462c711b774b065a0bbc495","id":131664229,"location_subtype":"","month":"2025-10"},{"category":"violent-crime","location_type":"Force","location":{"latitude":"54.956844","street":{"id":1869853,"name":"On or near Mosspool"},"longitude":"-1.731586"},"context":"","outcome_status":{"category":"Under investigation","date":"2025-10"},"persistent_id":"e4f2de512e112cac6cfb1ae3223cdb053281f1e0a3497696b6ae2bccc25cd1be","id":131663450,"location_subtype":"","month":"2025-10"},{"category":"violent-crime","location_type":"Force","location":{"latitude":"54.954516","street":{"id":1870080,"name":"On or near Parkside Avenue"},"longitude":"-1.719531"},"context":"","outcome_status":{"category":"Under investigation","date":"2025-10"},"persistent_id":"de449cde362bd4937949d910dbaf98f9b3ecac962903d2fb44d7290fa23b8d27","id":131663310,"location_subtype":"","month":"2025-10"},{"category":"violent-crime","location_type":"Force","location":{"latitude":"54.954984","street":{"id":1870326,"name":"On or near Greenrigg"},"longitude":"-1.712002"},"context":"","outcome_status":{"category":"Investigation complete; no suspect identified","date":"2025-10"},"persistent_id":"028773d0fd686844aae59df6fb4b47648cc51c02dfc7bd89953b652ed5fab4eb","id":131644310,"location_subtype":"","month":"2025-10"},{"category":"violent-crime","location_type":"Force","location":{"latitude":"54.959665","street":{"id":1869856,"name":"On or near Valley Crescent"},"longitude":"-1.731021"},"context":"","outcome_status":{"category":"Under investigation","date":"2025-10"},"persistent_id":"6d18ba6e5800434e0f12212c680356cc3f4e939b374f06be72afa224b6f644a6","id":131662694,"location_subtype":"","month":"2025-10"},{"category":"violent-crime","location_type":"Force","location":{"latitude":"54.953703","street":{"id":1870046,"name":"On or near Northlands"},"longitude":"-1.721192"},"context":"","outcome_status":{"category":"Investigation complete; no suspect identified","date":"2025-10"},"persistent_id":"baadb8ef9632c86c58019f7e7b66e913611a1db9d9f62f684f6b331e8a2292ce","id":131645601,"location_subtype":"","month":"2025-10"},{"category":"violent-crime","location_type":"Force","location":{"latitude":"54.959793","street":{"id":1869885,"name":"On or near Crocus Close"},"longitude":"-1.728240"},"context":"","outcome_status":{"category":"Under investigation","date":"2025-10"},"persistent_id":"8a242811f3621ade6c75db7ac133570c812b6219571bf6e066a2620f0c64fa91","id":131662561,"location_subtype":"","month":"2025-10"},{"category":"violent-crime","location_type":"Force","location":{"latitude":"54.950134","street":{"id":1869967,"name":"On or near Coniston Crescent"},"longitude":"-1.724699"},"context":"","outcome_status":{"category":"Under investigation","date":"2025-10"},"persistent_id":"120637bf8ffbfba9443264064af92d194a361932a8574384385341f9ffd9c1d3","id":131637899,"location_subtype":"","month":"2025-10"},{"category":"violent-crime","location_type":"Force","location":{"latitude":"54.956788","street":{"id":1870035,"name":"On or near Alice Street"},"longitude":"-1.722420"},"context":"","outcome_status":{"category":"Under investigation","date":"2025-10"},"persistent_id":"ae415ba14626dd3aff9227be62147e66258783e0e8f839dc487bf09eebcb7fa8","id":131662225,"location_subtype":"","month":"2025-10"},{"category":"violent-crime","location_type":"Force","location":{"latitude":"54.949986","street":{"id":1869932,"name":"On or near Buttermere Crescent"},"longitude":"-1.726651"},"context":"","outcome_status":{"category":"Investigation complete; no suspect identified","date":"2025-10"},"persistent_id":"e3fa9670340d0f178d3d3d897012e0620671751fdf434b8faf1354286fc9b064","id":131651053,"location_subtype":"","month":"2025-10"},{"category":"violent-crime","location_type":"Force","location":{"latitude":"54.955260","street":{"id":1869952,"name":"On or near Parking Area"},"longitude":"-1.726334"},"context":"","outcome_status":{"category":"Under investigation","date":"2025-10"},"persistent_id":"2a67bf5ad0a7d9cd64036d0160fbaafaefb0ac765c222672926fbe1eddffb630","id":131640215,"location_subtype":"","month":"2025-10"},{"category":"violent-crime","location_type":"Force","location":{"latitude":"54.964455","street":{"id":1870235,"name":"On or near Whitmore Road"},"longitude":"-1.715480"},"context":"","outcome_status":{"category":"Under investigation","date":"2025-10"},"persistent_id":"2d5435e6ecb63ad99e97f81f63eab5af7ad775c8d7eb2db5ba3aefd9bf4b7998","id":131659160,"location_subtype":"","month":"2025-10"},{"category":"violent-crime","location_type":"Force","location":{"latitude":"54.955376","street":{"id":1869867,"name":"On or near Brockwell Close"},"longitude":"-1.729863"},"context":"","outcome_status":{"category":"Under investigation","date":"2025-10"},"persistent_id":"6b22d95c4a081bcc85f07087cc8a9d3d99833de5cc29ebf17e74df003cb583fa","id":131649748,"location_subtype":"","month":"2025-10"},{"category":"violent-crime","location_type":"Force","location":{"latitude":"54.956415","street":{"id":1869899,"name":"On or near Beaumont Court"},"longitude":"-1.728716"},"context":"","outcome_status":{"category":"Under investigation","date":"2025-10"},"persistent_id":"c9cde31d35fc4a6fdb7aaf120c818c3849efe0fc1cd72eb07a55578d53119eaa","id":131651297,"location_subtype":"","month":"2025-10"},{"category":"violent-crime","location_type":"Force","location":{"latitude":"54.965031","street":{"id":1870325,"name":"On or near Shopping Area"},"longitude":"-1.712133"},"context":"","outcome_status":{"category":"Investigation complete; no suspect identified","date":"2025-11"},"persistent_id":"fadb88884e08594dcfc23b87573032ab28c7bbc252e33ff99ddf52fe0ccfc4e1","id":131653565,"location_subtype":"","month":"2025-10"},{"category":"violent-crime","location_type":"Force","location":{"latitude":"54.964455","street":{"id":1870235,"name":"On or near Whitmore Road"},"longitude":"-1.715480"},"context":"","outcome_status":{"category":"Under investigation","date":"2025-10"},"persistent_id":"f08d22e5905b0ccc8af40be282f3dbfd0dea1d3680009b6b5212d17bfff362e5","id":131659068,"location_subtype":"","month":"2025-10"},{"category":"violent-crime","location_type":"Force","location":{"latitude":"54.956520","street":{"id":1870396,"name":"On or near East Acres"},"longitude":"-1.707728"},"context":"","outcome_status":{"category":"Investigation complete; no suspect identified","date":"2025-11"},"persistent_id":"055c41b28d9ceca57f22b01ad12312c21b9a009e327c4375e3824b21fa586370","id":131662541,"location_subtype":"","month":"2025-10"},{"category":"violent-crime","location_type":"Force","location":{"latitude":"54.955826","street":{"id":1870356,"name":"On or near Hadrian Gardens"},"longitude":"-1.710918"},"context":"","outcome_status":{"category":"Under investigation","date":"2025-10"},"persistent_id":"3704b4bb4c165e6127d87e629f2199e89918586607bca176cfa5df7e2718676b","id":131656864,"location_subtype":"","month":"2025-10"},{"category":"violent-crime","location_type":"Force","location":{"latitude":"54.955826","street":{"id":1870356,"name":"On or near Hadrian Gardens"},"longitude":"-1.710918"},"context":"","outcome_status":{"category":"Under investigation","date":"2025-10"},"persistent_id":"db64bb1d51a74405bd3b5079b3a93efbdb2d124c841c8c9832dd8351f282c5a7","id":131656857,"location_subtype":"","month":"2025-10"},{"category":"violent-crime","location_type":"Force","location":{"latitude":"54.960366","street":{"id":1869942,"name":"On or near Back Lane"},"longitude":"-1.723379"},"context":"","outcome_status":{"category":"Under investigation","date":"2025-10"},"persistent_id":"de177d441ab4bc269d3898094c1e9ad6715a1bae2262caaf49f41a829eafb374","id":131656599,"location_subtype":"","month":"2025-10"},{"category":"violent-crime","location_type":"Force","location":{"latitude":"54.955809","street":{"id":1870103,"name":"On or near Simonside Road"},"longitude":"-1.719023"},"context":"","outcome_status":{"category":"Under investigation","date":"2025-10"},"persistent_id":"a530f0bfb25f6960e97b6785c1de68a08d54d303ea9e58216cde8af3c294dd4a","id":131655052,"location_subtype":"","month":"2025-10"},{"category":"violent-crime","location_type":"Force","location":{"latitude":"54.964455","street":{"id":1870235,"name":"On or near Whitmore Road"},"longitude":"-1.715480"},"context":"","outcome_status":{"category":"Under investigation","date":"2025-10"},"persistent_id":"b08b4ec63124ea38733f1adf274e83d3d1ef383f8d01fc03f0eb835527999ce9","id":131655948,"location_subtype":"","month":"2025-10"},{"category":"violent-crime","location_type":"Force","location":{"latitude":"54.953849","street":{"id":1869950,"name":"On or near Knowledge Hill"},"longitude":"-1.726313"},"context":"","outcome_status":{"category":"Under investigation","date":"2025-10"},"persistent_id":"5697da73f6b6abee8192f66735e35d2047e5132e21f3ebbd70f919c68fad6b4f","id":131659537,"location_subtype":"","month":"2025-10"},{"category":"violent-crime","location_type":"Force","location":{"latitude":"54.959577","street":{"id":1870418,"name":"On or near Laurel Road"},"longitude":"-1.708393"},"context":"","outcome_status":{"category":"Under investigation","date":"2025-10"},"persistent_id":"439929fa98c8b051c3391ba4920e91bfcb831c4eaadb5051603099e4f7a0c991","id":131661507,"location_subtype":"","month":"2025-10"},{"category":"violent-crime","location_type":"Force","location":{"latitude":"54.956844","street":{"id":1869853,"name":"On or near Mosspool"},"longitude":"-1.731586"},"context":"","outcome_status":{"category":"Investigation complete; no suspect identified","date":"2025-12"},"persistent_id":"ddc5146fc94e975495567c94214863717af80d8e5b594bdb9919e988a9af047d","id":131662002,"location_subtype":"","month":"2025-10"},{"category":"violent-crime","location_type":"Force","location":{"latitude":"54.954707","street":{"id":1869903,"name":"On or near Back Street"},"longitude":"-1.728274"},"context":"","outcome_status":{"category":"Investigation complete; no suspect identified","date":"2025-11"},"persistent_id":"1984527e9f342cfbb3182e8ddf0316957af661f31825f7947057e5873d821e03","id":131640361,"location_subtype":"","month":"2025-10"},{"category":"violent-crime","location_type":"Force","location":{"latitude":"54.953905","street":{"id":1869926,"name":"On or near Ambrose Court"},"longitude":"-1.727187"},"context":"","outcome_status":{"category":"Under investigation","date":"2025-10"},"persistent_id":"1b1f5ebc21e69537d5f778572fb01f28556d2986f18aac442d6a02e8a7e861b8","id":131655500,"location_subtype":"","month":"2025-10"},{"category":"violent-crime","location_type":"Force","location":{"latitude":"54.956452","street":{"id":1870159,"name":"On or near Haggerstone Mews"},"longitude":"-1.717254"},"context":"","outcome_status":{"category":"Under investigation","date":"2025-10"},"persistent_id":"6dc7c6287adc5c18fbe717e6658d892e50c4294d5a6e25845f312a5bb0f7c186","id":131655460,"location_subtype":"","month":"2025-10"},{"category":"violent-crime","location_type":"Force","location":{"latitude":"54.953703","street":{"id":1870046,"name":"On or near Northlands"},"longitude":"-1.721192"},"context":"","outcome_status":{"category":"Under investigation","date":"2025-10"},"persistent_id":"be7e5ff3fac1cfe1792a881a78f5ba86773ca36dc9b60ee5b30d24e4f81dcf25","id":131643252,"location_subtype":"","month":"2025-10"},{"category":"violent-crime","location_type":"Force","location":{"latitude":"54.949582","street":{"id":1870020,"name":"On or near Rydal Crescent"},"longitude":"-1.722938"},"context":"","outcome_status":{"category":"Under investigation","date":"2025-10"},"persistent_id":"55cb96a46d70694ba0d4cf866523e638f4ffb5c0dcaf17365bc0e1d8e1ab8def","id":131644113,"location_subtype":"","month":"2025-10"},{"category":"violent-crime","location_type":"Force","location":{"latitude":"54.954826","street":{"id":1870370,"name":"On or near Berryhill Close"},"longitude":"-1.709942"},"context":"","outcome_status":{"category":"Under investigation","date":"2025-10"},"persistent_id":"b81897e791eeafc4a3870dee38e197d0e2a959a272d7e006526d1256b43ef82c","id":131647027,"location_subtype":"","month":"2025-10"},{"category":"violent-crime","location_type":"Force","location":{"latitude":"54.951030","street":{"id":1870224,"name":"On or near Wagtail Close"},"longitude":"-1.715606"},"context":"","outcome_status":{"category":"Investigation complete; no suspect identified","date":"2025-11"},"persistent_id":"f8dae7f3a07714a337e62818f4cf835203b1723e5b2e8c2f6e3e959969d8bf0a","id":131647094,"location_subtype":"","month":"2025-10"},{"category":"violent-crime","location_type":"Force","location":{"latitude":"54.965808","street":{"id":1870290,"name":"On or near Tyne Street"},"longitude":"-1.713783"},"context":"","outcome_status":{"category":"Investigation complete; no suspect identified","date":"2025-10"},"persistent_id":"594c70cfd332453d0fe65acd61c1c03db7d4a7b0a693fefc8f0893e93b7599bd","id":131660193,"location_subtype":"","month":"2025-10"},{"category":"violent-crime","location_type":"Force","location":{"latitude":"54.964390","street":{"id":1870251,"name":"On or near Shop Spouts"},"longitude":"-1.714621"},"context":"","outcome_status":{"category":"Under investigation","date":"2025-10"},"persistent_id":"d8cef06b67d55209546edb7302e6ce23dffd0f3417a16f2113bc9c79bf18663a","id":131660553,"location_subtype":"","month":"2025-10"},{"category":"violent-crime","location_type":"Force","location":{"latitude":"54.954707","street":{"id":1869903,"name":"On or near Back Street"},"longitude":"-1.728274"},"context":"","outcome_status":{"category":"Investigation complete; no suspect identified","date":"2025-12"},"persistent_id":"87e164c7ecf1e5fef272c250c4a23a683b1718cf1aaee83904b93e7324b95b56","id":131659532,"location_subtype":"","month":"2025-10"},{"category":"other-crime","location_type":"Force","location":{"latitude":"54.952460","street":{"id":1869975,"name":"On or near Derwent View"},"longitude":"-1.724043"},"context":"","outcome_status":{"category":"Under investigation","date":"2025-10"},"persistent_id":"75463dbb9949a1a405f4f3f1141a3aa7de3aca1c2eaa374290ff603ea531a630","id":131657176,"location_subtype":"","month":"2025-10"},{"category":"other-crime","location_type":"Force","location":{"latitude":"54.958116","street":{"id":1870657,"name":"On or near The Mews"},"longitude":"-1.702516"},"context":"","outcome_status":{"category":"Investigation complete; no suspect identified","date":"2025-10"},"persistent_id":"845bf5daf8bd4e6c8d5ae60ccec9f94d8f794f5142c70c7caced5fa93a24cbfb","id":131649528,"location_subtype":"","month":"2025-10"},{"category":"other-crime","location_type":"Force","location":{"latitude":"54.967519","street":{"id":1869924,"name":"On or near Stella Road"},"longitude":"-1.723377"},"context":"","outcome_status":{"category":"Investigation complete; no suspect identified","date":"2025-10"},"persistent_id":"715f9cf84d589a918479d335ba26d048d3e4ab26f2f053a2d8b8c8db23801dca","id":131661270,"location_subtype":"","month":"2025-10"},{"category":"other-crime","location_type":"Force","location":{"latitude":"54.956801","street":{"id":1870311,"name":"On or near Whitewell Road"},"longitude":"-1.712895"},"context":"","outcome_status":{"category":"Investigation complete; no suspect identified","date":"2025-10"},"persistent_id":"40b34ee7b455f8a27d2716396458f06fe115429fde789bc7c2022e9dda2325ee","id":131653473,"location_subtype":"","month":"2025-10"},{"category":"other-crime","location_type":"Force","location":{"latitude":"54.949342","street":{"id":1869813,"name":"On or near Whinney Close"},"longitude":"-1.732401"},"context":"","outcome_status":{"category":"Investigation complete; no suspect identified","date":"2025-10"},"persistent_id":"1f0ffbbe57c484c301a35ed982285f87ab96d324f0077e6cb9c66394a58c103f","id":131651299,"location_subtype":"","month":"2025-10"},{"category":"other-crime","location_type":"Force","location":{"latitude":"54.959793","street":{"id":1869885,"name":"On or near Crocus Close"},"longitude":"-1.728240"},"context":"","outcome_status":{"category":"Under investigation","date":"2025-10"},"persistent_id":"985320d254d3a8d013d1ee848bf4365ef62b710b8dbcaa8207abb21c8b005a78","id":131635142,"location_subtype":"","month":"2025-10"}]