[{"category":"anti-social-behaviour","location_type":"Force","location":{"latitude":"52.255530","street":{"id":1589516,"name":"On or near The Witham"},"longitude":"-1.181633"},"context":"","outcome_status":null,"persistent_id":"","id":129886407,"location_subtype":"","month":"2025-07"},{"category":"anti-social-behaviour","location_type":"Force","location":{"latitude":"52.229079","street":{"id":1589484,"name":"On or near Pinfold Green"},"longitude":"-1.182720"},"context":"","outcome_status":null,"persistent_id":"","id":129886402,"location_subtype":"","month":"2025-07"},{"category":"anti-social-behaviour","location_type":"Force","location":{"latitude":"52.253319","street":{"id":1589519,"name":"On or near Avon Close"},"longitude":"-1.180428"},"context":"","outcome_status":null,"persistent_id":"","id":129886412,"location_subtype":"","month":"2025-07"},{"category":"anti-social-behaviour","location_type":"Force","location":{"latitude":"52.253752","street":{"id":1589532,"name":"On or near Parking Area"},"longitude":"-1.179322"},"context":"","outcome_status":null,"persistent_id":"","id":129886414,"location_subtype":"","month":"2025-07"},{"category":"anti-social-behaviour","location_type":"Force","location":{"latitude":"52.249650","street":{"id":1589555,"name":"On or near Waveney Close"},"longitude":"-1.175164"},"context":"","outcome_status":null,"persistent_id":"","id":129886418,"location_subtype":"","month":"2025-07"},{"category":"anti-social-behaviour","location_type":"Force","location":{"latitude":"52.250749","street":{"id":1589671,"name":"On or near Keble Close"},"longitude":"-1.170251"},"context":"","outcome_status":null,"persistent_id":"","id":129886430,"location_subtype":"","month":"2025-07"},{"category":"anti-social-behaviour","location_type":"Force","location":{"latitude":"52.249098","street":{"id":1589682,"name":"On or near Somerville Road"},"longitude":"-1.169506"},"context":"","outcome_status":null,"persistent_id":"","id":129886444,"location_subtype":"","month":"2025-07"},{"category":"criminal-damage-arson","location_type":"Force","location":{"latitude":"52.255507","street":{"id":1589507,"name":"On or near The Leam"},"longitude":"-1.182117"},"context":"","outcome_status":{"category":"Investigation complete; no suspect identified","date":"2025-07"},"persistent_id":"7434e3ed71f5d51b985f2c9dc89c945bb0e6be908753a0c92c60a794fa5d2dc5","id":129884997,"location_subtype":"","month":"2025-07"},{"category":"drugs","location_type":"Force","location":{"latitude":"52.249650","street":{"id":1589555,"name":"On or near Waveney Close"},"longitude":"-1.175164"},"context":"","outcome_status":{"category":"Local resolution","date":"2025-07"},"persistent_id":"c2aed79170c1ba52d1577a516b37ad547248562e90e46b4f6072ba44c2d32927","id":129884492,"location_subtype":"","month":"2025-07"},{"category":"drugs","location_type":"Force","location":{"latitude":"52.252910","street":{"id":1589549,"name":"On or near Willow Brook"},"longitude":"-1.178488"},"context":"","outcome_status":{"category":"Offender given a caution","date":"2025-08"},"persistent_id":"8a9eef8e60327878719a519a8ea263ca1823ad96e1414a5ebe064a1783d66c06","id":129884488,"location_subtype":"","month":"2025-07"},{"category":"other-theft","location_type":"Force","location":{"latitude":"52.253970","street":{"id":1589569,"name":"On or near Staverton Road"},"longitude":"-1.175758"},"context":"","outcome_status":{"category":"Investigation complete; no suspect identified","date":"2025-07"},"persistent_id":"36b9a65b712a3f91dd27dd152c85f7e9cde3489fe6b3cebfb12d0172226dfec1","id":129883523,"location_subtype":"","month":"2025-07"},{"category":"possession-of-weapons","location_type":"Force","location":{"latitude":"52.253319","street":{"id":1589519,"name":"On or near Avon Close"},"longitude":"-1.180428"},"context":"","outcome_status":{"category":"Awaiting court outcome","date":"2025-08"},"persistent_id":"d903878045bcad46af427cc79c0adee3968632f78b8771bb497c23c2ec1d7011","id":129883318,"location_subtype":"","month":"2025-07"},{"category":"possession-of-weapons","location_type":"Force","location":{"latitude":"52.253319","street":{"id":1589519,"name":"On or near Avon Close"},"longitude":"-1.180428"},"context":"","outcome_status":{"category":"Unable to prosecute suspect","date":"2025-07"},"persistent_id":"c1c6450795ff2c187673820be7e37044f585d03667013c244a9ff71df333718d","id":129883316,"location_subtype":"","month":"2025-07"},{"category":"public-order","location_type":"Force","location":{"latitude":"52.250339","street":{"id":1589530,"name":"On or near Tyne Road"},"longitude":"-1.178491"},"context":"","outcome_status":{"category":"Unable to prosecute suspect","date":"2025-09"},"persistent_id":"96b4d01e8707f68290eaa1b7da815b9072381bb765ed3128f339443e278fa9c6","id":129882545,"location_subtype":"","month":"2025-07"},{"category":"public-order","location_type":"Force","location":{"latitude":"52.252910","street":{"id":1589549,"name":"On or near Willow Brook"},"longitude":"-1.178488"},"context":"","outcome_status":{"category":"Investigation complete; no suspect identified","date":"2025-07"},"persistent_id":"4c9b1eaa2116038ff86fb9c6016c2bb7c4295f5e3c98e8fc48787b085e1e6aa8","id":129882547,"location_subtype":"","month":"2025-07"},{"category":"public-order","location_type":"Force","location":{"latitude":"52.250339","street":{"id":1589530,"name":"On or near Tyne Road"},"longitude":"-1.178491"},"context":"","outcome_status":{"category":"Unable to prosecute suspect","date":"2025-08"},"persistent_id":"68b139044615ab16cacf6f1fd4a62d952904ccada50410a2a7d3dd6f2d7937e1","id":129882543,"location_subtype":"","month":"2025-07"},{"category":"violent-crime","location_type":"Force","location":{"latitude":"52.255451","street":{"id":1589602,"name":"On or near The Severn"},"longitude":"-1.175481"},"context":"","outcome_status":{"category":"Unable to prosecute suspect","date":"2025-08"},"persistent_id":"a35526f860f99a6b00f5e90a33d1628b4f0782705baf3ef8e39911cd940916dd","id":129878679,"location_subtype":"","month":"2025-07"},{"category":"violent-crime","location_type":"Force","location":{"latitude":"52.253308","street":{"id":1589514,"name":"On or near Welland Close"},"longitude":"-1.181352"},"context":"","outcome_status":{"category":"Unable to prosecute suspect","date":"2025-07"},"persistent_id":"b41e325916b1af1259d94af0f5282ea0a0e5c6687a2b51fc51d2223f439110bb","id":129878663,"location_subtype":"","month":"2025-07"},{"category":"violent-crime","location_type":"Force","location":{"latitude":"52.251493","street":{"id":1589565,"name":"On or near The Stour"},"longitude":"-1.177737"},"context":"","outcome_status":{"category":"Unable to prosecute suspect","date":"2025-07"},"persistent_id":"00cc3b9cc181c8e2bcabb5d71ad0cf112f01e8761d1ecd793d0a30ae4fc8b79f","id":129878678,"location_subtype":"","month":"2025-07"},{"category":"violent-crime","location_type":"Force","location":{"latitude":"52.247592","street":{"id":1589675,"name":"On or near Pembroke Way"},"longitude":"-1.167483"},"context":"","outcome_status":{"category":"Unable to prosecute suspect","date":"2025-11"},"persistent_id":"137152a8b433c450732246e239c58b6db3084cbd9e6e21411732624f26989b46","id":129878711,"location_subtype":"","month":"2025-07"},{"category":"violent-crime","location_type":"Force","location":{"latitude":"52.251493","street":{"id":1589565,"name":"On or near The Stour"},"longitude":"-1.177737"},"context":"","outcome_status":{"category":"Status update unavailable","date":"2025-11"},"persistent_id":"28f88523f4bb356237be797527ad03c62030e93ee01fabeffe8bcf1982c869a6","id":130014465,"location_subtype":"","month":"2025-07"},{"category":"violent-crime","location_type":"Force","location":{"latitude":"52.253319","street":{"id":1589519,"name":"On or near Avon Close"},"longitude":"-1.180428"},"context":"","outcome_status":{"category":"Status update unavailable","date":"2025-11"},"persistent_id":"e9d1ac383e76254a1d3e3d6868a122c776ad01c89bce1d00366c96d50b63b058","id":129878672,"location_subtype":"","month":"2025-07"},{"category":"violent-crime","location_type":"Force","location":{"latitude":"52.251493","street":{"id":1589565,"name":"On or near The Stour"},"longitude":"-1.177737"},"context":"","outcome_status":{"category":"Unable to prosecute suspect","date":"2025-08"},"persistent_id":"f976e6ab919359e01707c19ef11d7ccd85d46a69f2edf013dc152b6c227e0bba","id":129878686,"location_subtype":"","month":"2025-07"},{"category":"violent-crime","location_type":"Force","location":{"latitude":"52.254951","street":{"id":1589717,"name":"On or near Kenilworth Close"},"longitude":"-1.168195"},"context":"","outcome_status":{"category":"Status update unavailable","date":"2025-11"},"persistent_id":"eed4cf2c8dd49f41a112d66e7ae6f26c7a2f85e4958f9d0af50d11e60d87ebe6","id":129878699,"location_subtype":"","month":"2025-07"},{"category":"violent-crime","location_type":"Force","location":{"latitude":"52.251300","street":{"id":1589825,"name":"On or near The Slade"},"longitude":"-1.163019"},"context":"","outcome_status":{"category":"Status update unavailable","date":"2025-11"},"persistent_id":"e965220756f3c1e6dc00f3f15aa2f2dd1884b264d4fcce3ce366a040f9fcac87","id":129878734,"location_subtype":"","month":"2025-07"},{"category":"violent-crime","location_type":"Force","location":{"latitude":"52.230459","street":{"id":1589505,"name":"On or near Nene Side Close"},"longitude":"-1.182196"},"context":"","outcome_status":{"category":"Unable to prosecute suspect","date":"2025-08"},"persistent_id":"0cd2e43879d9b4cac84e258069076f3e01bfe3e1ccc06635bacdfe8abf1c356b","id":129878669,"location_subtype":"","month":"2025-07"},{"category":"violent-crime","location_type":"Force","location":{"latitude":"52.253308","street":{"id":1589514,"name":"On or near Welland Close"},"longitude":"-1.181352"},"context":"","outcome_status":{"category":"Status update unavailable","date":"2025-11"},"persistent_id":"f4c0870e3ac03be41eb8aaf1c0719a88a1cf7746c2b7fe3b1deee24e5fe6a19e","id":129878668,"location_subtype":"","month":"2025-07"},{"category":"other-crime","location_type":"Force","location":{"latitude":"52.252910","street":{"id":1589549,"name":"On or near Willow Brook"},"longitude":"-1.178488"},"context":"","outcome_status":{"category":"Further investigation is not in the public interest","date":"2026-01"},"persistent_id":"3bc11905d320fceb66d5a293539ed37e1453701cf0068c7cafb16e4316099bf2","id":129884251,"location_subtype":"","month":"2025-07"},{"category":"other-crime","location_type":"Force","location":{"latitude":"52.251493","street":{"id":1589565,"name":"On or near The Stour"},"longitude":"-1.177737"},"context":"","outcome_status":{"category":"Unable to prosecute suspect","date":"2025-07"},"persistent_id":"86c0ce6808784f5c322afc4eadbea9b23c6b0725814ad2afc1cc934f9dfd9436","id":129884255,"location_subtype":"","month":"2025-07"},{"category":"other-crime","location_type":"Force","location":{"latitude":"52.252910","street":{"id":1589549,"name":"On or near Willow Brook"},"longitude":"-1.178488"},"context":"","outcome_status":{"category":"Further investigation is not in the public interest","date":"2025-12"},"persistent_id":"ea5ee774c6bfd844e1a4b2385889efb6228447a0a68f1bccdf71b176d335af2c","id":129884253,"location_subtype":"","month":"2025-07"}]