[{"category":"anti-social-behaviour","location_type":"Force","location":{"latitude":"52.499963","street":{"id":1621918,"name":"On or near Hubbard's Avenue"},"longitude":"1.747166"},"context":"","outcome_status":null,"persistent_id":"","id":132104025,"location_subtype":"","month":"2025-11"},{"category":"anti-social-behaviour","location_type":"Force","location":{"latitude":"52.499257","street":{"id":1621607,"name":"On or near Reydon Mews"},"longitude":"1.731394"},"context":"","outcome_status":null,"persistent_id":"","id":132104158,"location_subtype":"","month":"2025-11"},{"category":"anti-social-behaviour","location_type":"Force","location":{"latitude":"52.497401","street":{"id":1621605,"name":"On or near Blyford Road"},"longitude":"1.731782"},"context":"","outcome_status":null,"persistent_id":"","id":132104173,"location_subtype":"","month":"2025-11"},{"category":"anti-social-behaviour","location_type":"Force","location":{"latitude":"52.483199","street":{"id":1621982,"name":"On or near Crown Street West"},"longitude":"1.752193"},"context":"","outcome_status":null,"persistent_id":"","id":132103888,"location_subtype":"","month":"2025-11"},{"category":"anti-social-behaviour","location_type":"Force","location":{"latitude":"52.483199","street":{"id":1621982,"name":"On or near Crown Street West"},"longitude":"1.752193"},"context":"","outcome_status":null,"persistent_id":"","id":132103906,"location_subtype":"","month":"2025-11"},{"category":"anti-social-behaviour","location_type":"Force","location":{"latitude":"52.487773","street":{"id":1621960,"name":"On or near Sussex Road"},"longitude":"1.751212"},"context":"","outcome_status":null,"persistent_id":"","id":132104039,"location_subtype":"","month":"2025-11"},{"category":"anti-social-behaviour","location_type":"Force","location":{"latitude":"52.491135","street":{"id":1621781,"name":"On or near Godetia Court"},"longitude":"1.739651"},"context":"","outcome_status":null,"persistent_id":"","id":132103886,"location_subtype":"","month":"2025-11"},{"category":"anti-social-behaviour","location_type":"Force","location":{"latitude":"52.479058","street":{"id":1621871,"name":"On or near Ethel Road"},"longitude":"1.745770"},"context":"","outcome_status":null,"persistent_id":"","id":132104227,"location_subtype":"","month":"2025-11"},{"category":"anti-social-behaviour","location_type":"Force","location":{"latitude":"52.481228","street":{"id":1621483,"name":"On or near Parkside Drive"},"longitude":"1.728644"},"context":"","outcome_status":null,"persistent_id":"","id":132103932,"location_subtype":"","month":"2025-11"},{"category":"anti-social-behaviour","location_type":"Force","location":{"latitude":"52.482611","street":{"id":1621877,"name":"On or near Princes Road"},"longitude":"1.745512"},"context":"","outcome_status":null,"persistent_id":"","id":132103943,"location_subtype":"","month":"2025-11"},{"category":"anti-social-behaviour","location_type":"Force","location":{"latitude":"52.489097","street":{"id":1621993,"name":"On or near North Parade"},"longitude":"1.754272"},"context":"","outcome_status":null,"persistent_id":"","id":132104210,"location_subtype":"","month":"2025-11"},{"category":"anti-social-behaviour","location_type":"Force","location":{"latitude":"52.481507","street":{"id":1621353,"name":"On or near Burgess Close"},"longitude":"1.719519"},"context":"","outcome_status":null,"persistent_id":"","id":132104237,"location_subtype":"","month":"2025-11"},{"category":"anti-social-behaviour","location_type":"Force","location":{"latitude":"52.478482","street":{"id":1621674,"name":"On or near Supermarket"},"longitude":"1.734997"},"context":"","outcome_status":null,"persistent_id":"","id":132104079,"location_subtype":"","month":"2025-11"},{"category":"anti-social-behaviour","location_type":"Force","location":{"latitude":"52.497977","street":{"id":1621498,"name":"On or near Jenkins Green"},"longitude":"1.727218"},"context":"","outcome_status":null,"persistent_id":"","id":132104308,"location_subtype":"","month":"2025-11"},{"category":"anti-social-behaviour","location_type":"Force","location":{"latitude":"52.494034","street":{"id":1621696,"name":"On or near Wissett Way"},"longitude":"1.736979"},"context":"","outcome_status":null,"persistent_id":"","id":132104081,"location_subtype":"","month":"2025-11"},{"category":"anti-social-behaviour","location_type":"Force","location":{"latitude":"52.487773","street":{"id":1621960,"name":"On or near Sussex Road"},"longitude":"1.751212"},"context":"","outcome_status":null,"persistent_id":"","id":132103977,"location_subtype":"","month":"2025-11"},{"category":"anti-social-behaviour","location_type":"Force","location":{"latitude":"52.478788","street":{"id":1621655,"name":"On or near Barnards Way"},"longitude":"1.734418"},"context":"","outcome_status":null,"persistent_id":"","id":132104271,"location_subtype":"","month":"2025-11"},{"category":"anti-social-behaviour","location_type":"Force","location":{"latitude":"52.483199","street":{"id":1621982,"name":"On or near Crown Street West"},"longitude":"1.752193"},"context":"","outcome_status":null,"persistent_id":"","id":132104312,"location_subtype":"","month":"2025-11"},{"category":"anti-social-behaviour","location_type":"Force","location":{"latitude":"52.478482","street":{"id":1621674,"name":"On or near Supermarket"},"longitude":"1.734997"},"context":"","outcome_status":null,"persistent_id":"","id":132104278,"location_subtype":"","month":"2025-11"},{"category":"anti-social-behaviour","location_type":"Force","location":{"latitude":"52.490847","street":{"id":1621874,"name":"On or near Arnhem Court"},"longitude":"1.746744"},"context":"","outcome_status":null,"persistent_id":"","id":132104192,"location_subtype":"","month":"2025-11"},{"category":"anti-social-behaviour","location_type":"Force","location":{"latitude":"52.481228","street":{"id":1621483,"name":"On or near Parkside Drive"},"longitude":"1.728644"},"context":"","outcome_status":null,"persistent_id":"","id":132104023,"location_subtype":"","month":"2025-11"},{"category":"burglary","location_type":"Force","location":{"latitude":"52.487836","street":{"id":1621078,"name":"On or near Dubordien Close"},"longitude":"1.707897"},"context":"","outcome_status":{"category":"Investigation complete; no suspect identified","date":"2025-11"},"persistent_id":"03705133d9c4e88e91ef721067d7963505f22fc05e9531d14a57ac2a2b89542d","id":132101047,"location_subtype":"","month":"2025-11"},{"category":"burglary","location_type":"Force","location":{"latitude":"52.478436","street":{"id":1621694,"name":"On or near Norfolk Street"},"longitude":"1.737026"},"context":"","outcome_status":{"category":"Investigation complete; no suspect identified","date":"2025-12"},"persistent_id":"7be6ba04b76b18a3eed5c639cf4c77e262939e25d0d17b16ba359e34c78be00d","id":132101739,"location_subtype":"","month":"2025-11"},{"category":"burglary","location_type":"Force","location":{"latitude":"52.492131","street":{"id":1621799,"name":"On or near Mylodon Road"},"longitude":"1.742255"},"context":"","outcome_status":{"category":"Investigation complete; no suspect identified","date":"2025-12"},"persistent_id":"0a21d6e7c94cb3a180dd4bb76019b9632f73c9f04f81efeaf0b5c09144796d95","id":132103073,"location_subtype":"","month":"2025-11"},{"category":"criminal-damage-arson","location_type":"Force","location":{"latitude":"52.487568","street":{"id":1621787,"name":"On or near Mount Pleasant"},"longitude":"1.741484"},"context":"","outcome_status":{"category":"Unable to prosecute suspect","date":"2026-01"},"persistent_id":"2f61e55588a73bec593e8ac6227ad826b67253fd3ac6efd7d2dd8cfaeb6075f9","id":132098305,"location_subtype":"","month":"2025-11"},{"category":"criminal-damage-arson","location_type":"Force","location":{"latitude":"52.500168","street":{"id":1621853,"name":"On or near Hubbard's Loke"},"longitude":"1.746682"},"context":"","outcome_status":{"category":"Unable to prosecute suspect","date":"2026-01"},"persistent_id":"33b53c6456bb8a6f5a79138350b17e8e1d893f3589e32e6448a5468fc2307e3c","id":132098307,"location_subtype":"","month":"2025-11"},{"category":"criminal-damage-arson","location_type":"Force","location":{"latitude":"52.500976","street":{"id":1621764,"name":"On or near Cotman Close"},"longitude":"1.739337"},"context":"","outcome_status":{"category":"Investigation complete; no suspect identified","date":"2025-11"},"persistent_id":"c40b7f8791cddb4cba0246e39efcf15c1230d76a3eb5016a9666205af847ec72","id":132098782,"location_subtype":"","month":"2025-11"},{"category":"criminal-damage-arson","location_type":"Force","location":{"latitude":"52.492873","street":{"id":1621681,"name":"On or near Spashett Road"},"longitude":"1.735864"},"context":"","outcome_status":{"category":"Investigation complete; no suspect identified","date":"2025-11"},"persistent_id":"f083ca6b1281e265ea5863ab02f9d19b072309711e1630c1af1ce5d23d271175","id":132102421,"location_subtype":"","month":"2025-11"},{"category":"criminal-damage-arson","location_type":"Force","location":{"latitude":"52.489097","street":{"id":1621993,"name":"On or near North Parade"},"longitude":"1.754272"},"context":"","outcome_status":{"category":"Investigation complete; no suspect identified","date":"2025-12"},"persistent_id":"add9479d5afb97d2fdb5da301ee862da737d043ea0c6893f857eb08a360b7714","id":132101067,"location_subtype":"","month":"2025-11"},{"category":"criminal-damage-arson","location_type":"Force","location":{"latitude":"52.488176","street":{"id":1621734,"name":"On or near Bourne Road"},"longitude":"1.739046"},"context":"","outcome_status":{"category":"Awaiting court outcome","date":"2025-12"},"persistent_id":"46d64484ec1414a296c170f14095986211638dfa08e1daa8a512a7c65fc784e9","id":132097481,"location_subtype":"","month":"2025-11"},{"category":"criminal-damage-arson","location_type":"Force","location":{"latitude":"52.485284","street":{"id":1621779,"name":"On or near Larch Road"},"longitude":"1.739758"},"context":"","outcome_status":{"category":"Investigation complete; no suspect identified","date":"2025-11"},"persistent_id":"7431d080a8b2e777e223b4ffbd901b85880682edac6fa1a04bee881c9dbb3483","id":132098303,"location_subtype":"","month":"2025-11"},{"category":"criminal-damage-arson","location_type":"Force","location":{"latitude":"52.479058","street":{"id":1621871,"name":"On or near Ethel Road"},"longitude":"1.745770"},"context":"","outcome_status":{"category":"Investigation complete; no suspect identified","date":"2025-12"},"persistent_id":"d76a8951b104a33dae74cb91194bff456874d7d963e6f60bb43937c8228bc03a","id":132101762,"location_subtype":"","month":"2025-11"},{"category":"criminal-damage-arson","location_type":"Force","location":{"latitude":"52.502518","street":{"id":1621582,"name":"On or near Leonard Drive"},"longitude":"1.730374"},"context":"","outcome_status":{"category":"Unable to prosecute suspect","date":"2025-11"},"persistent_id":"bd9cf405e9a5947c148329f2d75d986ba9f7f32d0df47e10a2f5ed818c7d448e","id":132098780,"location_subtype":"","month":"2025-11"},{"category":"criminal-damage-arson","location_type":"Force","location":{"latitude":"52.500976","street":{"id":1621764,"name":"On or near Cotman Close"},"longitude":"1.739337"},"context":"","outcome_status":{"category":"Investigation complete; no suspect identified","date":"2025-11"},"persistent_id":"b3997d226d818ee83fa93bf6a3c3bdfac2a3d46142f5da8cdd187313e1a3a98b","id":132099282,"location_subtype":"","month":"2025-11"},{"category":"criminal-damage-arson","location_type":"Force","location":{"latitude":"52.488750","street":{"id":1621823,"name":"On or near Ashley Downs"},"longitude":"1.742248"},"context":"","outcome_status":{"category":"Under investigation","date":"2025-11"},"persistent_id":"63ae815fd8aaf5de3d25a88aeb41cf1ecc708cac1fc0f67fe75bcf7b7fac5ce1","id":132101524,"location_subtype":"","month":"2025-11"},{"category":"criminal-damage-arson","location_type":"Force","location":{"latitude":"52.500528","street":{"id":1621603,"name":"On or near Quinnell Way"},"longitude":"1.730750"},"context":"","outcome_status":{"category":"Investigation complete; no suspect identified","date":"2025-11"},"persistent_id":"367228bc34f60d8a242a0c0ccb49a20384d5cb2fccd3fe3528888fe9de50fc64","id":132100810,"location_subtype":"","month":"2025-11"},{"category":"drugs","location_type":"Force","location":{"latitude":"52.486488","street":{"id":1621952,"name":"On or near Tethys Place"},"longitude":"1.751721"},"context":"","outcome_status":{"category":"Awaiting court outcome","date":"2025-11"},"persistent_id":"7739282523d7638c0a889b6eafb5df64ed49f63a258da2e1a7a245994f2bf4ff","id":132103088,"location_subtype":"","month":"2025-11"},{"category":"drugs","location_type":"Force","location":{"latitude":"52.492131","street":{"id":1621799,"name":"On or near Mylodon Road"},"longitude":"1.742255"},"context":"","outcome_status":{"category":"Awaiting court outcome","date":"2025-11"},"persistent_id":"840802e546e0650b629ed750bcb35cbb6829c3bc5c0088a7ccf3d83f40855e5f","id":132100575,"location_subtype":"","month":"2025-11"},{"category":"drugs","location_type":"Force","location":{"latitude":"52.489654","street":{"id":1621760,"name":"On or near Peddars Way"},"longitude":"1.739540"},"context":"","outcome_status":{"category":"Under investigation","date":"2025-11"},"persistent_id":"83aefb18dc4c46029e9717d39c3737947eae6f8c96088216cf4a56f0c1f5900e","id":132100159,"location_subtype":"","month":"2025-11"},{"category":"drugs","location_type":"Force","location":{"latitude":"52.477375","street":{"id":1621832,"name":"On or near Union Road"},"longitude":"1.742961"},"context":"","outcome_status":{"category":"Local resolution","date":"2025-11"},"persistent_id":"0b4b8a39c1f8a0ad516693e63afaa236be931982c2e8bf7bc0469264cc1007b1","id":132101288,"location_subtype":"","month":"2025-11"},{"category":"other-theft","location_type":"Force","location":{"latitude":"52.482753","street":{"id":1621932,"name":"On or near St Peter's Street"},"longitude":"1.748398"},"context":"","outcome_status":{"category":"Investigation complete; no suspect identified","date":"2025-12"},"persistent_id":"e878d859f5fbdf832bb6af1568f95ca14edb309483b0853bacf93ba6dc3b66fb","id":132099912,"location_subtype":"","month":"2025-11"},{"category":"other-theft","location_type":"Force","location":{"latitude":"52.483308","street":{"id":1621943,"name":"On or near Boston Road"},"longitude":"1.750169"},"context":"","outcome_status":{"category":"Unable to prosecute suspect","date":"2026-01"},"persistent_id":"51ea5a29924258324c2808dcfd49bf62301e0133c6667ea1b77224d15a6bdfbf","id":132098101,"location_subtype":"","month":"2025-11"},{"category":"other-theft","location_type":"Force","location":{"latitude":"52.484543","street":{"id":1621827,"name":"On or near Sports/recreation Area"},"longitude":"1.743977"},"context":"","outcome_status":{"category":"Investigation complete; no suspect identified","date":"2025-11"},"persistent_id":"94f7179fdc35943e7b0994f3367bb4646b394bb31c4b2bbae640e64fbbddfc81","id":132097841,"location_subtype":"","month":"2025-11"},{"category":"other-theft","location_type":"Force","location":{"latitude":"52.487773","street":{"id":1621960,"name":"On or near Sussex Road"},"longitude":"1.751212"},"context":"","outcome_status":{"category":"Investigation complete; no suspect identified","date":"2025-11"},"persistent_id":"6e09cb6322cc1aed030a69dea1c3466ffdba55ba103ae72fbb1daa80aeaa8f25","id":132097843,"location_subtype":"","month":"2025-11"},{"category":"other-theft","location_type":"Force","location":{"latitude":"52.500168","street":{"id":1621853,"name":"On or near Hubbard's Loke"},"longitude":"1.746682"},"context":"","outcome_status":{"category":"Investigation complete; no suspect identified","date":"2025-11"},"persistent_id":"36098fa0b9560aa500316c1ed5c911e8cf098f4f2417b86232a8d702857a48ad","id":132098099,"location_subtype":"","month":"2025-11"},{"category":"other-theft","location_type":"Force","location":{"latitude":"52.478973","street":{"id":1621896,"name":"On or near Seago Street"},"longitude":"1.746765"},"context":"","outcome_status":{"category":"Local resolution","date":"2025-12"},"persistent_id":"8c73443595d5f06c1d43e2b5ef680e6b80d292739b6e273179f1229b2156d79e","id":132101565,"location_subtype":"","month":"2025-11"},{"category":"other-theft","location_type":"Force","location":{"latitude":"52.492131","street":{"id":1621799,"name":"On or near Mylodon Road"},"longitude":"1.742255"},"context":"","outcome_status":{"category":"Local resolution","date":"2025-11"},"persistent_id":"0ae763fef96830a237064c6a4b2bc2d193da9a216ca359ddb94c43c3683e979c","id":132099325,"location_subtype":"","month":"2025-11"},{"category":"other-theft","location_type":"Force","location":{"latitude":"52.484543","street":{"id":1621827,"name":"On or near Sports/recreation Area"},"longitude":"1.743977"},"context":"","outcome_status":{"category":"Unable to prosecute suspect","date":"2025-11"},"persistent_id":"2cbb8d3b4d26abf556324c2782eae8c69be7a04eb8ddb3f1d9d0b9e5bb68b3a6","id":132101341,"location_subtype":"","month":"2025-11"},{"category":"other-theft","location_type":"Force","location":{"latitude":"52.483199","street":{"id":1621982,"name":"On or near Crown Street West"},"longitude":"1.752193"},"context":"","outcome_status":{"category":"Awaiting court outcome","date":"2025-11"},"persistent_id":"50ccb1c29420cd92c590a6db1c0aa18019c56729b04f39d1c6fdf74fdc25cc9e","id":132099602,"location_subtype":"","month":"2025-11"},{"category":"other-theft","location_type":"Force","location":{"latitude":"52.494034","street":{"id":1621696,"name":"On or near Wissett Way"},"longitude":"1.736979"},"context":"","outcome_status":{"category":"Investigation complete; no suspect identified","date":"2025-11"},"persistent_id":"564dc4b7dc58686c5eb7ab3f6e0d5d90ec5ccb43fb30498fd321b68e72f4eb7e","id":132097302,"location_subtype":"","month":"2025-11"},{"category":"other-theft","location_type":"Force","location":{"latitude":"52.488176","street":{"id":1621734,"name":"On or near Bourne Road"},"longitude":"1.739046"},"context":"","outcome_status":{"category":"Awaiting court outcome","date":"2025-12"},"persistent_id":"c51db071f4864eda0bb29875eb3a1577585fd0e184fee07c035245234b191a05","id":132102909,"location_subtype":"","month":"2025-11"},{"category":"other-theft","location_type":"Force","location":{"latitude":"52.483756","street":{"id":1621654,"name":"On or near High Beech"},"longitude":"1.733764"},"context":"","outcome_status":{"category":"Investigation complete; no suspect identified","date":"2025-12"},"persistent_id":"b6ad9f976fa78383a5e35d7d5f2ba70cc16dfee0eb41560a4057b2a6d852a824","id":132097553,"location_subtype":"","month":"2025-11"},{"category":"possession-of-weapons","location_type":"Force","location":{"latitude":"52.483545","street":{"id":1621704,"name":"On or near Rose Court"},"longitude":"1.736443"},"context":"","outcome_status":{"category":"Under investigation","date":"2025-11"},"persistent_id":"a6cf26aea151cdcded6a486866b4b1231d318fd98adf77403e70a8bbe0d7e6bd","id":132103692,"location_subtype":"","month":"2025-11"},{"category":"possession-of-weapons","location_type":"Force","location":{"latitude":"52.489654","street":{"id":1621760,"name":"On or near Peddars Way"},"longitude":"1.739540"},"context":"","outcome_status":{"category":"Under investigation","date":"2025-11"},"persistent_id":"8846ead0fba1e9aee139c10fa22b65df00bc51cfd6b5287bb95509b2718435ec","id":132100410,"location_subtype":"","month":"2025-11"},{"category":"public-order","location_type":"Force","location":{"latitude":"52.481956","street":{"id":1621953,"name":"On or near Reeve Street"},"longitude":"1.750554"},"context":"","outcome_status":{"category":"Awaiting court outcome","date":"2025-12"},"persistent_id":"d728959817cd126e48b2d546a4c94482ad019419ac605fa03236e16fd4cec088","id":132099052,"location_subtype":"","month":"2025-11"},{"category":"public-order","location_type":"Force","location":{"latitude":"52.487390","street":{"id":1621979,"name":"On or near Royal Avenue"},"longitude":"1.752491"},"context":"","outcome_status":{"category":"Unable to prosecute suspect","date":"2025-11"},"persistent_id":"5bd3475708f4d42aa5c2544df4b3883e58b42244c4a8dcbe8338bf7d981b308a","id":132101553,"location_subtype":"","month":"2025-11"},{"category":"public-order","location_type":"Force","location":{"latitude":"52.490073","street":{"id":1621964,"name":"On or near Station Road"},"longitude":"1.751290"},"context":"","outcome_status":{"category":"Under investigation","date":"2025-11"},"persistent_id":"f427bb3d74b0318c1dab7157d91e72c6f6bd93240a09b550113c9b21e2768bc0","id":132099885,"location_subtype":"","month":"2025-11"},{"category":"public-order","location_type":"Force","location":{"latitude":"52.484543","street":{"id":1621827,"name":"On or near Sports/recreation Area"},"longitude":"1.743977"},"context":"","outcome_status":{"category":"Investigation complete; no suspect identified","date":"2025-12"},"persistent_id":"6a2927ce8b36f0f173935596c2c01e5bd9114cfa7221a9f75bc380989dd29904","id":132101317,"location_subtype":"","month":"2025-11"},{"category":"public-order","location_type":"Force","location":{"latitude":"52.486270","street":{"id":1621940,"name":"On or near St Margaret's Road"},"longitude":"1.749242"},"context":"","outcome_status":{"category":"Unable to prosecute suspect","date":"2025-12"},"persistent_id":"68efa26d28997be803934cccdc803df32b6a71d9ec7a94890014a5f34100a67d","id":132098342,"location_subtype":"","month":"2025-11"},{"category":"public-order","location_type":"Force","location":{"latitude":"52.494021","street":{"id":1621539,"name":"On or near Supermarket"},"longitude":"1.727428"},"context":"","outcome_status":{"category":"Under investigation","date":"2025-11"},"persistent_id":"e6e8d3117c7896aa99276307ed798eca78d6082e1d790eaf2d8de896bbb40791","id":132099050,"location_subtype":"","month":"2025-11"},{"category":"public-order","location_type":"Force","location":{"latitude":"52.478788","street":{"id":1621655,"name":"On or near Barnards Way"},"longitude":"1.734418"},"context":"","outcome_status":{"category":"Investigation complete; no suspect identified","date":"2025-11"},"persistent_id":"3835dba5d2dac516ebd9799818637cb3d037be3b757a2d96b0882ae9cc54af3f","id":132098586,"location_subtype":"","month":"2025-11"},{"category":"robbery","location_type":"Force","location":{"latitude":"52.503597","street":{"id":1621683,"name":"On or near Supermarket"},"longitude":"1.735241"},"context":"","outcome_status":{"category":"Under investigation","date":"2025-11"},"persistent_id":"c1b5723fc62259a94c487d5d7a2f724e488e2917d1c2a650899dd748d32d364d","id":132102272,"location_subtype":"","month":"2025-11"},{"category":"shoplifting","location_type":"Force","location":{"latitude":"52.478482","street":{"id":1621674,"name":"On or near Supermarket"},"longitude":"1.734997"},"context":"","outcome_status":{"category":"Under investigation","date":"2025-11"},"persistent_id":"3af18378a42aaad34c41a55ff7ba912545958038f828c74601df8027af4ba8f6","id":132098387,"location_subtype":"","month":"2025-11"},{"category":"shoplifting","location_type":"Force","location":{"latitude":"52.478482","street":{"id":1621674,"name":"On or near Supermarket"},"longitude":"1.734997"},"context":"","outcome_status":{"category":"Investigation complete; no suspect identified","date":"2025-12"},"persistent_id":"749eec29010bf704b2661b5c2020ae91004a8b56e6db577972b1a4be5a552807","id":132102731,"location_subtype":"","month":"2025-11"},{"category":"shoplifting","location_type":"Force","location":{"latitude":"52.477256","street":{"id":1621806,"name":"On or near Norwich Road"},"longitude":"1.741610"},"context":"","outcome_status":{"category":"Unable to prosecute suspect","date":"2025-11"},"persistent_id":"e47e0e564eb1fced45c66ea6063c067f2ee1d5285723293aac7d64d74ba55cba","id":132100903,"location_subtype":"","month":"2025-11"},{"category":"shoplifting","location_type":"Force","location":{"latitude":"52.503597","street":{"id":1621683,"name":"On or near Supermarket"},"longitude":"1.735241"},"context":"","outcome_status":{"category":"Investigation complete; no suspect identified","date":"2025-11"},"persistent_id":"48b3c6512dfe91b583f68be47932192289b354feedc0570f318539dd0d8dcfb8","id":132099941,"location_subtype":"","month":"2025-11"},{"category":"shoplifting","location_type":"Force","location":{"latitude":"52.477332","street":{"id":1621613,"name":"On or near North Quay Retail Park"},"longitude":"1.733249"},"context":"","outcome_status":{"category":"Investigation complete; no suspect identified","date":"2025-11"},"persistent_id":"b2f2f582bdd4311e22922ad0d6c93bab25a0fb77fc2591d78e268e960b202d28","id":132100900,"location_subtype":"","month":"2025-11"},{"category":"shoplifting","location_type":"Force","location":{"latitude":"52.478482","street":{"id":1621674,"name":"On or near Supermarket"},"longitude":"1.734997"},"context":"","outcome_status":{"category":"Investigation complete; no suspect identified","date":"2025-11"},"persistent_id":"fc53722c909de57fb94e3da03e6dc4203e645844b418806fb6ce77a21376ee63","id":132097343,"location_subtype":"","month":"2025-11"},{"category":"shoplifting","location_type":"Force","location":{"latitude":"52.482611","street":{"id":1621877,"name":"On or near Princes Road"},"longitude":"1.745512"},"context":"","outcome_status":{"category":"Under investigation","date":"2025-11"},"persistent_id":"563d666c81fd44f0a9bb2db6de56aa7266ddd0a13af15e08db5804ecc8d0b7f1","id":132101148,"location_subtype":"","month":"2025-11"},{"category":"shoplifting","location_type":"Force","location":{"latitude":"52.478482","street":{"id":1621674,"name":"On or near Supermarket"},"longitude":"1.734997"},"context":"","outcome_status":{"category":"Awaiting court outcome","date":"2025-11"},"persistent_id":"46a2aef7138ea99f0b2563fe9113df06e25603aed9a49887c718c047536999c4","id":132101607,"location_subtype":"","month":"2025-11"},{"category":"shoplifting","location_type":"Force","location":{"latitude":"52.478482","street":{"id":1621674,"name":"On or near Supermarket"},"longitude":"1.734997"},"context":"","outcome_status":{"category":"Under investigation","date":"2025-11"},"persistent_id":"572764aa416c5d9d3b9ef090c2ead7d3f14e4a781056428549f56faf21254dd2","id":132097094,"location_subtype":"","month":"2025-11"},{"category":"shoplifting","location_type":"Force","location":{"latitude":"52.482611","street":{"id":1621877,"name":"On or near Princes Road"},"longitude":"1.745512"},"context":"","outcome_status":{"category":"Investigation complete; no suspect identified","date":"2025-11"},"persistent_id":"bb6a98356b178fae224fb1a5fa6025d9220b984fa93adcab153d916c186d543b","id":132100908,"location_subtype":"","month":"2025-11"},{"category":"shoplifting","location_type":"Force","location":{"latitude":"52.478788","street":{"id":1621655,"name":"On or near Barnards Way"},"longitude":"1.734418"},"context":"","outcome_status":{"category":"Under investigation","date":"2025-11"},"persistent_id":"fa1ab9c07f795187ecda8f0c7f065e1163dec1cdba2bf7dcaec3d0aa4b144d20","id":132097092,"location_subtype":"","month":"2025-11"},{"category":"theft-from-the-person","location_type":"Force","location":{"latitude":"52.501545","street":{"id":1621626,"name":"On or near Foxes Walk"},"longitude":"1.732134"},"context":"","outcome_status":{"category":"Investigation complete; no suspect identified","date":"2025-11"},"persistent_id":"591868ac75f45337004c401e423a8860fc27c9068278f428db0d2392655239d7","id":132101390,"location_subtype":"","month":"2025-11"},{"category":"vehicle-crime","location_type":"Force","location":{"latitude":"52.478788","street":{"id":1621655,"name":"On or near Barnards Way"},"longitude":"1.734418"},"context":"","outcome_status":{"category":"Investigation complete; no suspect identified","date":"2025-11"},"persistent_id":"ba0c5b3a2b5c75fdf1801281e3bd17b9df8c5f827f54020ee6b499e071f94414","id":132098156,"location_subtype":"","month":"2025-11"},{"category":"vehicle-crime","location_type":"Force","location":{"latitude":"52.478535","street":{"id":1621389,"name":"On or near Constable Close"},"longitude":"1.721625"},"context":"","outcome_status":{"category":"Investigation complete; no suspect identified","date":"2025-12"},"persistent_id":"6355c6c66da9edc3ea878a5a5e7cca82ce0895e4ff8e91a32627afe461e18d99","id":132098153,"location_subtype":"","month":"2025-11"},{"category":"vehicle-crime","location_type":"Force","location":{"latitude":"52.480198","street":{"id":1621801,"name":"On or near Hill Road"},"longitude":"1.741020"},"context":"","outcome_status":{"category":"Investigation complete; no suspect identified","date":"2025-11"},"persistent_id":"976186aa09728da25ebeb69a62cb85c5eb6f1b5c9accdfeba6ea192e7bd38bc6","id":132103539,"location_subtype":"","month":"2025-11"},{"category":"vehicle-crime","location_type":"Force","location":{"latitude":"52.478535","street":{"id":1621389,"name":"On or near Constable Close"},"longitude":"1.721625"},"context":"","outcome_status":{"category":"Under investigation","date":"2025-11"},"persistent_id":"3590bfcd17ae059f2d1659b4585da3921524eca27e9205b616603982143c34a5","id":132099971,"location_subtype":"","month":"2025-11"},{"category":"vehicle-crime","location_type":"Force","location":{"latitude":"52.484543","street":{"id":1621827,"name":"On or near Sports/recreation Area"},"longitude":"1.743977"},"context":"","outcome_status":{"category":"Investigation complete; no suspect identified","date":"2025-11"},"persistent_id":"018c77707f6177fe5b047286ed553d55bc2bd644395dfee59aea574ad479ee98","id":132099645,"location_subtype":"","month":"2025-11"},{"category":"vehicle-crime","location_type":"Force","location":{"latitude":"52.480376","street":{"id":1621910,"name":"On or near Beresford Road"},"longitude":"1.748475"},"context":"","outcome_status":{"category":"Investigation complete; no suspect identified","date":"2026-01"},"persistent_id":"83655de2d863e369e98f414ff7871761879fec9f42691d0808e68fa7847230fa","id":132103541,"location_subtype":"","month":"2025-11"},{"category":"vehicle-crime","location_type":"Force","location":{"latitude":"52.484779","street":{"id":1621188,"name":"On or near Brendon Close"},"longitude":"1.712428"},"context":"","outcome_status":{"category":"Investigation complete; no suspect identified","date":"2025-11"},"persistent_id":"4631096c9247e5edb5f8b50fe0ad535f4ef3f6803580928c2182ceb9d119a592","id":132102945,"location_subtype":"","month":"2025-11"},{"category":"violent-crime","location_type":"Force","location":{"latitude":"52.478973","street":{"id":1621896,"name":"On or near Seago Street"},"longitude":"1.746765"},"context":"","outcome_status":{"category":"Unable to prosecute suspect","date":"2025-11"},"persistent_id":"c7318686155b593a5b0ccb7ed79f03198652a70bb321a26aeccd968eefc13164","id":132097241,"location_subtype":"","month":"2025-11"},{"category":"violent-crime","location_type":"Force","location":{"latitude":"52.482951","street":{"id":1621778,"name":"On or near Marham Road"},"longitude":"1.739869"},"context":"","outcome_status":{"category":"Unable to prosecute suspect","date":"2025-11"},"persistent_id":"531e621529c7533b1bef03b3ec6e79f7c8cbd55f0f3bed0a10e9806809c69c66","id":132097444,"location_subtype":"","month":"2025-11"},{"category":"violent-crime","location_type":"Force","location":{"latitude":"52.483199","street":{"id":1621982,"name":"On or near Crown Street West"},"longitude":"1.752193"},"context":"","outcome_status":{"category":"Investigation complete; no suspect identified","date":"2025-11"},"persistent_id":"3f3ddce2f6d31fe740e84efca2e830e2ad96fb15416771210e0184883abb75c1","id":132097446,"location_subtype":"","month":"2025-11"},{"category":"violent-crime","location_type":"Force","location":{"latitude":"52.498153","street":{"id":1621829,"name":"On or near Lowry Way"},"longitude":"1.742133"},"context":"","outcome_status":{"category":"Unable to prosecute suspect","date":"2025-11"},"persistent_id":"d1f14c72db60e2820430be657d553a91f5bd475a5c314027f00bc0e9a6ffd608","id":132098007,"location_subtype":"","month":"2025-11"},{"category":"violent-crime","location_type":"Force","location":{"latitude":"52.485284","street":{"id":1621779,"name":"On or near Larch Road"},"longitude":"1.739758"},"context":"","outcome_status":{"category":"Action to be taken by another organisation","date":"2025-11"},"persistent_id":"0079b978c90b911a02eb5eb732613d9e7a0d0155e62095d639c36d8f1f1683f7","id":132098011,"location_subtype":"","month":"2025-11"},{"category":"violent-crime","location_type":"Force","location":{"latitude":"52.486099","street":{"id":1621988,"name":"On or near Edinburgh Road"},"longitude":"1.752941"},"context":"","outcome_status":{"category":"Awaiting court outcome","date":"2025-11"},"persistent_id":"cbbef988babdf13fa845c1079cf0b3c3b5c7fc2cd85668e5668563aba99b1c79","id":132098023,"location_subtype":"","month":"2025-11"},{"category":"violent-crime","location_type":"Force","location":{"latitude":"52.498153","street":{"id":1621829,"name":"On or near Lowry Way"},"longitude":"1.742133"},"context":"","outcome_status":{"category":"Unable to prosecute suspect","date":"2025-11"},"persistent_id":"eecad2b41f726672a1dbeeb2482a189613baf3391a1d97785bec2e46b67ebfad","id":132098251,"location_subtype":"","month":"2025-11"},{"category":"violent-crime","location_type":"Force","location":{"latitude":"52.477375","street":{"id":1621832,"name":"On or near Union Road"},"longitude":"1.742961"},"context":"","outcome_status":{"category":"Unable to prosecute suspect","date":"2025-11"},"persistent_id":"c9463a3681a8465f8d4ac51af6c0b2075b7d35d1d6e36ab04221afe6ab2f133d","id":132099220,"location_subtype":"","month":"2025-11"},{"category":"violent-crime","location_type":"Force","location":{"latitude":"52.490847","street":{"id":1621874,"name":"On or near Arnhem Court"},"longitude":"1.746744"},"context":"","outcome_status":{"category":"Local resolution","date":"2025-11"},"persistent_id":"73e2671625acf77a8662340718e1184b143e68a405b35eefc427a869ed97b446","id":132099222,"location_subtype":"","month":"2025-11"},{"category":"violent-crime","location_type":"Force","location":{"latitude":"52.481956","street":{"id":1621953,"name":"On or near Reeve Street"},"longitude":"1.750554"},"context":"","outcome_status":{"category":"Investigation complete; no suspect identified","date":"2025-11"},"persistent_id":"97135bbfbe5d16fb92dd966ce935f7db00b853171143b4c2c1c746e083a9e34c","id":132099226,"location_subtype":"","month":"2025-11"},{"category":"violent-crime","location_type":"Force","location":{"latitude":"52.495364","street":{"id":1621706,"name":"On or near Astbury Road"},"longitude":"1.736738"},"context":"","outcome_status":{"category":"Action to be taken by another organisation","date":"2025-11"},"persistent_id":"d79c8b98b573d0c80a76c862fdca40218765c048d768b7082350f04aa9b79196","id":132101988,"location_subtype":"","month":"2025-11"},{"category":"violent-crime","location_type":"Force","location":{"latitude":"52.481228","street":{"id":1621483,"name":"On or near Parkside Drive"},"longitude":"1.728644"},"context":"","outcome_status":{"category":"Unable to prosecute suspect","date":"2025-12"},"persistent_id":"af080d0a50a92ea94c6f5c3205b5e022414bea0c2e7031fece5675ea84d89a03","id":132101713,"location_subtype":"","month":"2025-11"},{"category":"violent-crime","location_type":"Force","location":{"latitude":"52.481199","street":{"id":1621861,"name":"On or near Nicholson Square"},"longitude":"1.744361"},"context":"","outcome_status":{"category":"Unable to prosecute suspect","date":"2025-12"},"persistent_id":"1089d5c4fb25416af2f74ecc84ab3ea8bb71f33ae4545166005c3428cdef08c0","id":132103434,"location_subtype":"","month":"2025-11"},{"category":"violent-crime","location_type":"Force","location":{"latitude":"52.492470","street":{"id":1621838,"name":"On or near Europa Road"},"longitude":"1.744052"},"context":"","outcome_status":{"category":"Unable to prosecute suspect","date":"2025-12"},"persistent_id":"1a73c59582001096f2d9bf06d813b319bc9f8137e9624e6fcfa12586bc765419","id":132103842,"location_subtype":"","month":"2025-11"},{"category":"violent-crime","location_type":"Force","location":{"latitude":"52.484749","street":{"id":1621959,"name":"On or near Cambridge Road"},"longitude":"1.751249"},"context":"","outcome_status":{"category":"Action to be taken by another organisation","date":"2025-12"},"persistent_id":"b8cce7603f4ce1280a051560f99e0b97f31f89a03f2ac9bc5901405dccf6d038","id":132101720,"location_subtype":"","month":"2025-11"},{"category":"violent-crime","location_type":"Force","location":{"latitude":"52.495364","street":{"id":1621706,"name":"On or near Astbury Road"},"longitude":"1.736738"},"context":"","outcome_status":{"category":"Action to be taken by another organisation","date":"2025-11"},"persistent_id":"89d1f544213d3fd42caf644ccdc520af09076c585339cedaa4ddc21299cfabac","id":132101986,"location_subtype":"","month":"2025-11"},{"category":"violent-crime","location_type":"Force","location":{"latitude":"52.490118","street":{"id":1621791,"name":"On or near Hollingsworth Road"},"longitude":"1.741067"},"context":"","outcome_status":{"category":"Unable to prosecute suspect","date":"2025-12"},"persistent_id":"78efc7a5e4f68868583a5acc33eb7d96a2d090a27b9395ad58bec10722a532e6","id":132099492,"location_subtype":"","month":"2025-11"},{"category":"violent-crime","location_type":"Force","location":{"latitude":"52.488176","street":{"id":1621734,"name":"On or near Bourne Road"},"longitude":"1.739046"},"context":"","outcome_status":{"category":"Action to be taken by another organisation","date":"2025-11"},"persistent_id":"f26024d38af935804a78f28eda163f8dc31fb8dd9eb6ee120d584e5415fb9b5c","id":132099490,"location_subtype":"","month":"2025-11"},{"category":"violent-crime","location_type":"Force","location":{"latitude":"52.490847","street":{"id":1621874,"name":"On or near Arnhem Court"},"longitude":"1.746744"},"context":"","outcome_status":{"category":"Local resolution","date":"2025-11"},"persistent_id":"f00bbb329924f8b1ad5993bec980dcbb4b6ea264e8e2202821ddb265c4fe73d7","id":132099495,"location_subtype":"","month":"2025-11"},{"category":"violent-crime","location_type":"Force","location":{"latitude":"52.490847","street":{"id":1621874,"name":"On or near Arnhem Court"},"longitude":"1.746744"},"context":"","outcome_status":{"category":"Unable to prosecute suspect","date":"2026-01"},"persistent_id":"361daacc979546d40f77b83f9ed1bb019449f4f9e7e700fc998a55785a67deec","id":132098515,"location_subtype":"","month":"2025-11"},{"category":"violent-crime","location_type":"Force","location":{"latitude":"52.482951","street":{"id":1621778,"name":"On or near Marham Road"},"longitude":"1.739869"},"context":"","outcome_status":{"category":"Unable to prosecute suspect","date":"2025-11"},"persistent_id":"088d01ab2e9f94e5b78c5ff5bba3365a75620915b515a6592ecf80a57aa77a61","id":132098509,"location_subtype":"","month":"2025-11"},{"category":"violent-crime","location_type":"Force","location":{"latitude":"52.478788","street":{"id":1621655,"name":"On or near Barnards Way"},"longitude":"1.734418"},"context":"","outcome_status":{"category":"Under investigation","date":"2025-11"},"persistent_id":"101cfc0e8aef4ca7ab1c532b08b3e0eac4e7f558af909a66db0d8e24fdf442bf","id":132097236,"location_subtype":"","month":"2025-11"},{"category":"violent-crime","location_type":"Force","location":{"latitude":"52.478788","street":{"id":1621655,"name":"On or near Barnards Way"},"longitude":"1.734418"},"context":"","outcome_status":{"category":"Under investigation","date":"2025-11"},"persistent_id":"8018dc9e77e669c4c421b7c84bde1072744535737138ca1bb33ff036b5f1ded0","id":132097437,"location_subtype":"","month":"2025-11"},{"category":"violent-crime","location_type":"Force","location":{"latitude":"52.489548","street":{"id":1621584,"name":"On or near Pebble Close"},"longitude":"1.729790"},"context":"","outcome_status":{"category":"Unable to prosecute suspect","date":"2025-12"},"persistent_id":"bce4765ce7c5319eba770190ff9721dc4175791996455fe09f3e7700754d525e","id":132097435,"location_subtype":"","month":"2025-11"},{"category":"violent-crime","location_type":"Force","location":{"latitude":"52.490847","street":{"id":1621874,"name":"On or near Arnhem Court"},"longitude":"1.746744"},"context":"","outcome_status":{"category":"Under investigation","date":"2025-11"},"persistent_id":"64775abdd138890b790549d536933fce8b5a833d1ea07a519b1244800726a20a","id":132098016,"location_subtype":"","month":"2025-11"},{"category":"violent-crime","location_type":"Force","location":{"latitude":"52.479619","street":{"id":1621800,"name":"On or near Halcyon Crescent"},"longitude":"1.741148"},"context":"","outcome_status":{"category":"Action to be taken by another organisation","date":"2026-01"},"persistent_id":"c7fcb8acdee0e4e64dd99bac9a09bcb00b61c89da8e0ec0371846c033d3a2849","id":132098249,"location_subtype":"","month":"2025-11"},{"category":"violent-crime","location_type":"Force","location":{"latitude":"52.490118","street":{"id":1621791,"name":"On or near Hollingsworth Road"},"longitude":"1.741067"},"context":"","outcome_status":{"category":"Awaiting court outcome","date":"2025-12"},"persistent_id":"0b748362e3eb3f82644352b0267b5e37299da757d4f0a7bd81975ada579420d0","id":132098511,"location_subtype":"","month":"2025-11"},{"category":"violent-crime","location_type":"Force","location":{"latitude":"52.481199","street":{"id":1621861,"name":"On or near Nicholson Square"},"longitude":"1.744361"},"context":"","outcome_status":{"category":"Under investigation","date":"2025-11"},"persistent_id":"77b50e289524200276f7d55e63319a35e594e5e0f93ff1c74746b7bae08d8c46","id":132098513,"location_subtype":"","month":"2025-11"},{"category":"violent-crime","location_type":"Force","location":{"latitude":"52.491202","street":{"id":1621758,"name":"On or near Montgomery Avenue"},"longitude":"1.738669"},"context":"","outcome_status":{"category":"Under investigation","date":"2025-11"},"persistent_id":"6cc14db4a1691d96f0d297330509f0906ae219ee03c0b58facc26b7534795b9a","id":132099216,"location_subtype":"","month":"2025-11"},{"category":"violent-crime","location_type":"Force","location":{"latitude":"52.488176","street":{"id":1621734,"name":"On or near Bourne Road"},"longitude":"1.739046"},"context":"","outcome_status":{"category":"Unable to prosecute suspect","date":"2025-12"},"persistent_id":"8db3136ab9168296b0e3760a4912211ff2522b4a3f7d973d749e43ef5b9a151d","id":132099486,"location_subtype":"","month":"2025-11"},{"category":"violent-crime","location_type":"Force","location":{"latitude":"52.488176","street":{"id":1621734,"name":"On or near Bourne Road"},"longitude":"1.739046"},"context":"","outcome_status":{"category":"Action to be taken by another organisation","date":"2025-12"},"persistent_id":"fa7e076b1db7412ed817a6a704c5f29101047fc0afa2e97120b9aac90f64dd0b","id":132099781,"location_subtype":"","month":"2025-11"},{"category":"violent-crime","location_type":"Force","location":{"latitude":"52.489986","street":{"id":1621728,"name":"On or near Sports/recreation Area"},"longitude":"1.737749"},"context":"","outcome_status":{"category":"Unable to prosecute suspect","date":"2026-01"},"persistent_id":"0235b7e4b15e6829b6fb9653f193a48a9028842721bede4146e940811cd3df77","id":132099777,"location_subtype":"","month":"2025-11"},{"category":"violent-crime","location_type":"Force","location":{"latitude":"52.493804","street":{"id":1621457,"name":"On or near Stirling Close"},"longitude":"1.724050"},"context":"","outcome_status":{"category":"Under investigation","date":"2025-11"},"persistent_id":"dc3e37baa38dc9712b699f8ccf44d6d2d60cbc8fd724c525dcce86b4227f5dde","id":132100348,"location_subtype":"","month":"2025-11"},{"category":"violent-crime","location_type":"Force","location":{"latitude":"52.483470","street":{"id":1621929,"name":"On or near Burton Street"},"longitude":"1.749048"},"context":"","outcome_status":{"category":"Under investigation","date":"2025-11"},"persistent_id":"fcbbfbd3ac16a72f79204f670a02654c8601ecaf27453416135f5c6bfc11bff6","id":132100528,"location_subtype":"","month":"2025-11"},{"category":"violent-crime","location_type":"Force","location":{"latitude":"52.491135","street":{"id":1621781,"name":"On or near Godetia Court"},"longitude":"1.739651"},"context":"","outcome_status":{"category":"Unable to prosecute suspect","date":"2025-12"},"persistent_id":"766832aa0fb16cc7f4c1f3e3b60271746f369c48449c56fbf4d9e95ab2b08a55","id":132100772,"location_subtype":"","month":"2025-11"},{"category":"violent-crime","location_type":"Force","location":{"latitude":"52.483229","street":{"id":1621732,"name":"On or near Myrtle Close"},"longitude":"1.737344"},"context":"","outcome_status":{"category":"Under investigation","date":"2025-11"},"persistent_id":"307f805320f587c49ea695f7e6425ddbedd0db8dff3e3313d6fb19f479e23ad9","id":132101032,"location_subtype":"","month":"2025-11"},{"category":"violent-crime","location_type":"Force","location":{"latitude":"52.486488","street":{"id":1621952,"name":"On or near Tethys Place"},"longitude":"1.751721"},"context":"","outcome_status":{"category":"Action to be taken by another organisation","date":"2025-12"},"persistent_id":"12628c7e85dcc7db857062fadd13a09530c76bcbf00173e7ab275b0e02653f0c","id":132101996,"location_subtype":"","month":"2025-11"},{"category":"violent-crime","location_type":"Force","location":{"latitude":"52.478973","street":{"id":1621896,"name":"On or near Seago Street"},"longitude":"1.746765"},"context":"","outcome_status":{"category":"Unable to prosecute suspect","date":"2025-12"},"persistent_id":"5497d05672f93746d53f020c9bc5456fd2a94e7df8acb224801d72076a0ade20","id":132103057,"location_subtype":"","month":"2025-11"},{"category":"violent-crime","location_type":"Force","location":{"latitude":"52.484543","street":{"id":1621827,"name":"On or near Sports/recreation Area"},"longitude":"1.743977"},"context":"","outcome_status":{"category":"Under investigation","date":"2025-11"},"persistent_id":"98e3e940008b2f309a874680af607f92a8b58ff8ca177ed554db1122e80b3e8e","id":132103840,"location_subtype":"","month":"2025-11"},{"category":"violent-crime","location_type":"Force","location":{"latitude":"52.494697","street":{"id":1621373,"name":"On or near B1375"},"longitude":"1.720250"},"context":"","outcome_status":{"category":"Action to be taken by another organisation","date":"2025-11"},"persistent_id":"555c201dcb8912bfc5fbbea94adb020669b9d3eff171529122f51ba5b231657f","id":132100083,"location_subtype":"","month":"2025-11"},{"category":"violent-crime","location_type":"Force","location":{"latitude":"52.488176","street":{"id":1621734,"name":"On or near Bourne Road"},"longitude":"1.739046"},"context":"","outcome_status":{"category":"Unable to prosecute suspect","date":"2025-12"},"persistent_id":"09a67746a8257b59770b91d0ead317a24df18a441f4505908a64fea0a26dd582","id":132099488,"location_subtype":"","month":"2025-11"},{"category":"violent-crime","location_type":"Force","location":{"latitude":"52.482753","street":{"id":1621932,"name":"On or near St Peter's Street"},"longitude":"1.748398"},"context":"","outcome_status":{"category":"Under investigation","date":"2025-11"},"persistent_id":"026e554dc5ff96b7912e2fb4ada5fda01d26b00151b45195a2d5cb5635297f0c","id":132099224,"location_subtype":"","month":"2025-11"},{"category":"violent-crime","location_type":"Force","location":{"latitude":"52.486488","street":{"id":1621952,"name":"On or near Tethys Place"},"longitude":"1.751721"},"context":"","outcome_status":{"category":"Awaiting court outcome","date":"2025-12"},"persistent_id":"e5eea437993acdd3549c803249945ee5444adcb79e03c0768955939c719aa3be","id":132098749,"location_subtype":"","month":"2025-11"},{"category":"violent-crime","location_type":"Force","location":{"latitude":"52.484749","street":{"id":1621959,"name":"On or near Cambridge Road"},"longitude":"1.751249"},"context":"","outcome_status":{"category":"Unable to prosecute suspect","date":"2025-12"},"persistent_id":"ba40182c4a2661afc173121574d5c53c367f480b56a0c3ea57f5b62c845dba0b","id":132098962,"location_subtype":"","month":"2025-11"},{"category":"violent-crime","location_type":"Force","location":{"latitude":"52.482753","street":{"id":1621932,"name":"On or near St Peter's Street"},"longitude":"1.748398"},"context":"","outcome_status":{"category":"Investigation complete; no suspect identified","date":"2026-01"},"persistent_id":"f4bf163af972cf4fa79eeeedf5be55fbe4e6c55107cd49c7724033d40ddc0bbe","id":132098960,"location_subtype":"","month":"2025-11"},{"category":"violent-crime","location_type":"Force","location":{"latitude":"52.491135","street":{"id":1621781,"name":"On or near Godetia Court"},"longitude":"1.739651"},"context":"","outcome_status":{"category":"Investigation complete; no suspect identified","date":"2025-12"},"persistent_id":"acffa5ccd4b09afc95a593a11f02fbed42a9769e4b3018f361c937e52b913075","id":132098954,"location_subtype":"","month":"2025-11"},{"category":"violent-crime","location_type":"Force","location":{"latitude":"52.482951","street":{"id":1621778,"name":"On or near Marham Road"},"longitude":"1.739869"},"context":"","outcome_status":{"category":"Unable to prosecute suspect","date":"2025-11"},"persistent_id":"7fd97fbed26dd6dd7b74b62d35db2ac19e78b1fa699e4cd85e6afd511c493f5f","id":132098507,"location_subtype":"","month":"2025-11"},{"category":"violent-crime","location_type":"Force","location":{"latitude":"52.491368","street":{"id":1621869,"name":"On or near Churchill Close"},"longitude":"1.744504"},"context":"","outcome_status":{"category":"Unable to prosecute suspect","date":"2025-12"},"persistent_id":"1a036907da25f4287d07427f31ee3ed98a9322c1e731b99f3811f8375b510845","id":132098014,"location_subtype":"","month":"2025-11"},{"category":"violent-crime","location_type":"Force","location":{"latitude":"52.484723","street":{"id":1621980,"name":"On or near Queen's Road"},"longitude":"1.752072"},"context":"","outcome_status":{"category":"Under investigation","date":"2025-11"},"persistent_id":"ed700fbd0f6952d48a5624f168d01627f36b1540217bb7cc3341d056aa012527","id":132098263,"location_subtype":"","month":"2025-11"},{"category":"violent-crime","location_type":"Force","location":{"latitude":"52.490847","street":{"id":1621874,"name":"On or near Arnhem Court"},"longitude":"1.746744"},"context":"","outcome_status":{"category":"Under investigation","date":"2025-11"},"persistent_id":"6cb039a507c6a6db58cddf9eb59f75d4aa393616eca68b8a8b44eefb546ac10b","id":132098258,"location_subtype":"","month":"2025-11"},{"category":"violent-crime","location_type":"Force","location":{"latitude":"52.490118","street":{"id":1621791,"name":"On or near Hollingsworth Road"},"longitude":"1.741067"},"context":"","outcome_status":{"category":"Investigation complete; no suspect identified","date":"2026-01"},"persistent_id":"faf92ccdf4720f26839da943a933390f8a9d2895eb4adbfe667a5c7d2448a185","id":132097442,"location_subtype":"","month":"2025-11"},{"category":"violent-crime","location_type":"Force","location":{"latitude":"52.485925","street":{"id":1621661,"name":"On or near Olive Court"},"longitude":"1.734862"},"context":"","outcome_status":{"category":"Action to be taken by another organisation","date":"2026-01"},"persistent_id":"ec24ef62a78d2ae04095c1fb8d10414512a34f802fd0e127eebb7c2abcfe506b","id":132097439,"location_subtype":"","month":"2025-11"},{"category":"violent-crime","location_type":"Force","location":{"latitude":"52.482753","street":{"id":1621932,"name":"On or near St Peter's Street"},"longitude":"1.748398"},"context":"","outcome_status":{"category":"Under investigation","date":"2025-11"},"persistent_id":"58f785e72eb9e7347fee6aac167edc3fd538078291be2b69a200dfe416df084b","id":132096987,"location_subtype":"","month":"2025-11"},{"category":"violent-crime","location_type":"Force","location":{"latitude":"52.482753","street":{"id":1621932,"name":"On or near St Peter's Street"},"longitude":"1.748398"},"context":"","outcome_status":{"category":"Under investigation","date":"2025-11"},"persistent_id":"ddc34794f0a6e50fc211787439c6bc0351777d5e2cb28f32e8023558f0c7759c","id":132096984,"location_subtype":"","month":"2025-11"},{"category":"violent-crime","location_type":"Force","location":{"latitude":"52.486488","street":{"id":1621952,"name":"On or near Tethys Place"},"longitude":"1.751721"},"context":"","outcome_status":{"category":"Unable to prosecute suspect","date":"2025-12"},"persistent_id":"3c29f1dddb093c43664fbf90b746502762a80c02fe7f315009669b4ca8ae3b9a","id":132103844,"location_subtype":"","month":"2025-11"},{"category":"violent-crime","location_type":"Force","location":{"latitude":"52.477683","street":{"id":1621859,"name":"On or near Beckham Road"},"longitude":"1.743768"},"context":"","outcome_status":{"category":"Action to be taken by another organisation","date":"2025-12"},"persistent_id":"64d3f5a7f8bde29b0bc8c77b52a61a0ee6a03e2375931c572f03988e2c4dde98","id":132103838,"location_subtype":"","month":"2025-11"},{"category":"violent-crime","location_type":"Force","location":{"latitude":"52.477929","street":{"id":1621726,"name":"On or near Montana Place"},"longitude":"1.737704"},"context":"","outcome_status":{"category":"Under investigation","date":"2025-11"},"persistent_id":"ffc59c005aa4f3e049abf473ceabf69009b8274b90b05ca126fbe08556d39c04","id":132103834,"location_subtype":"","month":"2025-11"},{"category":"violent-crime","location_type":"Force","location":{"latitude":"52.487079","street":{"id":1621630,"name":"On or near Elmore Gardens"},"longitude":"1.732779"},"context":"","outcome_status":{"category":"Unable to prosecute suspect","date":"2025-12"},"persistent_id":"d66894e3c78b94d8e703d2108d3c5f473b94219fd3e206aff3f7876e73e438ac","id":132103431,"location_subtype":"","month":"2025-11"},{"category":"violent-crime","location_type":"Force","location":{"latitude":"52.490118","street":{"id":1621791,"name":"On or near Hollingsworth Road"},"longitude":"1.741067"},"context":"","outcome_status":{"category":"Unable to prosecute suspect","date":"2025-12"},"persistent_id":"3ecc6e18af487076f58a2b0d5d8ad33a4b7a09391912d88950642829a17aa9a8","id":132103250,"location_subtype":"","month":"2025-11"},{"category":"violent-crime","location_type":"Force","location":{"latitude":"52.478973","street":{"id":1621896,"name":"On or near Seago Street"},"longitude":"1.746765"},"context":"","outcome_status":{"category":"Unable to prosecute suspect","date":"2025-12"},"persistent_id":"1f988dab221a9e46c461271228f527782f0c3b44e284e3db4cf83d410d133883","id":132103059,"location_subtype":"","month":"2025-11"},{"category":"violent-crime","location_type":"Force","location":{"latitude":"52.484723","street":{"id":1621980,"name":"On or near Queen's Road"},"longitude":"1.752072"},"context":"","outcome_status":{"category":"Under investigation","date":"2025-11"},"persistent_id":"d33bbca7c5eaee93678967a257a8600908f12f23dd06dae9743448188e7b5a1c","id":132102198,"location_subtype":"","month":"2025-11"},{"category":"violent-crime","location_type":"Force","location":{"latitude":"52.491368","street":{"id":1621869,"name":"On or near Churchill Close"},"longitude":"1.744504"},"context":"","outcome_status":{"category":"Under investigation","date":"2025-11"},"persistent_id":"6ccd25ee84af9bca17c36668ba8ebc301a5b1c8aef76231f7b683bf6d91bf43b","id":132102196,"location_subtype":"","month":"2025-11"},{"category":"violent-crime","location_type":"Force","location":{"latitude":"52.484334","street":{"id":1621736,"name":"On or near Mimosa Walk"},"longitude":"1.737953"},"context":"","outcome_status":{"category":"Action to be taken by another organisation","date":"2025-12"},"persistent_id":"f1b8a2d10e480077e6304dc99cf323c30300cffd9d53a5bd4e6697d2271307cf","id":132101990,"location_subtype":"","month":"2025-11"},{"category":"violent-crime","location_type":"Force","location":{"latitude":"52.486488","street":{"id":1621952,"name":"On or near Tethys Place"},"longitude":"1.751721"},"context":"","outcome_status":{"category":"Action to be taken by another organisation","date":"2025-12"},"persistent_id":"47f55bdaea48cbf2b5d11fb993f5718eb5306dd6decfbe595eea67b3b67ad7ce","id":132101999,"location_subtype":"","month":"2025-11"},{"category":"violent-crime","location_type":"Force","location":{"latitude":"52.486488","street":{"id":1621952,"name":"On or near Tethys Place"},"longitude":"1.751721"},"context":"","outcome_status":{"category":"Action to be taken by another organisation","date":"2025-12"},"persistent_id":"c2f25891e69e865e767a87f529a1301a790467ce1d9703608d70ddd5b818f11f","id":132101998,"location_subtype":"","month":"2025-11"},{"category":"violent-crime","location_type":"Force","location":{"latitude":"52.477683","street":{"id":1621859,"name":"On or near Beckham Road"},"longitude":"1.743768"},"context":"","outcome_status":{"category":"Action to be taken by another organisation","date":"2025-12"},"persistent_id":"80bbb82d4c993f8187788f99d4d3407d33af80338fd152681443ac0c26723e25","id":132101494,"location_subtype":"","month":"2025-11"},{"category":"violent-crime","location_type":"Force","location":{"latitude":"52.483545","street":{"id":1621704,"name":"On or near Rose Court"},"longitude":"1.736443"},"context":"","outcome_status":{"category":"Unable to prosecute suspect","date":"2025-12"},"persistent_id":"80f10dca8d338f4f657c98107a298620489b257c666581d94620ee74c4507d79","id":132100770,"location_subtype":"","month":"2025-11"},{"category":"violent-crime","location_type":"Force","location":{"latitude":"52.483756","street":{"id":1621654,"name":"On or near High Beech"},"longitude":"1.733764"},"context":"","outcome_status":{"category":"Unable to prosecute suspect","date":"2025-12"},"persistent_id":"899eec8f52e1a87f560f4cc096bf48ab020c2949321218bfc466699a040df45d","id":132100766,"location_subtype":"","month":"2025-11"},{"category":"violent-crime","location_type":"Force","location":{"latitude":"52.495044","street":{"id":1621662,"name":"On or near Stoven Close"},"longitude":"1.734338"},"context":"","outcome_status":{"category":"Awaiting court outcome","date":"2026-01"},"persistent_id":"59ba740aa8e52ee3e19b0fa862b7c8bd54c26c4d014797e025a1a994833f8e6a","id":132101253,"location_subtype":"","month":"2025-11"},{"category":"violent-crime","location_type":"Force","location":{"latitude":"52.487269","street":{"id":1621994,"name":"On or near Dawn Pointon Place"},"longitude":"1.753762"},"context":"","outcome_status":{"category":"Unable to prosecute suspect","date":"2026-01"},"persistent_id":"5909debf9093e3f780c969715f7cac539bebd973ca9c1f537d4c4fb5f711747b","id":132100530,"location_subtype":"","month":"2025-11"},{"category":"violent-crime","location_type":"Force","location":{"latitude":"52.487269","street":{"id":1621994,"name":"On or near Dawn Pointon Place"},"longitude":"1.753762"},"context":"","outcome_status":{"category":"Unable to prosecute suspect","date":"2026-01"},"persistent_id":"04e3eafc9fd475dd45be55af738985b829b5a89d5d86d9c6d5695a005f5770f2","id":132100532,"location_subtype":"","month":"2025-11"},{"category":"violent-crime","location_type":"Force","location":{"latitude":"52.493520","street":{"id":1621377,"name":"On or near Sports/recreation Area"},"longitude":"1.720399"},"context":"","outcome_status":{"category":"Under investigation","date":"2025-11"},"persistent_id":"5624a2c58a0b3894c29af3daa703d3e62588fb5fd56b63c1fcc757946e7155ff","id":132100517,"location_subtype":"","month":"2025-11"},{"category":"violent-crime","location_type":"Force","location":{"latitude":"52.481199","street":{"id":1621861,"name":"On or near Nicholson Square"},"longitude":"1.744361"},"context":"","outcome_status":{"category":"Under investigation","date":"2025-11"},"persistent_id":"39382b1e22f05369423376fab296d9a8e499e797abc8e23942ad683c3944337f","id":132100096,"location_subtype":"","month":"2025-11"},{"category":"violent-crime","location_type":"Force","location":{"latitude":"52.485964","street":{"id":1621697,"name":"On or near Harp's Close Road"},"longitude":"1.736191"},"context":"","outcome_status":{"category":"Unable to prosecute suspect","date":"2025-12"},"persistent_id":"de4d5bd4d959446ac1d71853c0745cdef21f824ae5d20536045f96b827f5e8ee","id":132100352,"location_subtype":"","month":"2025-11"},{"category":"violent-crime","location_type":"Force","location":{"latitude":"52.501992","street":{"id":1621608,"name":"On or near Stimpson Close"},"longitude":"1.731376"},"context":"","outcome_status":{"category":"Unable to prosecute suspect","date":"2026-01"},"persistent_id":"ab103ee605ec1dd6b3c759104c04a15abee32b790d26e682514a9bc7ca4dc527","id":132100350,"location_subtype":"","month":"2025-11"},{"category":"violent-crime","location_type":"Force","location":{"latitude":"52.479058","street":{"id":1621871,"name":"On or near Ethel Road"},"longitude":"1.745770"},"context":"","outcome_status":{"category":"Action to be taken by another organisation","date":"2026-01"},"persistent_id":"804e0b754527a1b2b4113ea23843784f4ebe4bdf691b251d8d68f347fedd44db","id":132100354,"location_subtype":"","month":"2025-11"},{"category":"violent-crime","location_type":"Force","location":{"latitude":"52.484334","street":{"id":1621736,"name":"On or near Mimosa Walk"},"longitude":"1.737953"},"context":"","outcome_status":{"category":"Unable to prosecute suspect","date":"2025-12"},"persistent_id":"bfc3fbfa3dd58c9c888e26731a65c2099e4ab73d4bd4e8b63e6b6debe7d4f603","id":132103639,"location_subtype":"","month":"2025-11"},{"category":"violent-crime","location_type":"Force","location":{"latitude":"52.480376","street":{"id":1621910,"name":"On or near Beresford Road"},"longitude":"1.748475"},"context":"","outcome_status":{"category":"Further action is not in the public interest","date":"2026-01"},"persistent_id":"cf6e0d878be68a5f8e9c5f7855bb479a22db6bd2eebfe27c4b9efe5f13b5d9a6","id":132103435,"location_subtype":"","month":"2025-11"},{"category":"violent-crime","location_type":"Force","location":{"latitude":"52.480376","street":{"id":1621910,"name":"On or near Beresford Road"},"longitude":"1.748475"},"context":"","outcome_status":{"category":"Unable to prosecute suspect","date":"2026-01"},"persistent_id":"42bd8db82c6b829447504a6c4d6c6943719b32b948b7b6a50b062595a022794e","id":132103437,"location_subtype":"","month":"2025-11"},{"category":"violent-crime","location_type":"Force","location":{"latitude":"52.495589","street":{"id":1621628,"name":"On or near Henham Road"},"longitude":"1.732763"},"context":"","outcome_status":{"category":"Under investigation","date":"2025-11"},"persistent_id":"a6fa32d45bbb3715a1a36f916541fc3585b872617b71fd73f7d53839e4847aa1","id":132102830,"location_subtype":"","month":"2025-11"},{"category":"violent-crime","location_type":"Force","location":{"latitude":"52.481199","street":{"id":1621861,"name":"On or near Nicholson Square"},"longitude":"1.744361"},"context":"","outcome_status":{"category":"Unable to prosecute suspect","date":"2026-01"},"persistent_id":"5a4d1ec491f91a575b13766c0ecb7c5d621fa0aadc5f5e88579724617c276a6a","id":132102379,"location_subtype":"","month":"2025-11"},{"category":"violent-crime","location_type":"Force","location":{"latitude":"52.488176","street":{"id":1621734,"name":"On or near Bourne Road"},"longitude":"1.739046"},"context":"","outcome_status":{"category":"Action to be taken by another organisation","date":"2025-12"},"persistent_id":"27260cf1ce88cba19d9ff37ac12c0debb212c8ea6edf333cdabbe126b25569a8","id":132099779,"location_subtype":"","month":"2025-11"},{"category":"violent-crime","location_type":"Force","location":{"latitude":"52.487269","street":{"id":1621994,"name":"On or near Dawn Pointon Place"},"longitude":"1.753762"},"context":"","outcome_status":{"category":"Action to be taken by another organisation","date":"2025-11"},"persistent_id":"7534cb4990b9a47c249c20531a8e455a6ec73fece47ce8ca1aa8b85907bb8a30","id":132098025,"location_subtype":"","month":"2025-11"},{"category":"violent-crime","location_type":"Force","location":{"latitude":"52.494697","street":{"id":1621373,"name":"On or near B1375"},"longitude":"1.720250"},"context":"","outcome_status":{"category":"Action to be taken by another organisation","date":"2025-11"},"persistent_id":"9ccaec82a7e3b44cefb81a8222c463315a8311580c9af2f7af7b371155402f66","id":132100085,"location_subtype":"","month":"2025-11"},{"category":"violent-crime","location_type":"Force","location":{"latitude":"52.479967","street":{"id":1621369,"name":"On or near Leathes Close"},"longitude":"1.720700"},"context":"","outcome_status":{"category":"Investigation complete; no suspect identified","date":"2025-11"},"persistent_id":"1f3ea762d57faeab5e79ae8b0e39868a81d61bb7a6d8dee4f61902492b2d11fe","id":132098243,"location_subtype":"","month":"2025-11"},{"category":"violent-crime","location_type":"Force","location":{"latitude":"52.495364","street":{"id":1621706,"name":"On or near Astbury Road"},"longitude":"1.736738"},"context":"","outcome_status":{"category":"Action to be taken by another organisation","date":"2025-11"},"persistent_id":"8a98b6b5d54d2ec4cff4ef4c14f92dd47e89dcb65d7da0101f20482768b86102","id":132101490,"location_subtype":"","month":"2025-11"},{"category":"violent-crime","location_type":"Force","location":{"latitude":"52.479619","street":{"id":1621800,"name":"On or near Halcyon Crescent"},"longitude":"1.741148"},"context":"","outcome_status":{"category":"Unable to prosecute suspect","date":"2025-11"},"persistent_id":"747a3bfd0f6482533bbeb618d8318025fc8423068f9a56dbd169200065d26806","id":132101492,"location_subtype":"","month":"2025-11"},{"category":"violent-crime","location_type":"Force","location":{"latitude":"52.483470","street":{"id":1621929,"name":"On or near Burton Street"},"longitude":"1.749048"},"context":"","outcome_status":{"category":"Unable to prosecute suspect","date":"2025-11"},"persistent_id":"320313b472f36b81b36b25ce202ce43c01b563f5c6c891adc776c28d71019813","id":132101498,"location_subtype":"","month":"2025-11"},{"category":"violent-crime","location_type":"Force","location":{"latitude":"52.497371","street":{"id":1621650,"name":"On or near Briar Close"},"longitude":"1.733578"},"context":"","outcome_status":{"category":"Unable to prosecute suspect","date":"2025-11"},"persistent_id":"9ddf5872f3da7e3afb93dacc27cfd68045af7ed3c9dd3362e9966c6d84063d13","id":132101984,"location_subtype":"","month":"2025-11"},{"category":"violent-crime","location_type":"Force","location":{"latitude":"52.486488","street":{"id":1621952,"name":"On or near Tethys Place"},"longitude":"1.751721"},"context":"","outcome_status":{"category":"Action to be taken by another organisation","date":"2025-12"},"persistent_id":"925626e730fdf55d3fdfa1e4c273092ad1b653dbd07c436d743af7bd19e1e3c3","id":132102001,"location_subtype":"","month":"2025-11"},{"category":"violent-crime","location_type":"Force","location":{"latitude":"52.484474","street":{"id":1622000,"name":"On or near Parking Area"},"longitude":"1.753111"},"context":"","outcome_status":{"category":"Investigation complete; no suspect identified","date":"2025-11"},"persistent_id":"dba12bc75e837035663c32ef3c84300e7e3b5e459a551018feb6cb465a8bcdf1","id":132096995,"location_subtype":"","month":"2025-11"},{"category":"other-crime","location_type":"Force","location":{"latitude":"52.487836","street":{"id":1621078,"name":"On or near Dubordien Close"},"longitude":"1.707897"},"context":"","outcome_status":{"category":"Action to be taken by another organisation","date":"2025-11"},"persistent_id":"9ab99b74fb3905ab7938290150e226167002eeebc44861e3310ef783b732741e","id":132099587,"location_subtype":"","month":"2025-11"},{"category":"other-crime","location_type":"Force","location":{"latitude":"52.491135","street":{"id":1621781,"name":"On or near Godetia Court"},"longitude":"1.739651"},"context":"","outcome_status":{"category":"Under investigation","date":"2025-11"},"persistent_id":"344efcebaf1072c492ae6b4b0eb86fbc5b9bb89f04ba9977bb103799cf5e7546","id":132102899,"location_subtype":"","month":"2025-11"}]