[{"category":"anti-social-behaviour","location_type":"Force","location":{"latitude":"51.828440","street":{"id":1957033,"name":"On or near Helwys Place"},"longitude":"-1.291406"},"context":"","outcome_status":null,"persistent_id":"","id":126481039,"location_subtype":"","month":"2025-02"},{"category":"anti-social-behaviour","location_type":"Force","location":{"latitude":"51.822432","street":{"id":1957806,"name":"On or near Woodlands"},"longitude":"-1.274829"},"context":"","outcome_status":null,"persistent_id":"","id":126481226,"location_subtype":"","month":"2025-02"},{"category":"anti-social-behaviour","location_type":"Force","location":{"latitude":"51.824131","street":{"id":1956967,"name":"On or near Axtell Close"},"longitude":"-1.297089"},"context":"","outcome_status":null,"persistent_id":"","id":126480968,"location_subtype":"","month":"2025-02"},{"category":"burglary","location_type":"Force","location":{"latitude":"51.825579","street":{"id":1957682,"name":"On or near Webb's Way"},"longitude":"-1.277812"},"context":"","outcome_status":{"category":"Investigation complete; no suspect identified","date":"2025-03"},"persistent_id":"fa295d113ecdaced0f233e9956a380e5bf4d03afb7b80102252e80c887a30fcb","id":126481208,"location_subtype":"","month":"2025-02"},{"category":"burglary","location_type":"Force","location":{"latitude":"51.821840","street":{"id":1957375,"name":"On or near Sterling Road"},"longitude":"-1.286910"},"context":"","outcome_status":{"category":"Investigation complete; no suspect identified","date":"2025-06"},"persistent_id":"7b848f79f161ed7b87fd1281f881efdc76d24659051943061ed77d16d1f8aaec","id":126481083,"location_subtype":"","month":"2025-02"},{"category":"burglary","location_type":"Force","location":{"latitude":"51.819917","street":{"id":1957355,"name":"On or near Treeground Place"},"longitude":"-1.287086"},"context":"","outcome_status":{"category":"Investigation complete; no suspect identified","date":"2025-04"},"persistent_id":"530eed5178efe956c7742f445b1a3546495d4edf059febd41b48d4d7a2e4f80a","id":126481085,"location_subtype":"","month":"2025-02"},{"category":"burglary","location_type":"Force","location":{"latitude":"51.825579","street":{"id":1957682,"name":"On or near Webb's Way"},"longitude":"-1.277812"},"context":"","outcome_status":{"category":"Investigation complete; no suspect identified","date":"2025-03"},"persistent_id":"429724891ce39ac44d7d5106dcf7fd4a5323997a2b0ca1549ab6686dbef9b215","id":126481202,"location_subtype":"","month":"2025-02"},{"category":"criminal-damage-arson","location_type":"Force","location":{"latitude":"51.822449","street":{"id":1957384,"name":"On or near Exeter Road"},"longitude":"-1.284985"},"context":"","outcome_status":{"category":"Investigation complete; no suspect identified","date":"2025-02"},"persistent_id":"5dae321f5353071ec833ad448941e6f6a639e7d613fb6fa4c385b423c7ec41b5","id":126481108,"location_subtype":"","month":"2025-02"},{"category":"criminal-damage-arson","location_type":"Force","location":{"latitude":"51.827579","street":{"id":1956998,"name":"On or near Banbury Road"},"longitude":"-1.296281"},"context":"","outcome_status":{"category":"Unable to prosecute suspect","date":"2025-02"},"persistent_id":"d6d5f5aa912207c7306ed3ba73e5bfdc3e9bb845dda04a71eddd409a6ebae340","id":126480989,"location_subtype":"","month":"2025-02"},{"category":"criminal-damage-arson","location_type":"Force","location":{"latitude":"51.828793","street":{"id":1956970,"name":"On or near Charlbury Close"},"longitude":"-1.296363"},"context":"","outcome_status":{"category":"Unable to prosecute suspect","date":"2025-07"},"persistent_id":"135cd8e84638a16251c0ed16282ba2651ecc86bf880456e32fc1b5d14325f59e","id":126480951,"location_subtype":"","month":"2025-02"},{"category":"drugs","location_type":"Force","location":{"latitude":"51.820054","street":{"id":1957072,"name":"On or near Morrell Close"},"longitude":"-1.294860"},"context":"","outcome_status":{"category":"Investigation complete; no suspect identified","date":"2025-04"},"persistent_id":"98065eec21f9156bdbfd32c1a68fc5d26e69a9430dd30f3d097ca5b3582b0eaa","id":126481000,"location_subtype":"","month":"2025-02"},{"category":"other-theft","location_type":"Force","location":{"latitude":"51.822595","street":{"id":1957115,"name":"On or near The Rookery"},"longitude":"-1.292746"},"context":"","outcome_status":{"category":"Investigation complete; no suspect identified","date":"2025-02"},"persistent_id":"c411b2b943875820bd1559c29b076602426fc5cf5658914772e0d06591d301c3","id":126481016,"location_subtype":"","month":"2025-02"},{"category":"other-theft","location_type":"Force","location":{"latitude":"51.830192","street":{"id":1957391,"name":"On or near Parking Area"},"longitude":"-1.279407"},"context":"","outcome_status":{"category":"Investigation complete; no suspect identified","date":"2025-03"},"persistent_id":"34b768d0afbc7b4a1f7b6591434e06849990e4206eb11ed69e7d96288ae55aac","id":126481170,"location_subtype":"","month":"2025-02"},{"category":"other-theft","location_type":"Force","location":{"latitude":"51.818599","street":{"id":1957889,"name":"On or near Kingsway Drive"},"longitude":"-1.272903"},"context":"","outcome_status":{"category":"Investigation complete; no suspect identified","date":"2025-02"},"persistent_id":"feb4c0a77b65afa932420af71f228c8cb054632644c87e5ccc9e3a67fdd9c83f","id":126481264,"location_subtype":"","month":"2025-02"},{"category":"other-theft","location_type":"Force","location":{"latitude":"51.818599","street":{"id":1957889,"name":"On or near Kingsway Drive"},"longitude":"-1.272903"},"context":"","outcome_status":{"category":"Investigation complete; no suspect identified","date":"2025-02"},"persistent_id":"e78f12e72330b3e4d0c5cf3b483cd624e53193e3854d532cf909e88350349a9b","id":126481265,"location_subtype":"","month":"2025-02"},{"category":"public-order","location_type":"Force","location":{"latitude":"51.821255","street":{"id":1957810,"name":"On or near Cherwell Avenue"},"longitude":"-1.274950"},"context":"","outcome_status":{"category":"Unable to prosecute suspect","date":"2025-02"},"persistent_id":"31f258a8cd5ad2f7b7ea598a6d20a1f7b9acc6b077da7873d66f3891c335cd0d","id":126481242,"location_subtype":"","month":"2025-02"},{"category":"public-order","location_type":"Force","location":{"latitude":"51.824657","street":{"id":1956981,"name":"On or near Wilsdon Way"},"longitude":"-1.296384"},"context":"","outcome_status":{"category":"Unable to prosecute suspect","date":"2025-03"},"persistent_id":"a511e0e2218eaeb2fa9400344c0d3435ed2b0ee694272d40832182766c2186c2","id":126480998,"location_subtype":"","month":"2025-02"},{"category":"public-order","location_type":"Force","location":{"latitude":"51.823715","street":{"id":1957211,"name":"On or near Watts Way"},"longitude":"-1.289173"},"context":"","outcome_status":{"category":"Unable to prosecute suspect","date":"2025-04"},"persistent_id":"10f91bb12b755f33b182de979c7ae81f5ef7a0115953eb2f7a92eb6ff4c3b877","id":126481068,"location_subtype":"","month":"2025-02"},{"category":"shoplifting","location_type":"Force","location":{"latitude":"51.827746","street":{"id":1956795,"name":"On or near Flatford Place"},"longitude":"-1.298629"},"context":"","outcome_status":{"category":"Unable to prosecute suspect","date":"2025-03"},"persistent_id":"3cd500012f4fabfbb165d955d3b3ae73edf404b9c8bef433e272ff3ed4167412","id":126480949,"location_subtype":"","month":"2025-02"},{"category":"shoplifting","location_type":"Force","location":{"latitude":"51.823715","street":{"id":1957211,"name":"On or near Watts Way"},"longitude":"-1.289173"},"context":"","outcome_status":{"category":"Investigation complete; no suspect identified","date":"2025-02"},"persistent_id":"0c3f18581ad5e3e2144893ff006247bf85465240ab25aabc6ba3d394d1e11b79","id":126481056,"location_subtype":"","month":"2025-02"},{"category":"shoplifting","location_type":"Force","location":{"latitude":"51.829854","street":{"id":1956856,"name":"On or near Supermarket"},"longitude":"-1.299409"},"context":"","outcome_status":{"category":"Status update unavailable","date":"2025-06"},"persistent_id":"1d23d4bf9d13940e5703ef75d4dbe1860dccc8ddf47033884c3909d0f40804a1","id":126480933,"location_subtype":"","month":"2025-02"},{"category":"shoplifting","location_type":"Force","location":{"latitude":"51.829854","street":{"id":1956856,"name":"On or near Supermarket"},"longitude":"-1.299409"},"context":"","outcome_status":{"category":"Unable to prosecute suspect","date":"2025-05"},"persistent_id":"e7ed6288c0c381b6d675d65d6310178e24dda50db3223bb45b9ac63945735b86","id":126480934,"location_subtype":"","month":"2025-02"},{"category":"shoplifting","location_type":"Force","location":{"latitude":"51.829854","street":{"id":1956856,"name":"On or near Supermarket"},"longitude":"-1.299409"},"context":"","outcome_status":{"category":"Unable to prosecute suspect","date":"2025-05"},"persistent_id":"a2f429626722d3e92dc558ba88c5c83d2b5ca94ec2d98f29f05e1abf7221975a","id":126480935,"location_subtype":"","month":"2025-02"},{"category":"shoplifting","location_type":"Force","location":{"latitude":"51.829854","street":{"id":1956856,"name":"On or near Supermarket"},"longitude":"-1.299409"},"context":"","outcome_status":{"category":"Unable to prosecute suspect","date":"2025-05"},"persistent_id":"380d05c5e1fc315f3483d94331a096a3155e56ea25b82cab69aa92f94311ccc0","id":126480931,"location_subtype":"","month":"2025-02"},{"category":"shoplifting","location_type":"Force","location":{"latitude":"51.829854","street":{"id":1956856,"name":"On or near Supermarket"},"longitude":"-1.299409"},"context":"","outcome_status":{"category":"Unable to prosecute suspect","date":"2025-05"},"persistent_id":"b18ba03f6746229c580df33573e2e7cbe8c5f79f9e4f075e8fc43ed9c30cce50","id":126480932,"location_subtype":"","month":"2025-02"},{"category":"shoplifting","location_type":"Force","location":{"latitude":"51.827746","street":{"id":1956795,"name":"On or near Flatford Place"},"longitude":"-1.298629"},"context":"","outcome_status":{"category":"Unable to prosecute suspect","date":"2025-05"},"persistent_id":"626e9c9f80825f5e1110db64340766dac914dbfb243255f7a9979a9c2bcec046","id":126480948,"location_subtype":"","month":"2025-02"},{"category":"vehicle-crime","location_type":"Force","location":{"latitude":"51.827370","street":{"id":1957433,"name":"On or near St Mary's Close"},"longitude":"-1.283964"},"context":"","outcome_status":{"category":"Investigation complete; no suspect identified","date":"2025-02"},"persistent_id":"85a7775106616dcc17b51835efda660b096ade5d38453e3ab6cb4bd2e1a9b026","id":126481107,"location_subtype":"","month":"2025-02"},{"category":"violent-crime","location_type":"Force","location":{"latitude":"51.826233","street":{"id":1957119,"name":"On or near Wise Avenue"},"longitude":"-1.292282"},"context":"","outcome_status":{"category":"Unable to prosecute suspect","date":"2025-03"},"persistent_id":"f1a107e9d024e952de0e48105b5ecb343f7aac870cb95530dd64f282fae91e9b","id":126481036,"location_subtype":"","month":"2025-02"},{"category":"violent-crime","location_type":"Force","location":{"latitude":"51.822432","street":{"id":1957806,"name":"On or near Woodlands"},"longitude":"-1.274829"},"context":"","outcome_status":{"category":"Status update unavailable","date":"2025-06"},"persistent_id":"f6cef9e75ab40241221ce81f854f0c12986331413fa5bcef5a708dd4d363a13e","id":126481228,"location_subtype":"","month":"2025-02"},{"category":"violent-crime","location_type":"Force","location":{"latitude":"51.822432","street":{"id":1957806,"name":"On or near Woodlands"},"longitude":"-1.274829"},"context":"","outcome_status":{"category":"Unable to prosecute suspect","date":"2025-04"},"persistent_id":"7b1dacaffdda2a815cc596482990a14c8a6e5be51335dee0424812c12e6afcf0","id":126481224,"location_subtype":"","month":"2025-02"},{"category":"violent-crime","location_type":"Force","location":{"latitude":"51.823942","street":{"id":1957362,"name":"On or near High Street"},"longitude":"-1.286630"},"context":"","outcome_status":{"category":"Investigation complete; no suspect identified","date":"2025-02"},"persistent_id":"40cbe3796626b57bb3e6c7d008837c932701bfc98a1860d69a4f6902026d22b4","id":126481077,"location_subtype":"","month":"2025-02"},{"category":"violent-crime","location_type":"Force","location":{"latitude":"51.828048","street":{"id":1957309,"name":"On or near Meadow View"},"longitude":"-1.287625"},"context":"","outcome_status":{"category":"Unable to prosecute suspect","date":"2025-10"},"persistent_id":"8f9f1ba106bd26c85b272ec30cb012a19604c7d29929971911e9efb5c530cfaa","id":126481090,"location_subtype":"","month":"2025-02"},{"category":"violent-crime","location_type":"Force","location":{"latitude":"51.823221","street":{"id":1957189,"name":"On or near Greystones Court"},"longitude":"-1.292271"},"context":"","outcome_status":{"category":"Unable to prosecute suspect","date":"2025-04"},"persistent_id":"71745f4356da5db346c045ec3400617fa9fc1affe5e0c40159516299b0ce382a","id":126481042,"location_subtype":"","month":"2025-02"},{"category":"violent-crime","location_type":"Force","location":{"latitude":"51.820429","street":{"id":1957551,"name":"On or near Honor Close"},"longitude":"-1.281129"},"context":"","outcome_status":{"category":"Unable to prosecute suspect","date":"2025-05"},"persistent_id":"1de9db21edde676ec6bd76ea0c6724be74533e8a11510ebdbb9df9e370f96a60","id":126481146,"location_subtype":"","month":"2025-02"},{"category":"violent-crime","location_type":"Force","location":{"latitude":"51.822432","street":{"id":1957806,"name":"On or near Woodlands"},"longitude":"-1.274829"},"context":"","outcome_status":{"category":"Status update unavailable","date":"2025-06"},"persistent_id":"fff146fd6b17ad676a574bce02f6683d71e290c0a16ec7956ff96b35814ec0b3","id":126481227,"location_subtype":"","month":"2025-02"},{"category":"violent-crime","location_type":"Force","location":{"latitude":"51.819361","street":{"id":1957129,"name":"On or near Calves Close"},"longitude":"-1.293202"},"context":"","outcome_status":{"category":"Unable to prosecute suspect","date":"2025-02"},"persistent_id":"81a83c8922a37a3523ae2a6adfe7a1cf22405ed73824ae5dde8b13b4c97d7c5d","id":126481032,"location_subtype":"","month":"2025-02"},{"category":"violent-crime","location_type":"Force","location":{"latitude":"51.833151","street":{"id":1956526,"name":"On or near Parking Area"},"longitude":"-1.302585"},"context":"","outcome_status":{"category":"Unable to prosecute suspect","date":"2025-03"},"persistent_id":"ba4f1d7f7e2a242fcbdbeef9db14f9d96bca4d506993a93a69524b297f4c54ba","id":126480835,"location_subtype":"","month":"2025-02"}]