[{"category":"anti-social-behaviour","location_type":"Force","location":{"latitude":"52.595811","street":{"id":2031539,"name":"On or near Eyrescroft"},"longitude":"-0.285830"},"context":"","outcome_status":null,"persistent_id":"","id":128913314,"location_subtype":"","month":"2025-06"},{"category":"anti-social-behaviour","location_type":"Force","location":{"latitude":"52.583152","street":{"id":2032835,"name":"On or near Westfield Road"},"longitude":"-0.257526"},"context":"","outcome_status":null,"persistent_id":"","id":128912709,"location_subtype":"","month":"2025-06"},{"category":"anti-social-behaviour","location_type":"Force","location":{"latitude":"52.585692","street":{"id":2033040,"name":"On or near English Street"},"longitude":"-0.252377"},"context":"","outcome_status":null,"persistent_id":"","id":128912564,"location_subtype":"","month":"2025-06"},{"category":"anti-social-behaviour","location_type":"Force","location":{"latitude":"52.583743","street":{"id":2032737,"name":"On or near Sports/recreation Area"},"longitude":"-0.258065"},"context":"","outcome_status":null,"persistent_id":"","id":128912513,"location_subtype":"","month":"2025-06"},{"category":"anti-social-behaviour","location_type":"Force","location":{"latitude":"52.582693","street":{"id":2031497,"name":"On or near Tyesdale"},"longitude":"-0.286489"},"context":"","outcome_status":null,"persistent_id":"","id":128912361,"location_subtype":"","month":"2025-06"},{"category":"anti-social-behaviour","location_type":"Force","location":{"latitude":"52.590564","street":{"id":2031929,"name":"On or near Brookfurlong"},"longitude":"-0.275582"},"context":"","outcome_status":null,"persistent_id":"","id":128912342,"location_subtype":"","month":"2025-06"},{"category":"anti-social-behaviour","location_type":"Force","location":{"latitude":"52.581840","street":{"id":2032841,"name":"On or near Supermarket"},"longitude":"-0.257271"},"context":"","outcome_status":null,"persistent_id":"","id":128913543,"location_subtype":"","month":"2025-06"},{"category":"anti-social-behaviour","location_type":"Force","location":{"latitude":"52.583922","street":{"id":2031760,"name":"On or near Hospital"},"longitude":"-0.279391"},"context":"","outcome_status":null,"persistent_id":"","id":128916671,"location_subtype":"","month":"2025-06"},{"category":"anti-social-behaviour","location_type":"Force","location":{"latitude":"52.590923","street":{"id":2031694,"name":"On or near Supermarket"},"longitude":"-0.282344"},"context":"","outcome_status":null,"persistent_id":"","id":128916649,"location_subtype":"","month":"2025-06"},{"category":"anti-social-behaviour","location_type":"Force","location":{"latitude":"52.591497","street":{"id":2032818,"name":"On or near Peppercorn Close"},"longitude":"-0.255822"},"context":"","outcome_status":null,"persistent_id":"","id":128916519,"location_subtype":"","month":"2025-06"},{"category":"anti-social-behaviour","location_type":"Force","location":{"latitude":"52.583922","street":{"id":2031760,"name":"On or near Hospital"},"longitude":"-0.279391"},"context":"","outcome_status":null,"persistent_id":"","id":128916949,"location_subtype":"","month":"2025-06"},{"category":"anti-social-behaviour","location_type":"Force","location":{"latitude":"52.576688","street":{"id":2032865,"name":"On or near Clifton Avenue"},"longitude":"-0.256351"},"context":"","outcome_status":null,"persistent_id":"","id":128916798,"location_subtype":"","month":"2025-06"},{"category":"anti-social-behaviour","location_type":"Force","location":{"latitude":"52.576688","street":{"id":2032865,"name":"On or near Clifton Avenue"},"longitude":"-0.256351"},"context":"","outcome_status":null,"persistent_id":"","id":128916367,"location_subtype":"","month":"2025-06"},{"category":"anti-social-behaviour","location_type":"Force","location":{"latitude":"52.591520","street":{"id":2032002,"name":"On or near Bader Close"},"longitude":"-0.273965"},"context":"","outcome_status":null,"persistent_id":"","id":128916361,"location_subtype":"","month":"2025-06"},{"category":"anti-social-behaviour","location_type":"Force","location":{"latitude":"52.592279","street":{"id":2032200,"name":"On or near Wollaston Road"},"longitude":"-0.269861"},"context":"","outcome_status":null,"persistent_id":"","id":128915111,"location_subtype":"","month":"2025-06"},{"category":"anti-social-behaviour","location_type":"Force","location":{"latitude":"52.579438","street":{"id":2032754,"name":"On or near Nicholls Avenue"},"longitude":"-0.258677"},"context":"","outcome_status":null,"persistent_id":"","id":128917653,"location_subtype":"","month":"2025-06"},{"category":"anti-social-behaviour","location_type":"Force","location":{"latitude":"52.580512","street":{"id":2032730,"name":"On or near Priory Road"},"longitude":"-0.259564"},"context":"","outcome_status":null,"persistent_id":"","id":128915045,"location_subtype":"","month":"2025-06"},{"category":"anti-social-behaviour","location_type":"Force","location":{"latitude":"52.588241","street":{"id":2032027,"name":"On or near Tansor Garth"},"longitude":"-0.272913"},"context":"","outcome_status":null,"persistent_id":"","id":128915009,"location_subtype":"","month":"2025-06"},{"category":"anti-social-behaviour","location_type":"Force","location":{"latitude":"52.583854","street":{"id":2032163,"name":"On or near Cranford Drive"},"longitude":"-0.269823"},"context":"","outcome_status":null,"persistent_id":"","id":128914942,"location_subtype":"","month":"2025-06"},{"category":"anti-social-behaviour","location_type":"Force","location":{"latitude":"52.581435","street":{"id":2032253,"name":"On or near Wilton Drive"},"longitude":"-0.268000"},"context":"","outcome_status":null,"persistent_id":"","id":128917096,"location_subtype":"","month":"2025-06"},{"category":"anti-social-behaviour","location_type":"Force","location":{"latitude":"52.579204","street":{"id":2031693,"name":"On or near Thorseby Close"},"longitude":"-0.282050"},"context":"","outcome_status":null,"persistent_id":"","id":128914938,"location_subtype":"","month":"2025-06"},{"category":"anti-social-behaviour","location_type":"Force","location":{"latitude":"52.570432","street":{"id":2032092,"name":"On or near A1179"},"longitude":"-0.271768"},"context":"","outcome_status":null,"persistent_id":"","id":128914906,"location_subtype":"","month":"2025-06"},{"category":"anti-social-behaviour","location_type":"Force","location":{"latitude":"52.580460","street":{"id":2031827,"name":"On or near Bramall Court"},"longitude":"-0.275108"},"context":"","outcome_status":null,"persistent_id":"","id":128914889,"location_subtype":"","month":"2025-06"},{"category":"anti-social-behaviour","location_type":"Force","location":{"latitude":"52.589161","street":{"id":2031664,"name":"On or near Theatre/concert Hall"},"longitude":"-0.283594"},"context":"","outcome_status":null,"persistent_id":"","id":128914188,"location_subtype":"","month":"2025-06"},{"category":"anti-social-behaviour","location_type":"Force","location":{"latitude":"52.575050","street":{"id":2032749,"name":"On or near Anderson Drive"},"longitude":"-0.259264"},"context":"","outcome_status":null,"persistent_id":"","id":128912250,"location_subtype":"","month":"2025-06"},{"category":"anti-social-behaviour","location_type":"Force","location":{"latitude":"52.583716","street":{"id":2033007,"name":"On or near Bourges Boulevard"},"longitude":"-0.252500"},"context":"","outcome_status":null,"persistent_id":"","id":128914061,"location_subtype":"","month":"2025-06"},{"category":"anti-social-behaviour","location_type":"Force","location":{"latitude":"52.579873","street":{"id":2032516,"name":"On or near Hacke Road"},"longitude":"-0.262010"},"context":"","outcome_status":null,"persistent_id":"","id":128913645,"location_subtype":"","month":"2025-06"},{"category":"anti-social-behaviour","location_type":"Force","location":{"latitude":"52.593478","street":{"id":2032805,"name":"On or near Brassey Close"},"longitude":"-0.257810"},"context":"","outcome_status":null,"persistent_id":"","id":128913353,"location_subtype":"","month":"2025-06"},{"category":"anti-social-behaviour","location_type":"Force","location":{"latitude":"52.581840","street":{"id":2032841,"name":"On or near Supermarket"},"longitude":"-0.257271"},"context":"","outcome_status":null,"persistent_id":"","id":128912220,"location_subtype":"","month":"2025-06"},{"category":"anti-social-behaviour","location_type":"Force","location":{"latitude":"52.591068","street":{"id":2032244,"name":"On or near Wicken Way"},"longitude":"-0.269451"},"context":"","outcome_status":null,"persistent_id":"","id":128914278,"location_subtype":"","month":"2025-06"},{"category":"anti-social-behaviour","location_type":"Force","location":{"latitude":"52.579873","street":{"id":2032516,"name":"On or near Hacke Road"},"longitude":"-0.262010"},"context":"","outcome_status":null,"persistent_id":"","id":128913669,"location_subtype":"","month":"2025-06"},{"category":"anti-social-behaviour","location_type":"Force","location":{"latitude":"52.590483","street":{"id":2032994,"name":"On or near Sports/recreation Area"},"longitude":"-0.253772"},"context":"","outcome_status":null,"persistent_id":"","id":128913489,"location_subtype":"","month":"2025-06"},{"category":"anti-social-behaviour","location_type":"Force","location":{"latitude":"52.589620","street":{"id":2032285,"name":"On or near Gransley Rise"},"longitude":"-0.267574"},"context":"","outcome_status":null,"persistent_id":"","id":128913320,"location_subtype":"","month":"2025-06"},{"category":"anti-social-behaviour","location_type":"Force","location":{"latitude":"52.575050","street":{"id":2032749,"name":"On or near Anderson Drive"},"longitude":"-0.259264"},"context":"","outcome_status":null,"persistent_id":"","id":128916290,"location_subtype":"","month":"2025-06"},{"category":"anti-social-behaviour","location_type":"Force","location":{"latitude":"52.581840","street":{"id":2032841,"name":"On or near Supermarket"},"longitude":"-0.257271"},"context":"","outcome_status":null,"persistent_id":"","id":128916201,"location_subtype":"","month":"2025-06"},{"category":"anti-social-behaviour","location_type":"Force","location":{"latitude":"52.591214","street":{"id":2031663,"name":"On or near Supermarket"},"longitude":"-0.283694"},"context":"","outcome_status":null,"persistent_id":"","id":128916075,"location_subtype":"","month":"2025-06"},{"category":"anti-social-behaviour","location_type":"Force","location":{"latitude":"52.571407","street":{"id":2032469,"name":"On or near Thorpe Meadows"},"longitude":"-0.265281"},"context":"","outcome_status":null,"persistent_id":"","id":128915733,"location_subtype":"","month":"2025-06"},{"category":"anti-social-behaviour","location_type":"Force","location":{"latitude":"52.583152","street":{"id":2032835,"name":"On or near Westfield Road"},"longitude":"-0.257526"},"context":"","outcome_status":null,"persistent_id":"","id":128915692,"location_subtype":"","month":"2025-06"},{"category":"anti-social-behaviour","location_type":"Force","location":{"latitude":"52.593478","street":{"id":2032805,"name":"On or near Brassey Close"},"longitude":"-0.257810"},"context":"","outcome_status":null,"persistent_id":"","id":128915634,"location_subtype":"","month":"2025-06"},{"category":"anti-social-behaviour","location_type":"Force","location":{"latitude":"52.585692","street":{"id":2033040,"name":"On or near English Street"},"longitude":"-0.252377"},"context":"","outcome_status":null,"persistent_id":"","id":128915585,"location_subtype":"","month":"2025-06"},{"category":"anti-social-behaviour","location_type":"Force","location":{"latitude":"52.581923","street":{"id":2032034,"name":"On or near Atherstone Avenue"},"longitude":"-0.271862"},"context":"","outcome_status":null,"persistent_id":"","id":128915574,"location_subtype":"","month":"2025-06"},{"category":"anti-social-behaviour","location_type":"Force","location":{"latitude":"52.582757","street":{"id":2031341,"name":"On or near Sprignall"},"longitude":"-0.290856"},"context":"","outcome_status":null,"persistent_id":"","id":128915550,"location_subtype":"","month":"2025-06"},{"category":"anti-social-behaviour","location_type":"Force","location":{"latitude":"52.589644","street":{"id":2032124,"name":"On or near Lutton Grove"},"longitude":"-0.269211"},"context":"","outcome_status":null,"persistent_id":"","id":128915466,"location_subtype":"","month":"2025-06"},{"category":"anti-social-behaviour","location_type":"Force","location":{"latitude":"52.583922","street":{"id":2031760,"name":"On or near Hospital"},"longitude":"-0.279391"},"context":"","outcome_status":null,"persistent_id":"","id":128915462,"location_subtype":"","month":"2025-06"},{"category":"anti-social-behaviour","location_type":"Force","location":{"latitude":"52.590765","street":{"id":2032259,"name":"On or near Parking Area"},"longitude":"-0.268385"},"context":"","outcome_status":null,"persistent_id":"","id":128915405,"location_subtype":"","month":"2025-06"},{"category":"anti-social-behaviour","location_type":"Force","location":{"latitude":"52.591497","street":{"id":2032818,"name":"On or near Peppercorn Close"},"longitude":"-0.255822"},"context":"","outcome_status":null,"persistent_id":"","id":128915344,"location_subtype":"","month":"2025-06"},{"category":"anti-social-behaviour","location_type":"Force","location":{"latitude":"52.593478","street":{"id":2032805,"name":"On or near Brassey Close"},"longitude":"-0.257810"},"context":"","outcome_status":null,"persistent_id":"","id":128915340,"location_subtype":"","month":"2025-06"},{"category":"anti-social-behaviour","location_type":"Force","location":{"latitude":"52.580761","street":{"id":2032823,"name":"On or near Fulham Road"},"longitude":"-0.257547"},"context":"","outcome_status":null,"persistent_id":"","id":128914830,"location_subtype":"","month":"2025-06"},{"category":"anti-social-behaviour","location_type":"Force","location":{"latitude":"52.595840","street":{"id":2031728,"name":"On or near Sports/recreation Area"},"longitude":"-0.278628"},"context":"","outcome_status":null,"persistent_id":"","id":128914786,"location_subtype":"","month":"2025-06"},{"category":"anti-social-behaviour","location_type":"Force","location":{"latitude":"52.590442","street":{"id":2032254,"name":"On or near Hampton Court"},"longitude":"-0.268471"},"context":"","outcome_status":null,"persistent_id":"","id":128913988,"location_subtype":"","month":"2025-06"},{"category":"anti-social-behaviour","location_type":"Force","location":{"latitude":"52.581840","street":{"id":2032841,"name":"On or near Supermarket"},"longitude":"-0.257271"},"context":"","outcome_status":null,"persistent_id":"","id":128913958,"location_subtype":"","month":"2025-06"},{"category":"anti-social-behaviour","location_type":"Force","location":{"latitude":"52.590765","street":{"id":2032259,"name":"On or near Parking Area"},"longitude":"-0.268385"},"context":"","outcome_status":null,"persistent_id":"","id":128913954,"location_subtype":"","month":"2025-06"},{"category":"anti-social-behaviour","location_type":"Force","location":{"latitude":"52.583620","street":{"id":2031629,"name":"On or near Middleton"},"longitude":"-0.283427"},"context":"","outcome_status":null,"persistent_id":"","id":128913930,"location_subtype":"","month":"2025-06"},{"category":"anti-social-behaviour","location_type":"Force","location":{"latitude":"52.586512","street":{"id":2031516,"name":"On or near Tollgate"},"longitude":"-0.285071"},"context":"","outcome_status":null,"persistent_id":"","id":128913912,"location_subtype":"","month":"2025-06"},{"category":"anti-social-behaviour","location_type":"Force","location":{"latitude":"52.581840","street":{"id":2032841,"name":"On or near Supermarket"},"longitude":"-0.257271"},"context":"","outcome_status":null,"persistent_id":"","id":128912162,"location_subtype":"","month":"2025-06"},{"category":"anti-social-behaviour","location_type":"Force","location":{"latitude":"52.580761","street":{"id":2032823,"name":"On or near Fulham Road"},"longitude":"-0.257547"},"context":"","outcome_status":null,"persistent_id":"","id":128912953,"location_subtype":"","month":"2025-06"},{"category":"anti-social-behaviour","location_type":"Force","location":{"latitude":"52.589161","street":{"id":2031664,"name":"On or near Theatre/concert Hall"},"longitude":"-0.283594"},"context":"","outcome_status":null,"persistent_id":"","id":128912978,"location_subtype":"","month":"2025-06"},{"category":"anti-social-behaviour","location_type":"Force","location":{"latitude":"52.583716","street":{"id":2033007,"name":"On or near Bourges Boulevard"},"longitude":"-0.252500"},"context":"","outcome_status":null,"persistent_id":"","id":128912680,"location_subtype":"","month":"2025-06"},{"category":"anti-social-behaviour","location_type":"Force","location":{"latitude":"52.592843","street":{"id":2031928,"name":"On or near Pendleton"},"longitude":"-0.275271"},"context":"","outcome_status":null,"persistent_id":"","id":128917680,"location_subtype":"","month":"2025-06"},{"category":"anti-social-behaviour","location_type":"Force","location":{"latitude":"52.577255","street":{"id":2032548,"name":"On or near Sports/recreation Area"},"longitude":"-0.262297"},"context":"","outcome_status":null,"persistent_id":"","id":128917232,"location_subtype":"","month":"2025-06"},{"category":"anti-social-behaviour","location_type":"Force","location":{"latitude":"52.586025","street":{"id":2032101,"name":"On or near Deene Court"},"longitude":"-0.271391"},"context":"","outcome_status":null,"persistent_id":"","id":128917206,"location_subtype":"","month":"2025-06"},{"category":"anti-social-behaviour","location_type":"Force","location":{"latitude":"52.587934","street":{"id":2032832,"name":"On or near Berry Court"},"longitude":"-0.253764"},"context":"","outcome_status":null,"persistent_id":"","id":128917157,"location_subtype":"","month":"2025-06"},{"category":"anti-social-behaviour","location_type":"Force","location":{"latitude":"52.583036","street":{"id":2032317,"name":"On or near Cottesmore Close"},"longitude":"-0.266815"},"context":"","outcome_status":null,"persistent_id":"","id":128917154,"location_subtype":"","month":"2025-06"},{"category":"anti-social-behaviour","location_type":"Force","location":{"latitude":"52.592740","street":{"id":2031921,"name":"On or near Swanspool"},"longitude":"-0.276840"},"context":"","outcome_status":null,"persistent_id":"","id":128916996,"location_subtype":"","month":"2025-06"},{"category":"bicycle-theft","location_type":"Force","location":{"latitude":"52.587934","street":{"id":2032832,"name":"On or near Berry Court"},"longitude":"-0.253764"},"context":"","outcome_status":{"category":"Investigation complete; no suspect identified","date":"2025-06"},"persistent_id":"09869f5d8827721a8b13adbbb5f2c38e6f1d0d0a1747903eaeac30bd028dae18","id":128888460,"location_subtype":"","month":"2025-06"},{"category":"bicycle-theft","location_type":"Force","location":{"latitude":"52.591583","street":{"id":2031794,"name":"On or near White Cross"},"longitude":"-0.278288"},"context":"","outcome_status":{"category":"Investigation complete; no suspect identified","date":"2025-06"},"persistent_id":"2e15e17850dc6281daf25a486b866d09edf32987a7e1aae8ae91b66637159adc","id":128900092,"location_subtype":"","month":"2025-06"},{"category":"bicycle-theft","location_type":"Force","location":{"latitude":"52.586025","street":{"id":2032101,"name":"On or near Deene Court"},"longitude":"-0.271391"},"context":"","outcome_status":{"category":"Unable to prosecute suspect","date":"2025-08"},"persistent_id":"e1fd7c05684b1443a320b6c6785ae07fc02a88f5bf814667eead347d2afcfd1e","id":128897709,"location_subtype":"","month":"2025-06"},{"category":"bicycle-theft","location_type":"Force","location":{"latitude":"52.592055","street":{"id":2031611,"name":"On or near Hudds Meadow"},"longitude":"-0.282876"},"context":"","outcome_status":{"category":"Investigation complete; no suspect identified","date":"2025-06"},"persistent_id":"54d92e12e2ad8aedd7d449ed81ef772fa091faf2bb9963934af6a97a9b9ec134","id":128897183,"location_subtype":"","month":"2025-06"},{"category":"bicycle-theft","location_type":"Force","location":{"latitude":"52.580204","street":{"id":2032001,"name":"On or near Winslow Road"},"longitude":"-0.273554"},"context":"","outcome_status":{"category":"Investigation complete; no suspect identified","date":"2025-06"},"persistent_id":"bcfcdac274184bc3686971ce6c943464d8336d6d920d04dd9941d4eeb49937f3","id":128896791,"location_subtype":"","month":"2025-06"},{"category":"bicycle-theft","location_type":"Force","location":{"latitude":"52.590711","street":{"id":2031816,"name":"On or near Holdfield"},"longitude":"-0.278913"},"context":"","outcome_status":{"category":"Unable to prosecute suspect","date":"2025-10"},"persistent_id":"a4f3ccc3aec2f5b3ccb9ceb822ab514ffb51ffe9f867ec93e238a509cd33ee97","id":128910303,"location_subtype":"","month":"2025-06"},{"category":"bicycle-theft","location_type":"Force","location":{"latitude":"52.593478","street":{"id":2032805,"name":"On or near Brassey Close"},"longitude":"-0.257810"},"context":"","outcome_status":{"category":"Investigation complete; no suspect identified","date":"2025-06"},"persistent_id":"77c04242c46f242abcdf4d98f338095a4fa776118d8ac9241532b61d87e1006a","id":128893849,"location_subtype":"","month":"2025-06"},{"category":"bicycle-theft","location_type":"Force","location":{"latitude":"52.581840","street":{"id":2032841,"name":"On or near Supermarket"},"longitude":"-0.257271"},"context":"","outcome_status":{"category":"Investigation complete; no suspect identified","date":"2025-06"},"persistent_id":"45f7d67f606289264a1360b0f0a489ae9f1759a5648499303c24b6b02d0a230c","id":128892025,"location_subtype":"","month":"2025-06"},{"category":"burglary","location_type":"Force","location":{"latitude":"52.590442","street":{"id":2032254,"name":"On or near Hampton Court"},"longitude":"-0.268471"},"context":"","outcome_status":{"category":"Unable to prosecute suspect","date":"2025-06"},"persistent_id":"845b577ee1a325fbd29fd42f248ed70ee724844a829942d5baa01113cdccb1d2","id":128900022,"location_subtype":"","month":"2025-06"},{"category":"burglary","location_type":"Force","location":{"latitude":"52.588650","street":{"id":2031623,"name":"On or near Petrol Station"},"longitude":"-0.284972"},"context":"","outcome_status":{"category":"Unable to prosecute suspect","date":"2025-07"},"persistent_id":"07314c6aa47df7ad68c913d146af04a71a7ca6f0dac61f63c865b05918175d5b","id":128908201,"location_subtype":"","month":"2025-06"},{"category":"burglary","location_type":"Force","location":{"latitude":"52.580890","street":{"id":2031388,"name":"On or near Nicholas Taylor Gardens"},"longitude":"-0.289866"},"context":"","outcome_status":{"category":"Investigation complete; no suspect identified","date":"2025-06"},"persistent_id":"6c7c8b6fd187d630c3f24c36458105f91551c5223eb4078c31d683d55482d5d1","id":128899187,"location_subtype":"","month":"2025-06"},{"category":"burglary","location_type":"Force","location":{"latitude":"52.575066","street":{"id":2031495,"name":"On or near Juniper Crescent"},"longitude":"-0.287495"},"context":"","outcome_status":{"category":"Investigation complete; no suspect identified","date":"2025-07"},"persistent_id":"2960e7a9c282eb0f92884c8ca4f5023ecb26940c8edbd7959b74d82778188676","id":128888697,"location_subtype":"","month":"2025-06"},{"category":"burglary","location_type":"Force","location":{"latitude":"52.590627","street":{"id":2031647,"name":"On or near Parking Area"},"longitude":"-0.284275"},"context":"","outcome_status":{"category":"Investigation complete; no suspect identified","date":"2025-06"},"persistent_id":"c130aab4d06ed062c098c36a84771cf1c4fecd73adf4ac9ce38ba11b66c6f8ed","id":128891774,"location_subtype":"","month":"2025-06"},{"category":"burglary","location_type":"Force","location":{"latitude":"52.588241","street":{"id":2032027,"name":"On or near Tansor Garth"},"longitude":"-0.272913"},"context":"","outcome_status":{"category":"Investigation complete; no suspect identified","date":"2025-10"},"persistent_id":"9274544e2e1703443d85437ceb05245b3e688faf07b440473e3a64e60bf37092","id":128898282,"location_subtype":"","month":"2025-06"},{"category":"burglary","location_type":"Force","location":{"latitude":"52.593478","street":{"id":2032805,"name":"On or near Brassey Close"},"longitude":"-0.257810"},"context":"","outcome_status":{"category":"Investigation complete; no suspect identified","date":"2025-06"},"persistent_id":"48b6440dfb7a2e81203b95f029eb43c479f67bb449b80e4aff832a24e4799b2e","id":128895909,"location_subtype":"","month":"2025-06"},{"category":"burglary","location_type":"Force","location":{"latitude":"52.572228","street":{"id":2031798,"name":"On or near Oliver St John Place"},"longitude":"-0.279696"},"context":"","outcome_status":{"category":"Unable to prosecute suspect","date":"2025-08"},"persistent_id":"555ebbba4ef74906ac36a2be5cc4b39376dabb902eb08b01cbc4703d5c2908b0","id":128892510,"location_subtype":"","month":"2025-06"},{"category":"burglary","location_type":"Force","location":{"latitude":"52.593478","street":{"id":2032805,"name":"On or near Brassey Close"},"longitude":"-0.257810"},"context":"","outcome_status":{"category":"Investigation complete; no suspect identified","date":"2025-06"},"persistent_id":"ae2a4500863a8acc6a8bc5122569a37d1fb9bb5259c91a9093485e579c48c47d","id":128893064,"location_subtype":"","month":"2025-06"},{"category":"burglary","location_type":"Force","location":{"latitude":"52.574107","street":{"id":2032390,"name":"On or near Michael Taylor Close"},"longitude":"-0.265485"},"context":"","outcome_status":{"category":"Court result unavailable","date":"2025-12"},"persistent_id":"a897ae81863434c8267b73d3db19355e883e617fe44647a24af62e3f1a42b2ea","id":128891539,"location_subtype":"","month":"2025-06"},{"category":"burglary","location_type":"Force","location":{"latitude":"52.575723","street":{"id":2032824,"name":"On or near Alderman's Drive"},"longitude":"-0.257378"},"context":"","outcome_status":{"category":"Investigation complete; no suspect identified","date":"2025-06"},"persistent_id":"39fb1951f7fb20bf10512e27126a94c2029c66926e320208db5e7997596818b0","id":128908024,"location_subtype":"","month":"2025-06"},{"category":"burglary","location_type":"Force","location":{"latitude":"52.580460","street":{"id":2031827,"name":"On or near Bramall Court"},"longitude":"-0.275108"},"context":"","outcome_status":{"category":"Investigation complete; no suspect identified","date":"2025-11"},"persistent_id":"cf2ad8d86151cede1f3866c309eae77e7e0da2a72a2beafec6fe0e6701354ddb","id":128911153,"location_subtype":"","month":"2025-06"},{"category":"burglary","location_type":"Force","location":{"latitude":"52.578482","street":{"id":2031318,"name":"On or near Barnards Court"},"longitude":"-0.292454"},"context":"","outcome_status":{"category":"Investigation complete; no suspect identified","date":"2025-11"},"persistent_id":"f377f445073bb8f9a1b9aad37b3290854e384b6fcc90b407bc63d323da8919d2","id":128901274,"location_subtype":"","month":"2025-06"},{"category":"burglary","location_type":"Force","location":{"latitude":"52.585915","street":{"id":2031493,"name":"On or near Deerleap"},"longitude":"-0.287958"},"context":"","outcome_status":{"category":"Unable to prosecute suspect","date":"2025-06"},"persistent_id":"d6ab34fa960f85869bbb77e62c4a8b7e1d5a94567c7dc5c6000b32dce5fb5f05","id":128900923,"location_subtype":"","month":"2025-06"},{"category":"burglary","location_type":"Force","location":{"latitude":"52.577255","street":{"id":2032548,"name":"On or near Sports/recreation Area"},"longitude":"-0.262297"},"context":"","outcome_status":{"category":"Investigation complete; no suspect identified","date":"2025-08"},"persistent_id":"7a8a5a93e5f3520bc2860bd5431b10db9518dd30b5baba36c68c51fe26e6ce67","id":128900089,"location_subtype":"","month":"2025-06"},{"category":"criminal-damage-arson","location_type":"Force","location":{"latitude":"52.586514","street":{"id":2032517,"name":"On or near Prison"},"longitude":"-0.259961"},"context":"","outcome_status":{"category":"Action to be taken by another organisation","date":"2025-07"},"persistent_id":"8fcc97cf724a7ca127f9d1ec393d2ea85f3805c70a872c526d2ef3e173c86a7e","id":128890052,"location_subtype":"","month":"2025-06"},{"category":"criminal-damage-arson","location_type":"Force","location":{"latitude":"52.592105","street":{"id":2031877,"name":"On or near Raleigh Way"},"longitude":"-0.277707"},"context":"","outcome_status":{"category":"Unable to prosecute suspect","date":"2025-09"},"persistent_id":"1cc344f37b080c78754b1406275725bc02cc2d4732d45c70fa909533d9f72205","id":128911956,"location_subtype":"","month":"2025-06"},{"category":"criminal-damage-arson","location_type":"Force","location":{"latitude":"52.586514","street":{"id":2032517,"name":"On or near Prison"},"longitude":"-0.259961"},"context":"","outcome_status":{"category":"Action to be taken by another organisation","date":"2025-07"},"persistent_id":"ba83d2a30102395b3ff7c15722707a8c9ec0fadb5e6ea04a8a7f973517d96847","id":128892201,"location_subtype":"","month":"2025-06"},{"category":"criminal-damage-arson","location_type":"Force","location":{"latitude":"52.586514","street":{"id":2032517,"name":"On or near Prison"},"longitude":"-0.259961"},"context":"","outcome_status":{"category":"Action to be taken by another organisation","date":"2025-07"},"persistent_id":"56d519bd67238d0fe8c25ad0636239ef8ea149d58a9862ca655395a5c8196375","id":128896653,"location_subtype":"","month":"2025-06"},{"category":"criminal-damage-arson","location_type":"Force","location":{"latitude":"52.583036","street":{"id":2032317,"name":"On or near Cottesmore Close"},"longitude":"-0.266815"},"context":"","outcome_status":{"category":"Investigation complete; no suspect identified","date":"2025-07"},"persistent_id":"383920ef651337862688d4ed7e5ca4fa8237c7fa9c02b4c78b969a1ced8ab872","id":128904401,"location_subtype":"","month":"2025-06"},{"category":"criminal-damage-arson","location_type":"Force","location":{"latitude":"52.588376","street":{"id":2031898,"name":"On or near Sandford"},"longitude":"-0.275993"},"context":"","outcome_status":{"category":"Investigation complete; no suspect identified","date":"2025-07"},"persistent_id":"215f94247b12cf8d51ae0870485a61005792a52ebc31efd2862be79d96bc569f","id":128907086,"location_subtype":"","month":"2025-06"},{"category":"criminal-damage-arson","location_type":"Force","location":{"latitude":"52.594395","street":{"id":2031520,"name":"On or near Barnstock"},"longitude":"-0.285531"},"context":"","outcome_status":{"category":"Unable to prosecute suspect","date":"2025-06"},"persistent_id":"87951190472a1f3a7cd30e53d911f8eb38cfe901ff2983182fdfd9bcc3981394","id":128888278,"location_subtype":"","month":"2025-06"},{"category":"criminal-damage-arson","location_type":"Force","location":{"latitude":"52.587934","street":{"id":2032832,"name":"On or near Berry Court"},"longitude":"-0.253764"},"context":"","outcome_status":{"category":"Unable to prosecute suspect","date":"2025-10"},"persistent_id":"04779cfc5e19a0388929f52b743e3e0795c3e54b4e71ad2eb53c12cc950bca2e","id":128909518,"location_subtype":"","month":"2025-06"},{"category":"criminal-damage-arson","location_type":"Force","location":{"latitude":"52.583620","street":{"id":2031629,"name":"On or near Middleton"},"longitude":"-0.283427"},"context":"","outcome_status":{"category":"Status update unavailable","date":"2025-10"},"persistent_id":"0f0eea881d5e50f94429c2aa0beec54cd832ab2ad50cbddc3f238307277142e0","id":128888883,"location_subtype":"","month":"2025-06"},{"category":"criminal-damage-arson","location_type":"Force","location":{"latitude":"52.588376","street":{"id":2031898,"name":"On or near Sandford"},"longitude":"-0.275993"},"context":"","outcome_status":{"category":"Investigation complete; no suspect identified","date":"2025-06"},"persistent_id":"6179f8f27c6bc3db2950fb5a3645a70a991df0f2a1e16299fd0afa31d5d830af","id":128889540,"location_subtype":"","month":"2025-06"},{"category":"criminal-damage-arson","location_type":"Force","location":{"latitude":"52.590711","street":{"id":2031816,"name":"On or near Holdfield"},"longitude":"-0.278913"},"context":"","outcome_status":{"category":"Status update unavailable","date":"2025-10"},"persistent_id":"bdabf3f45a0fb57b52d0f4dc0a5c84e9d3b2e896330441c7da54767022add46b","id":128894364,"location_subtype":"","month":"2025-06"},{"category":"criminal-damage-arson","location_type":"Force","location":{"latitude":"52.587934","street":{"id":2032832,"name":"On or near Berry Court"},"longitude":"-0.253764"},"context":"","outcome_status":{"category":"Investigation complete; no suspect identified","date":"2025-06"},"persistent_id":"7f4f528eec029b358d9f4ad4a7fcb06207763b1729f81df33af8145e820236a9","id":128894484,"location_subtype":"","month":"2025-06"},{"category":"criminal-damage-arson","location_type":"Force","location":{"latitude":"52.585140","street":{"id":2032248,"name":"On or near Chelveston Way"},"longitude":"-0.268651"},"context":"","outcome_status":{"category":"Unable to prosecute suspect","date":"2025-06"},"persistent_id":"54179c12c012a84c9a505ba4795397d8095a72b15e2125fc7e48774972714feb","id":128895353,"location_subtype":"","month":"2025-06"},{"category":"criminal-damage-arson","location_type":"Force","location":{"latitude":"52.594028","street":{"id":2032260,"name":"On or near Ivatt Way"},"longitude":"-0.267119"},"context":"","outcome_status":{"category":"Investigation complete; no suspect identified","date":"2025-06"},"persistent_id":"a51162adab38bead7e8d7823225444757238fe05524f6cff163ad5c90e9e01df","id":128896184,"location_subtype":"","month":"2025-06"},{"category":"criminal-damage-arson","location_type":"Force","location":{"latitude":"52.590627","street":{"id":2031647,"name":"On or near Parking Area"},"longitude":"-0.284275"},"context":"","outcome_status":{"category":"Unable to prosecute suspect","date":"2025-06"},"persistent_id":"d84d7448c5f75533dda75dc77fb476d64db31535cf375249e530ad4bb455eae1","id":128899366,"location_subtype":"","month":"2025-06"},{"category":"criminal-damage-arson","location_type":"Force","location":{"latitude":"52.576076","street":{"id":2032763,"name":"On or near Hope Close"},"longitude":"-0.258751"},"context":"","outcome_status":{"category":"Investigation complete; no suspect identified","date":"2025-06"},"persistent_id":"3227252f520ffefcc8c35fab72361545f41f69f2897927e928780bab9e38cadd","id":128900619,"location_subtype":"","month":"2025-06"},{"category":"criminal-damage-arson","location_type":"Force","location":{"latitude":"52.582693","street":{"id":2031497,"name":"On or near Tyesdale"},"longitude":"-0.286489"},"context":"","outcome_status":{"category":"Investigation complete; no suspect identified","date":"2025-06"},"persistent_id":"646517492ff6eb7a23658669240e1913f075489bccc68bdf73edd3d4711b571b","id":128902403,"location_subtype":"","month":"2025-06"},{"category":"criminal-damage-arson","location_type":"Force","location":{"latitude":"52.583716","street":{"id":2033007,"name":"On or near Bourges Boulevard"},"longitude":"-0.252500"},"context":"","outcome_status":{"category":"Investigation complete; no suspect identified","date":"2025-06"},"persistent_id":"b6ba8c0c5aaea04d84a58ab2f54b981ce085a523e7f2058be4dde0b30730e050","id":128902772,"location_subtype":"","month":"2025-06"},{"category":"criminal-damage-arson","location_type":"Force","location":{"latitude":"52.586514","street":{"id":2032517,"name":"On or near Prison"},"longitude":"-0.259961"},"context":"","outcome_status":{"category":"Unable to prosecute suspect","date":"2025-06"},"persistent_id":"97ddbb83153347f599c3e9de18bd8a7e26c755227126a7e92e89afdacbabafc4","id":128904015,"location_subtype":"","month":"2025-06"},{"category":"criminal-damage-arson","location_type":"Force","location":{"latitude":"52.588596","street":{"id":2032360,"name":"On or near Winwick Place"},"longitude":"-0.267009"},"context":"","outcome_status":{"category":"Local resolution","date":"2025-06"},"persistent_id":"79e52c18727588b81e69e2528459df283fb46dbba9f9d3922e2d82e5a6e5433c","id":128904350,"location_subtype":"","month":"2025-06"},{"category":"criminal-damage-arson","location_type":"Force","location":{"latitude":"52.581020","street":{"id":2031416,"name":"On or near Brailsford Close"},"longitude":"-0.288901"},"context":"","outcome_status":{"category":"Investigation complete; no suspect identified","date":"2025-07"},"persistent_id":"d7346565d45c3c33d0949cbdff88e189f5924cd3559b1f70f772bcd59d416768","id":128905850,"location_subtype":"","month":"2025-06"},{"category":"criminal-damage-arson","location_type":"Force","location":{"latitude":"52.586514","street":{"id":2032517,"name":"On or near Prison"},"longitude":"-0.259961"},"context":"","outcome_status":{"category":"Action to be taken by another organisation","date":"2025-06"},"persistent_id":"4dbd7a5a7c72065a4f89bd385ee181f3275a29b224e121debd0e1ee4a36600fa","id":128907105,"location_subtype":"","month":"2025-06"},{"category":"criminal-damage-arson","location_type":"Force","location":{"latitude":"52.588376","street":{"id":2031898,"name":"On or near Sandford"},"longitude":"-0.275993"},"context":"","outcome_status":{"category":"Investigation complete; no suspect identified","date":"2025-06"},"persistent_id":"b4d96cb30fb7c305210631cabfd3e957d1dd4082f0140a751df816ceb4a46ccd","id":128907637,"location_subtype":"","month":"2025-06"},{"category":"criminal-damage-arson","location_type":"Force","location":{"latitude":"52.591497","street":{"id":2032818,"name":"On or near Peppercorn Close"},"longitude":"-0.255822"},"context":"","outcome_status":{"category":"Court result unavailable","date":"2025-12"},"persistent_id":"faab42f6cd1bcce2f718c75a7fc16ac26e4c53adc56068ea52391c78c1b76062","id":128909053,"location_subtype":"","month":"2025-06"},{"category":"criminal-damage-arson","location_type":"Force","location":{"latitude":"52.580761","street":{"id":2032823,"name":"On or near Fulham Road"},"longitude":"-0.257547"},"context":"","outcome_status":{"category":"Unable to prosecute suspect","date":"2025-06"},"persistent_id":"44a2d740d319a9fbcae2964fd692ec7c6b1b54484decf6b223120a958a27ef8f","id":128904160,"location_subtype":"","month":"2025-06"},{"category":"criminal-damage-arson","location_type":"Force","location":{"latitude":"52.586514","street":{"id":2032517,"name":"On or near Prison"},"longitude":"-0.259961"},"context":"","outcome_status":{"category":"Action to be taken by another organisation","date":"2025-06"},"persistent_id":"2b9805515d9f105850315281f10388114f26b25008bdad8b53c26e97426a0159","id":128911065,"location_subtype":"","month":"2025-06"},{"category":"criminal-damage-arson","location_type":"Force","location":{"latitude":"52.588228","street":{"id":2031686,"name":"On or near Bretton Green"},"longitude":"-0.282524"},"context":"","outcome_status":{"category":"Investigation complete; no suspect identified","date":"2025-06"},"persistent_id":"a9fadefb5dc48d63cb880f76b87ab66e4de28e47af03347eaf978717e52a7945","id":128889013,"location_subtype":"","month":"2025-06"},{"category":"criminal-damage-arson","location_type":"Force","location":{"latitude":"52.586514","street":{"id":2032517,"name":"On or near Prison"},"longitude":"-0.259961"},"context":"","outcome_status":{"category":"Unable to prosecute suspect","date":"2025-06"},"persistent_id":"a633b7f0b28cc36a7432adbd5b2101fefcde91820b9632cbd495631c162bb265","id":128911008,"location_subtype":"","month":"2025-06"},{"category":"criminal-damage-arson","location_type":"Force","location":{"latitude":"52.580363","street":{"id":2031622,"name":"On or near Artindale"},"longitude":"-0.284484"},"context":"","outcome_status":{"category":"Investigation complete; no suspect identified","date":"2025-06"},"persistent_id":"007ffedd9cf2e69cc3ea3dcd29c31333a1e56f1ff3a91d67ca4b3770e55bb683","id":128904163,"location_subtype":"","month":"2025-06"},{"category":"criminal-damage-arson","location_type":"Force","location":{"latitude":"52.582693","street":{"id":2031497,"name":"On or near Tyesdale"},"longitude":"-0.286489"},"context":"","outcome_status":{"category":"Investigation complete; no suspect identified","date":"2025-06"},"persistent_id":"d16a53f3037d133fb2d9f228437f8c10a4b3a43b56a40a194b9a8567eb6a3f5a","id":128903955,"location_subtype":"","month":"2025-06"},{"category":"drugs","location_type":"Force","location":{"latitude":"52.580761","street":{"id":2032823,"name":"On or near Fulham Road"},"longitude":"-0.257547"},"context":"","outcome_status":{"category":"Status update unavailable","date":"2025-10"},"persistent_id":"a8e000a7943441c31de2778fbd1676ec61a1b4a00cad218cd5f89cd349f3d3b5","id":128887441,"location_subtype":"","month":"2025-06"},{"category":"other-theft","location_type":"Force","location":{"latitude":"52.588376","street":{"id":2031898,"name":"On or near Sandford"},"longitude":"-0.275993"},"context":"","outcome_status":{"category":"Unable to prosecute suspect","date":"2025-06"},"persistent_id":"bba52f4c8e25dc60856e491b332ed0326c33a1dfc1e55cb88c71ffb7a190d310","id":128896231,"location_subtype":"","month":"2025-06"},{"category":"other-theft","location_type":"Force","location":{"latitude":"52.586512","street":{"id":2031516,"name":"On or near Tollgate"},"longitude":"-0.285071"},"context":"","outcome_status":{"category":"Unable to prosecute suspect","date":"2025-07"},"persistent_id":"c80243718d1a368beed33fe7d2993409532abea2bdcbcd346e8d11e0eedfbb25","id":128898978,"location_subtype":"","month":"2025-06"},{"category":"other-theft","location_type":"Force","location":{"latitude":"52.590932","street":{"id":2032059,"name":"On or near Bradden Street"},"longitude":"-0.271198"},"context":"","outcome_status":{"category":"Investigation complete; no suspect identified","date":"2025-06"},"persistent_id":"5dd0fc889ae5439fa06f7188ec6f05bb084cba8e6893d0c9360f9aaaae5098e8","id":128904070,"location_subtype":"","month":"2025-06"},{"category":"other-theft","location_type":"Force","location":{"latitude":"52.577255","street":{"id":2032548,"name":"On or near Sports/recreation Area"},"longitude":"-0.262297"},"context":"","outcome_status":{"category":"Investigation complete; no suspect identified","date":"2025-06"},"persistent_id":"df45dc36b9ed4123fbb9d28c25f28dd8282daae21b6f1dda83b303eadf27d254","id":128899930,"location_subtype":"","month":"2025-06"},{"category":"other-theft","location_type":"Force","location":{"latitude":"52.586514","street":{"id":2032517,"name":"On or near Prison"},"longitude":"-0.259961"},"context":"","outcome_status":{"category":"Unable to prosecute suspect","date":"2025-08"},"persistent_id":"3fc4a01018dd6ad5caf1f0e9ff06b252a914190b4bcdd92bdf6f0b81462cd1a9","id":128905155,"location_subtype":"","month":"2025-06"},{"category":"other-theft","location_type":"Force","location":{"latitude":"52.578411","street":{"id":2032861,"name":"On or near Mayor's Walk"},"longitude":"-0.256710"},"context":"","outcome_status":{"category":"Investigation complete; no suspect identified","date":"2025-06"},"persistent_id":"074f979681d23fd416328064362ea30650c6a8ceb260fc8a13b5e2a8010ce310","id":128899539,"location_subtype":"","month":"2025-06"},{"category":"other-theft","location_type":"Force","location":{"latitude":"52.588376","street":{"id":2031898,"name":"On or near Sandford"},"longitude":"-0.275993"},"context":"","outcome_status":{"category":"Investigation complete; no suspect identified","date":"2025-06"},"persistent_id":"823e0d74fd832a24968697b7612dbcb2a8d60210bc92553ab5a1dd9ab50e7477","id":128901304,"location_subtype":"","month":"2025-06"},{"category":"other-theft","location_type":"Force","location":{"latitude":"52.592363","street":{"id":2032787,"name":"On or near Shopping Area"},"longitude":"-0.258230"},"context":"","outcome_status":{"category":"Investigation complete; no suspect identified","date":"2025-06"},"persistent_id":"1ff8dec02af69326a9136e483aced5f63c12c17cdcc109d6df91f5ddaded5b9a","id":128910951,"location_subtype":"","month":"2025-06"},{"category":"other-theft","location_type":"Force","location":{"latitude":"52.589161","street":{"id":2031664,"name":"On or near Theatre/concert Hall"},"longitude":"-0.283594"},"context":"","outcome_status":{"category":"Investigation complete; no suspect identified","date":"2025-06"},"persistent_id":"dfc2d0e38352c8631c3b16ab285e4c60914c8acca82a39d33cc2cde0192867b5","id":128911521,"location_subtype":"","month":"2025-06"},{"category":"other-theft","location_type":"Force","location":{"latitude":"52.583716","street":{"id":2033007,"name":"On or near Bourges Boulevard"},"longitude":"-0.252500"},"context":"","outcome_status":{"category":"Investigation complete; no suspect identified","date":"2025-06"},"persistent_id":"4fd3f1b0eb316929409d6217030ddd2c4b6819ef8587a0fceee71f92063619fe","id":128911591,"location_subtype":"","month":"2025-06"},{"category":"other-theft","location_type":"Force","location":{"latitude":"52.593478","street":{"id":2032805,"name":"On or near Brassey Close"},"longitude":"-0.257810"},"context":"","outcome_status":{"category":"Investigation complete; no suspect identified","date":"2025-06"},"persistent_id":"c4dd7c49914e046a39c250cfc9752a2c4c1ccbcdd9e074f31da9cb815e9f444f","id":128897394,"location_subtype":"","month":"2025-06"},{"category":"other-theft","location_type":"Force","location":{"latitude":"52.582189","street":{"id":2031748,"name":"On or near Cavell Close"},"longitude":"-0.279586"},"context":"","outcome_status":{"category":"Unable to prosecute suspect","date":"2025-06"},"persistent_id":"820341c1487c48ede055f79f2e4e8f6deb09b72ee3f4130a9e4610b172297e30","id":128904376,"location_subtype":"","month":"2025-06"},{"category":"other-theft","location_type":"Force","location":{"latitude":"52.591497","street":{"id":2032818,"name":"On or near Peppercorn Close"},"longitude":"-0.255822"},"context":"","outcome_status":{"category":"Investigation complete; no suspect identified","date":"2025-06"},"persistent_id":"bb3f485e948a1b2b89c53ff3f11370412aefcb84e4ca13ae620a6299ca546697","id":128912155,"location_subtype":"","month":"2025-06"},{"category":"other-theft","location_type":"Force","location":{"latitude":"52.586514","street":{"id":2032517,"name":"On or near Prison"},"longitude":"-0.259961"},"context":"","outcome_status":{"category":"Unable to prosecute suspect","date":"2025-06"},"persistent_id":"159b4db9df48362868884b5a2fe27678761e08ed7f0f5002cb7ebf7205856c6b","id":128900184,"location_subtype":"","month":"2025-06"},{"category":"other-theft","location_type":"Force","location":{"latitude":"52.588376","street":{"id":2031898,"name":"On or near Sandford"},"longitude":"-0.275993"},"context":"","outcome_status":{"category":"Unable to prosecute suspect","date":"2025-06"},"persistent_id":"7e2f9fab3f5d3b6dca9426a72243a84b4a20e953c4da121a5c35b8e6f71d8271","id":128901898,"location_subtype":"","month":"2025-06"},{"category":"other-theft","location_type":"Force","location":{"latitude":"52.592534","street":{"id":2032769,"name":"On or near Maskew Avenue"},"longitude":"-0.258483"},"context":"","outcome_status":{"category":"Investigation complete; no suspect identified","date":"2025-06"},"persistent_id":"11b4c471653b8c520e7392f898b4736f42c1a27766f8bdb4cb65b22226d9e039","id":128899199,"location_subtype":"","month":"2025-06"},{"category":"other-theft","location_type":"Force","location":{"latitude":"52.592534","street":{"id":2032769,"name":"On or near Maskew Avenue"},"longitude":"-0.258483"},"context":"","outcome_status":{"category":"Investigation complete; no suspect identified","date":"2025-06"},"persistent_id":"e47a868badeca8a1600331984dd7cb3b3538c98361985b61023fa3772df88627","id":128895484,"location_subtype":"","month":"2025-06"},{"category":"other-theft","location_type":"Force","location":{"latitude":"52.588376","street":{"id":2031898,"name":"On or near Sandford"},"longitude":"-0.275993"},"context":"","outcome_status":{"category":"Investigation complete; no suspect identified","date":"2025-06"},"persistent_id":"966b1ba4c8ebcaa44085fccfc3e334b4fb67715eafa455ebf04fbeee56b4ea1d","id":128905496,"location_subtype":"","month":"2025-06"},{"category":"possession-of-weapons","location_type":"Force","location":{"latitude":"52.579438","street":{"id":2032754,"name":"On or near Nicholls Avenue"},"longitude":"-0.258677"},"context":"","outcome_status":{"category":"Investigation complete; no suspect identified","date":"2025-07"},"persistent_id":"9f5de60c4eef0ce71eb2d7e7f624c5ea1fd977c61d7586355d1b7e1990173318","id":128901236,"location_subtype":"","month":"2025-06"},{"category":"possession-of-weapons","location_type":"Force","location":{"latitude":"52.582693","street":{"id":2031497,"name":"On or near Tyesdale"},"longitude":"-0.286489"},"context":"","outcome_status":{"category":"Unable to prosecute suspect","date":"2025-06"},"persistent_id":"d8d1ab0cbf75cdb740e2ab1259b8985ec9789d71e4319f54d65c1754973a5f8b","id":128897390,"location_subtype":"","month":"2025-06"},{"category":"possession-of-weapons","location_type":"Force","location":{"latitude":"52.591497","street":{"id":2032818,"name":"On or near Peppercorn Close"},"longitude":"-0.255822"},"context":"","outcome_status":{"category":"Offender given a caution","date":"2025-06"},"persistent_id":"8b2feb07f1407795605d8d799b239c60d5e6a138e6556dbab981423fd8a605bf","id":128911108,"location_subtype":"","month":"2025-06"},{"category":"public-order","location_type":"Force","location":{"latitude":"52.590442","street":{"id":2032254,"name":"On or near Hampton Court"},"longitude":"-0.268471"},"context":"","outcome_status":{"category":"Unable to prosecute suspect","date":"2025-06"},"persistent_id":"5d77e069689473e1fc728c3118a324062d0629174688dd80d948ef0340bf42b2","id":128903386,"location_subtype":"","month":"2025-06"},{"category":"public-order","location_type":"Force","location":{"latitude":"52.588376","street":{"id":2031898,"name":"On or near Sandford"},"longitude":"-0.275993"},"context":"","outcome_status":{"category":"Unable to prosecute suspect","date":"2025-07"},"persistent_id":"00a75f93b86947ac0c232eb7623e1d7a35dabce0ab583fac56ccbcbf84b14813","id":128906852,"location_subtype":"","month":"2025-06"},{"category":"public-order","location_type":"Force","location":{"latitude":"52.581840","street":{"id":2032841,"name":"On or near Supermarket"},"longitude":"-0.257271"},"context":"","outcome_status":{"category":"Investigation complete; no suspect identified","date":"2025-07"},"persistent_id":"9f24bf091bb4169d95959ce317a4af8a9c0e7f2c39c8a3282a8d797089c9b766","id":128901905,"location_subtype":"","month":"2025-06"},{"category":"public-order","location_type":"Force","location":{"latitude":"52.579668","street":{"id":2032032,"name":"On or near Ledbury Road"},"longitude":"-0.273161"},"context":"","outcome_status":{"category":"Unable to prosecute suspect","date":"2025-06"},"persistent_id":"ed9d0eca1f8272e2294900d499b0bf36b8f50756db2896dc0fee0eadc12c0c78","id":128901920,"location_subtype":"","month":"2025-06"},{"category":"public-order","location_type":"Force","location":{"latitude":"52.592534","street":{"id":2032769,"name":"On or near Maskew Avenue"},"longitude":"-0.258483"},"context":"","outcome_status":{"category":"Unable to prosecute suspect","date":"2025-07"},"persistent_id":"7190a8f17081ec4fef3263856a5a7e07e7d6db3052a2b45e0328dbb511dd0066","id":128893866,"location_subtype":"","month":"2025-06"},{"category":"public-order","location_type":"Force","location":{"latitude":"52.585692","street":{"id":2033040,"name":"On or near English Street"},"longitude":"-0.252377"},"context":"","outcome_status":{"category":"Unable to prosecute suspect","date":"2025-07"},"persistent_id":"ac653a67b90baea75826000550d353aff4536f1e17635a5046b853107607b39b","id":128905880,"location_subtype":"","month":"2025-06"},{"category":"public-order","location_type":"Force","location":{"latitude":"52.586512","street":{"id":2031516,"name":"On or near Tollgate"},"longitude":"-0.285071"},"context":"","outcome_status":{"category":"Status update unavailable","date":"2025-10"},"persistent_id":"52277eaac6972f876249b4e4fdc03b27b932ac409e0e5a6ec193051156a53902","id":128896705,"location_subtype":"","month":"2025-06"},{"category":"public-order","location_type":"Force","location":{"latitude":"52.592740","street":{"id":2031921,"name":"On or near Swanspool"},"longitude":"-0.276840"},"context":"","outcome_status":{"category":"Unable to prosecute suspect","date":"2026-01"},"persistent_id":"802a153a4e4b7cdb990084a007ed6beee63f866beca1dc6b6f2eddad7b3f2773","id":128893375,"location_subtype":"","month":"2025-06"},{"category":"public-order","location_type":"Force","location":{"latitude":"52.588376","street":{"id":2031898,"name":"On or near Sandford"},"longitude":"-0.275993"},"context":"","outcome_status":{"category":"Investigation complete; no suspect identified","date":"2025-06"},"persistent_id":"89298516dc9b91a6cbbc40b91d5eb7c54716a09408442dfccb54ef773cca7fad","id":128897663,"location_subtype":"","month":"2025-06"},{"category":"public-order","location_type":"Force","location":{"latitude":"52.591497","street":{"id":2032818,"name":"On or near Peppercorn Close"},"longitude":"-0.255822"},"context":"","outcome_status":{"category":"Unable to prosecute suspect","date":"2025-10"},"persistent_id":"9f86cb61491c3359043ec2591b1717565e9c2251d28366faad07652791d561af","id":128895049,"location_subtype":"","month":"2025-06"},{"category":"public-order","location_type":"Force","location":{"latitude":"52.576541","street":{"id":2031462,"name":"On or near Woolgard"},"longitude":"-0.288175"},"context":"","outcome_status":{"category":"Unable to prosecute suspect","date":"2025-07"},"persistent_id":"65ffa429c7803897811c3888a9efbf5c5c51ef52b4c9cb4b2968a71aea0537b1","id":128900187,"location_subtype":"","month":"2025-06"},{"category":"public-order","location_type":"Force","location":{"latitude":"52.588376","street":{"id":2031898,"name":"On or near Sandford"},"longitude":"-0.275993"},"context":"","outcome_status":{"category":"Unable to prosecute suspect","date":"2025-09"},"persistent_id":"e02708c31bde9a7fc0fba334d62d744d7e1835084ff1ff9ea85723a37b3712e0","id":128905959,"location_subtype":"","month":"2025-06"},{"category":"public-order","location_type":"Force","location":{"latitude":"52.588376","street":{"id":2031898,"name":"On or near Sandford"},"longitude":"-0.275993"},"context":"","outcome_status":{"category":"Unable to prosecute suspect","date":"2025-09"},"persistent_id":"1ebfacf38bdb69d8704e9a046deb59fbd7e89bfc76918ac31a0f312ef6f7e34e","id":128890365,"location_subtype":"","month":"2025-06"},{"category":"public-order","location_type":"Force","location":{"latitude":"52.586512","street":{"id":2031516,"name":"On or near Tollgate"},"longitude":"-0.285071"},"context":"","outcome_status":{"category":"Court result unavailable","date":"2025-12"},"persistent_id":"e38cce8f5042833253922b6f2021193be92ce3863bd7e3ef99ad01de0b003220","id":128905394,"location_subtype":"","month":"2025-06"},{"category":"public-order","location_type":"Force","location":{"latitude":"52.582757","street":{"id":2031341,"name":"On or near Sprignall"},"longitude":"-0.290856"},"context":"","outcome_status":{"category":"Unable to prosecute suspect","date":"2025-07"},"persistent_id":"d6152be98df02c92511a6ff7a8a865c782def1f9c82832698ba8f29518a74dcc","id":128893026,"location_subtype":"","month":"2025-06"},{"category":"public-order","location_type":"Force","location":{"latitude":"52.592740","street":{"id":2031921,"name":"On or near Swanspool"},"longitude":"-0.276840"},"context":"","outcome_status":{"category":"Unable to prosecute suspect","date":"2025-07"},"persistent_id":"cbeab9eda0a14d0ab3156f7da4e714b2ec57b5dbc88d1902398fba96099ec165","id":128900965,"location_subtype":"","month":"2025-06"},{"category":"public-order","location_type":"Force","location":{"latitude":"52.583716","street":{"id":2033007,"name":"On or near Bourges Boulevard"},"longitude":"-0.252500"},"context":"","outcome_status":{"category":"Unable to prosecute suspect","date":"2025-07"},"persistent_id":"42ba8b1d9d3ba000324cba2b1134d2fb84fad14536533a7f6cbfcc3a1877946a","id":128887727,"location_subtype":"","month":"2025-06"},{"category":"public-order","location_type":"Force","location":{"latitude":"52.588376","street":{"id":2031898,"name":"On or near Sandford"},"longitude":"-0.275993"},"context":"","outcome_status":{"category":"Status update unavailable","date":"2025-10"},"persistent_id":"7797748d40c030a3cbedabe7949c72c2108d881f401b185ede05c5e26a4d2189","id":128891561,"location_subtype":"","month":"2025-06"},{"category":"public-order","location_type":"Force","location":{"latitude":"52.579668","street":{"id":2032032,"name":"On or near Ledbury Road"},"longitude":"-0.273161"},"context":"","outcome_status":{"category":"Unable to prosecute suspect","date":"2025-06"},"persistent_id":"c323e3795f10e47731acc422185d3ab633611b19f4b71d909845fc9d10c09c1f","id":128907040,"location_subtype":"","month":"2025-06"},{"category":"robbery","location_type":"Force","location":{"latitude":"52.585899","street":{"id":2032201,"name":"On or near Dingley Court"},"longitude":"-0.269477"},"context":"","outcome_status":{"category":"Status update unavailable","date":"2025-10"},"persistent_id":"70f625f45de4dabffeefb4a52876805aa52f2b3b2538c6c580bd63827a4fe79a","id":128898513,"location_subtype":"","month":"2025-06"},{"category":"robbery","location_type":"Force","location":{"latitude":"52.591497","street":{"id":2032818,"name":"On or near Peppercorn Close"},"longitude":"-0.255822"},"context":"","outcome_status":{"category":"Unable to prosecute suspect","date":"2025-06"},"persistent_id":"161237df50074951e31e4d268e56f5069b92c45d28bee23e82325bb72d511f22","id":128906816,"location_subtype":"","month":"2025-06"},{"category":"shoplifting","location_type":"Force","location":{"latitude":"52.588650","street":{"id":2031623,"name":"On or near Petrol Station"},"longitude":"-0.284972"},"context":"","outcome_status":{"category":"Court result unavailable","date":"2026-01"},"persistent_id":"3680672ec5654db1540b48b99a17e65e0c755d2c9815df9559b596effe4965bd","id":128894945,"location_subtype":"","month":"2025-06"},{"category":"shoplifting","location_type":"Force","location":{"latitude":"52.590627","street":{"id":2031647,"name":"On or near Parking Area"},"longitude":"-0.284275"},"context":"","outcome_status":{"category":"Unable to prosecute suspect","date":"2025-06"},"persistent_id":"e04dcd37940123900292db89071566b86961bd5d2faa4de0d8dbf8676eb005e3","id":128894474,"location_subtype":"","month":"2025-06"},{"category":"shoplifting","location_type":"Force","location":{"latitude":"52.581840","street":{"id":2032841,"name":"On or near Supermarket"},"longitude":"-0.257271"},"context":"","outcome_status":{"category":"Investigation complete; no suspect identified","date":"2025-06"},"persistent_id":"6298340603e5a3f72a1cbb2ec6cd8c8f5579f517141bc3c8eb9729ff4eea2c81","id":128903259,"location_subtype":"","month":"2025-06"},{"category":"shoplifting","location_type":"Force","location":{"latitude":"52.590627","street":{"id":2031647,"name":"On or near Parking Area"},"longitude":"-0.284275"},"context":"","outcome_status":{"category":"Investigation complete; no suspect identified","date":"2025-06"},"persistent_id":"cbad69c56bc3fd63cf536e61154d56793dfeea87f7e5ddaf72f4a44030c94ee2","id":128903360,"location_subtype":"","month":"2025-06"},{"category":"shoplifting","location_type":"Force","location":{"latitude":"52.588650","street":{"id":2031623,"name":"On or near Petrol Station"},"longitude":"-0.284972"},"context":"","outcome_status":{"category":"Court result unavailable","date":"2026-01"},"persistent_id":"41a25bb3b5b59447b9bf1bce89389231f81e6d20d8616752cbca0d4c586578e7","id":128888783,"location_subtype":"","month":"2025-06"},{"category":"shoplifting","location_type":"Force","location":{"latitude":"52.588650","street":{"id":2031623,"name":"On or near Petrol Station"},"longitude":"-0.284972"},"context":"","outcome_status":{"category":"Court result unavailable","date":"2025-12"},"persistent_id":"c28e42445f8e0325be97c2cbaaf44b814783769e71f7641c1637998cf02903f0","id":128912132,"location_subtype":"","month":"2025-06"},{"category":"shoplifting","location_type":"Force","location":{"latitude":"52.592534","street":{"id":2032769,"name":"On or near Maskew Avenue"},"longitude":"-0.258483"},"context":"","outcome_status":{"category":"Unable to prosecute suspect","date":"2025-07"},"persistent_id":"d9a1b0b9624418c2b66029e3f6f798411895523d38c4c41e41b2ef3425b2bce0","id":128897701,"location_subtype":"","month":"2025-06"},{"category":"shoplifting","location_type":"Force","location":{"latitude":"52.590627","street":{"id":2031647,"name":"On or near Parking Area"},"longitude":"-0.284275"},"context":"","outcome_status":{"category":"Unable to prosecute suspect","date":"2025-06"},"persistent_id":"326fef2b043242c8adb4a1e0f758b2cd7020ae84471a4233de54a5e1357822f4","id":128897274,"location_subtype":"","month":"2025-06"},{"category":"shoplifting","location_type":"Force","location":{"latitude":"52.588650","street":{"id":2031623,"name":"On or near Petrol Station"},"longitude":"-0.284972"},"context":"","outcome_status":{"category":"Court result unavailable","date":"2026-01"},"persistent_id":"e01be8986a723987b676384237e8d552aaa12e32aaf69a75a94263286bfbbeed","id":128900515,"location_subtype":"","month":"2025-06"},{"category":"shoplifting","location_type":"Force","location":{"latitude":"52.590627","street":{"id":2031647,"name":"On or near Parking Area"},"longitude":"-0.284275"},"context":"","outcome_status":{"category":"Unable to prosecute suspect","date":"2025-07"},"persistent_id":"c2a09fe163fda8fa8a73e2068a9a192e831f6f5fcd0a5ac1b7cfe237ec5b3a5f","id":128897787,"location_subtype":"","month":"2025-06"},{"category":"shoplifting","location_type":"Force","location":{"latitude":"52.588650","street":{"id":2031623,"name":"On or near Petrol Station"},"longitude":"-0.284972"},"context":"","outcome_status":{"category":"Court result unavailable","date":"2025-12"},"persistent_id":"c5a31afcfaf1f8d29e0f0e73de00b55655245afeabd73927b48d19c24e4a9944","id":128905540,"location_subtype":"","month":"2025-06"},{"category":"shoplifting","location_type":"Force","location":{"latitude":"52.592534","street":{"id":2032769,"name":"On or near Maskew Avenue"},"longitude":"-0.258483"},"context":"","outcome_status":{"category":"Investigation complete; no suspect identified","date":"2025-06"},"persistent_id":"19b49fd2e73d7bd041235577f87ab5f708493e9fce8751e54c8a5ed33024d798","id":128898730,"location_subtype":"","month":"2025-06"},{"category":"shoplifting","location_type":"Force","location":{"latitude":"52.597042","street":{"id":2032332,"name":"On or near A47"},"longitude":"-0.266676"},"context":"","outcome_status":{"category":"Unable to prosecute suspect","date":"2025-07"},"persistent_id":"30ffe0634e52f4b0d6c9b3d15007190be1193eb8f9930ff7762267af69988c9c","id":128896540,"location_subtype":"","month":"2025-06"},{"category":"shoplifting","location_type":"Force","location":{"latitude":"52.581840","street":{"id":2032841,"name":"On or near Supermarket"},"longitude":"-0.257271"},"context":"","outcome_status":{"category":"Investigation complete; no suspect identified","date":"2025-06"},"persistent_id":"e910a73e758c0faae5e0f2f0fd65ad0dfd457fd63213cba1acfe44bb277f45e5","id":128908243,"location_subtype":"","month":"2025-06"},{"category":"shoplifting","location_type":"Force","location":{"latitude":"52.593478","street":{"id":2032805,"name":"On or near Brassey Close"},"longitude":"-0.257810"},"context":"","outcome_status":{"category":"Investigation complete; no suspect identified","date":"2025-06"},"persistent_id":"c0b9436139c3927d7b3b4e8eaf85e3d5a861658efae308f44f62dfe75efba771","id":128899195,"location_subtype":"","month":"2025-06"},{"category":"shoplifting","location_type":"Force","location":{"latitude":"52.597042","street":{"id":2032332,"name":"On or near A47"},"longitude":"-0.266676"},"context":"","outcome_status":{"category":"Investigation complete; no suspect identified","date":"2025-06"},"persistent_id":"b5ac91433fd90ba010550ea56e8354f5b7b7cea39066301c8bffc528bdaf6e87","id":128906821,"location_subtype":"","month":"2025-06"},{"category":"shoplifting","location_type":"Force","location":{"latitude":"52.597042","street":{"id":2032332,"name":"On or near A47"},"longitude":"-0.266676"},"context":"","outcome_status":{"category":"Investigation complete; no suspect identified","date":"2025-06"},"persistent_id":"31b9178832d2c6fcd286553c0ddd0f3d96556307b38f9c73abdbc1fdb735472d","id":128906948,"location_subtype":"","month":"2025-06"},{"category":"shoplifting","location_type":"Force","location":{"latitude":"52.588650","street":{"id":2031623,"name":"On or near Petrol Station"},"longitude":"-0.284972"},"context":"","outcome_status":{"category":"Court result unavailable","date":"2025-12"},"persistent_id":"e8fbf2e211f6d18c77379d5fe2a61c90ec7d4cafd7b00740c827cfafb41e15a2","id":128906961,"location_subtype":"","month":"2025-06"},{"category":"shoplifting","location_type":"Force","location":{"latitude":"52.593478","street":{"id":2032805,"name":"On or near Brassey Close"},"longitude":"-0.257810"},"context":"","outcome_status":{"category":"Investigation complete; no suspect identified","date":"2025-06"},"persistent_id":"3dfaf4980f3f8616fcefd57d669f97dbc6535a323d111bfea2da342c7553c68e","id":128902578,"location_subtype":"","month":"2025-06"},{"category":"shoplifting","location_type":"Force","location":{"latitude":"52.588650","street":{"id":2031623,"name":"On or near Petrol Station"},"longitude":"-0.284972"},"context":"","outcome_status":{"category":"Court result unavailable","date":"2025-12"},"persistent_id":"d2dea6da4700bb6fa822a617ecea5dc3157aff54083e22cdb6147c52385c582b","id":128907381,"location_subtype":"","month":"2025-06"},{"category":"shoplifting","location_type":"Force","location":{"latitude":"52.588650","street":{"id":2031623,"name":"On or near Petrol Station"},"longitude":"-0.284972"},"context":"","outcome_status":{"category":"Investigation complete; no suspect identified","date":"2025-06"},"persistent_id":"068e4aed67459b51aca8decb21bdae8719e6e32cedd891107d8a2407ba6f0b49","id":128907430,"location_subtype":"","month":"2025-06"},{"category":"shoplifting","location_type":"Force","location":{"latitude":"52.597042","street":{"id":2032332,"name":"On or near A47"},"longitude":"-0.266676"},"context":"","outcome_status":{"category":"Investigation complete; no suspect identified","date":"2025-06"},"persistent_id":"0ba4b68cde031a2b576a835c89c374faa460d2d1087ba3f6d3f6573d2766a847","id":128899245,"location_subtype":"","month":"2025-06"},{"category":"shoplifting","location_type":"Force","location":{"latitude":"52.588650","street":{"id":2031623,"name":"On or near Petrol Station"},"longitude":"-0.284972"},"context":"","outcome_status":{"category":"Court result unavailable","date":"2025-12"},"persistent_id":"c349f7f9464cd7bba9d9c16ec69c597c2e1b4fad970dcbfa909f3d8ca8b4fb69","id":128891330,"location_subtype":"","month":"2025-06"},{"category":"shoplifting","location_type":"Force","location":{"latitude":"52.590627","street":{"id":2031647,"name":"On or near Parking Area"},"longitude":"-0.284275"},"context":"","outcome_status":{"category":"Court result unavailable","date":"2025-12"},"persistent_id":"7817970e3ada9a77dff04360611c35bfda063ecd41c3c9e5d4d519281d8174b9","id":128887548,"location_subtype":"","month":"2025-06"},{"category":"shoplifting","location_type":"Force","location":{"latitude":"52.593478","street":{"id":2032805,"name":"On or near Brassey Close"},"longitude":"-0.257810"},"context":"","outcome_status":{"category":"Investigation complete; no suspect identified","date":"2025-06"},"persistent_id":"434f50b7eb28eaeb9cb61ab8df543095d66a2951685d62c2f232da1eea376c16","id":128907895,"location_subtype":"","month":"2025-06"},{"category":"shoplifting","location_type":"Force","location":{"latitude":"52.597042","street":{"id":2032332,"name":"On or near A47"},"longitude":"-0.266676"},"context":"","outcome_status":{"category":"Investigation complete; no suspect identified","date":"2025-06"},"persistent_id":"c43dfc32f06ebc7086e7d9148fa3a5b477688792d9f03c695ce9e92ee94773a9","id":128889206,"location_subtype":"","month":"2025-06"},{"category":"shoplifting","location_type":"Force","location":{"latitude":"52.588650","street":{"id":2031623,"name":"On or near Petrol Station"},"longitude":"-0.284972"},"context":"","outcome_status":{"category":"Court result unavailable","date":"2026-01"},"persistent_id":"44a1b7fe6eecbb202c1d666aae2146b3b89bcff06b33c744b1978febae8108ab","id":128908424,"location_subtype":"","month":"2025-06"},{"category":"shoplifting","location_type":"Force","location":{"latitude":"52.593478","street":{"id":2032805,"name":"On or near Brassey Close"},"longitude":"-0.257810"},"context":"","outcome_status":{"category":"Court result unavailable","date":"2026-01"},"persistent_id":"e88798afd2460d65a0f1537632bcef6eaf45de7ef5d8d2910f46a9344a168bf1","id":128908452,"location_subtype":"","month":"2025-06"},{"category":"shoplifting","location_type":"Force","location":{"latitude":"52.588650","street":{"id":2031623,"name":"On or near Petrol Station"},"longitude":"-0.284972"},"context":"","outcome_status":{"category":"Court result unavailable","date":"2025-12"},"persistent_id":"c5235312cb8bf6ef25c45726bf45b807a0226661b300ff65a758dbb0ab1229ba","id":128899792,"location_subtype":"","month":"2025-06"},{"category":"shoplifting","location_type":"Force","location":{"latitude":"52.590442","street":{"id":2032254,"name":"On or near Hampton Court"},"longitude":"-0.268471"},"context":"","outcome_status":{"category":"Investigation complete; no suspect identified","date":"2025-06"},"persistent_id":"0b55bdf74c7aa91f8f7c0877e7a4a84cfc54be7895fa47dbf45328963e4b2c7a","id":128910703,"location_subtype":"","month":"2025-06"},{"category":"shoplifting","location_type":"Force","location":{"latitude":"52.597042","street":{"id":2032332,"name":"On or near A47"},"longitude":"-0.266676"},"context":"","outcome_status":{"category":"Investigation complete; no suspect identified","date":"2025-06"},"persistent_id":"bbc89d6765861e65aeb5d1163b29c5489d0aa2b6d8fe9a815ad328ef45a45718","id":128910757,"location_subtype":"","month":"2025-06"},{"category":"shoplifting","location_type":"Force","location":{"latitude":"52.590627","street":{"id":2031647,"name":"On or near Parking Area"},"longitude":"-0.284275"},"context":"","outcome_status":{"category":"Investigation complete; no suspect identified","date":"2025-06"},"persistent_id":"1ae9fa0983ac00add29f6be9e4f78c22097942328cccd793c2ac53d31dbb3a21","id":128911027,"location_subtype":"","month":"2025-06"},{"category":"shoplifting","location_type":"Force","location":{"latitude":"52.597042","street":{"id":2032332,"name":"On or near A47"},"longitude":"-0.266676"},"context":"","outcome_status":{"category":"Court result unavailable","date":"2025-12"},"persistent_id":"592d0bbe5ba59dbd2aa1c905fad2de9a981d907350c892f58dbc3138da7bb38d","id":128911250,"location_subtype":"","month":"2025-06"},{"category":"shoplifting","location_type":"Force","location":{"latitude":"52.593478","street":{"id":2032805,"name":"On or near Brassey Close"},"longitude":"-0.257810"},"context":"","outcome_status":{"category":"Investigation complete; no suspect identified","date":"2025-06"},"persistent_id":"9348735df38ff305dc5c5f75d00b19035ee386eb22bff2b81d5435ef1ba82e3c","id":128912108,"location_subtype":"","month":"2025-06"},{"category":"shoplifting","location_type":"Force","location":{"latitude":"52.597042","street":{"id":2032332,"name":"On or near A47"},"longitude":"-0.266676"},"context":"","outcome_status":{"category":"Investigation complete; no suspect identified","date":"2025-06"},"persistent_id":"96534719aeef0e0323b72aebfacba2b440fa4287c5346454cf26e781c9b1fdf9","id":128912124,"location_subtype":"","month":"2025-06"},{"category":"shoplifting","location_type":"Force","location":{"latitude":"52.591214","street":{"id":2031663,"name":"On or near Supermarket"},"longitude":"-0.283694"},"context":"","outcome_status":{"category":"Investigation complete; no suspect identified","date":"2025-06"},"persistent_id":"548b9beb9bc47c1b3df583163c546cb11e021dd106bffd1789e57ff6563de8e3","id":128900147,"location_subtype":"","month":"2025-06"},{"category":"shoplifting","location_type":"Force","location":{"latitude":"52.588650","street":{"id":2031623,"name":"On or near Petrol Station"},"longitude":"-0.284972"},"context":"","outcome_status":{"category":"Court result unavailable","date":"2026-01"},"persistent_id":"0606b2c9e0856c8577c7401db194d1896f7485d4422dcb1c9651712f17195b97","id":128892310,"location_subtype":"","month":"2025-06"},{"category":"shoplifting","location_type":"Force","location":{"latitude":"52.597042","street":{"id":2032332,"name":"On or near A47"},"longitude":"-0.266676"},"context":"","outcome_status":{"category":"Investigation complete; no suspect identified","date":"2025-07"},"persistent_id":"98dfca3511f6602ee6ed60e457cc8713167a88311180cc61728b659d4b90dc58","id":128894908,"location_subtype":"","month":"2025-06"},{"category":"shoplifting","location_type":"Force","location":{"latitude":"52.597042","street":{"id":2032332,"name":"On or near A47"},"longitude":"-0.266676"},"context":"","outcome_status":{"category":"Investigation complete; no suspect identified","date":"2025-06"},"persistent_id":"1f1ca08b9ef871faac6dc846f59f66c3e11b54340966ec610c502e9709ebcf63","id":128891373,"location_subtype":"","month":"2025-06"},{"category":"shoplifting","location_type":"Force","location":{"latitude":"52.591214","street":{"id":2031663,"name":"On or near Supermarket"},"longitude":"-0.283694"},"context":"","outcome_status":{"category":"Local resolution","date":"2025-08"},"persistent_id":"6cd9dca219a6c5218120e437acdef18aff8a438e2c761e43de7556378ca8c0db","id":128897260,"location_subtype":"","month":"2025-06"},{"category":"shoplifting","location_type":"Force","location":{"latitude":"52.590627","street":{"id":2031647,"name":"On or near Parking Area"},"longitude":"-0.284275"},"context":"","outcome_status":{"category":"Investigation complete; no suspect identified","date":"2025-06"},"persistent_id":"c0e1986a104be912f1ee5f8a92dfae4c8f9a3b7906e3fad8080d1633a12d0d67","id":128888507,"location_subtype":"","month":"2025-06"},{"category":"shoplifting","location_type":"Force","location":{"latitude":"52.588650","street":{"id":2031623,"name":"On or near Petrol Station"},"longitude":"-0.284972"},"context":"","outcome_status":{"category":"Court result unavailable","date":"2025-12"},"persistent_id":"4b75272b283c07dd3dc0c6f82f029ba9ffdd7085834e06c2123b3504b77f6069","id":128903208,"location_subtype":"","month":"2025-06"},{"category":"shoplifting","location_type":"Force","location":{"latitude":"52.581840","street":{"id":2032841,"name":"On or near Supermarket"},"longitude":"-0.257271"},"context":"","outcome_status":{"category":"Investigation complete; no suspect identified","date":"2025-06"},"persistent_id":"224f6ab8a5c59e0cca3d763cb03a9c7681be06137023086407516d38f01da389","id":128900774,"location_subtype":"","month":"2025-06"},{"category":"shoplifting","location_type":"Force","location":{"latitude":"52.588650","street":{"id":2031623,"name":"On or near Petrol Station"},"longitude":"-0.284972"},"context":"","outcome_status":{"category":"Court result unavailable","date":"2026-01"},"persistent_id":"f43584b1ed46032c2e8d8dfb840791067057618ebb72b54f9661385172792434","id":128911894,"location_subtype":"","month":"2025-06"},{"category":"shoplifting","location_type":"Force","location":{"latitude":"52.588650","street":{"id":2031623,"name":"On or near Petrol Station"},"longitude":"-0.284972"},"context":"","outcome_status":{"category":"Court result unavailable","date":"2025-12"},"persistent_id":"9aa7400aeeb9f785b533f2cefa91f50eaa7ccdec2f00645ae198b7cd5d4acbd4","id":128901225,"location_subtype":"","month":"2025-06"},{"category":"shoplifting","location_type":"Force","location":{"latitude":"52.581840","street":{"id":2032841,"name":"On or near Supermarket"},"longitude":"-0.257271"},"context":"","outcome_status":{"category":"Investigation complete; no suspect identified","date":"2025-07"},"persistent_id":"a68e68b046de840b0990767fafdd9bdd2b9be7e5e54da7716b99867e7fe45745","id":128898176,"location_subtype":"","month":"2025-06"},{"category":"shoplifting","location_type":"Force","location":{"latitude":"52.588650","street":{"id":2031623,"name":"On or near Petrol Station"},"longitude":"-0.284972"},"context":"","outcome_status":{"category":"Court result unavailable","date":"2025-12"},"persistent_id":"a794df614e51d9a23db1e2d489d1670815e2e2a5b5c5f6ba81f1bf6d7b218aa9","id":128891426,"location_subtype":"","month":"2025-06"},{"category":"shoplifting","location_type":"Force","location":{"latitude":"52.591214","street":{"id":2031663,"name":"On or near Supermarket"},"longitude":"-0.283694"},"context":"","outcome_status":{"category":"Local resolution","date":"2025-06"},"persistent_id":"6706fef7833258844fcbdd5cd15e030d772d9b16f8d7c8a4504025dd630d3fda","id":128898744,"location_subtype":"","month":"2025-06"},{"category":"shoplifting","location_type":"Force","location":{"latitude":"52.590923","street":{"id":2031694,"name":"On or near Supermarket"},"longitude":"-0.282344"},"context":"","outcome_status":{"category":"Court result unavailable","date":"2026-01"},"persistent_id":"8ee91b58d0b3c712c9621dfdc9792767102d629d777ebd4ee353a6ca5fdcff08","id":128894149,"location_subtype":"","month":"2025-06"},{"category":"shoplifting","location_type":"Force","location":{"latitude":"52.591214","street":{"id":2031663,"name":"On or near Supermarket"},"longitude":"-0.283694"},"context":"","outcome_status":{"category":"Investigation complete; no suspect identified","date":"2025-06"},"persistent_id":"5a9398c07e94f166adec0e4712568c0f23c0584c3b62d362ce65facb15c4fcfb","id":128902329,"location_subtype":"","month":"2025-06"},{"category":"shoplifting","location_type":"Force","location":{"latitude":"52.588650","street":{"id":2031623,"name":"On or near Petrol Station"},"longitude":"-0.284972"},"context":"","outcome_status":{"category":"Court result unavailable","date":"2026-01"},"persistent_id":"2cc1b973959237a81e6f3a6113c24feb56cd2cb2e68c5f4db9c79c1274d97694","id":128900752,"location_subtype":"","month":"2025-06"},{"category":"shoplifting","location_type":"Force","location":{"latitude":"52.590627","street":{"id":2031647,"name":"On or near Parking Area"},"longitude":"-0.284275"},"context":"","outcome_status":{"category":"Investigation complete; no suspect identified","date":"2025-06"},"persistent_id":"6ca1025024a83c2eb990cce94121ef6b8058bb31cd5f53bf4d008552ecbc0216","id":128903128,"location_subtype":"","month":"2025-06"},{"category":"theft-from-the-person","location_type":"Force","location":{"latitude":"52.570432","street":{"id":2032092,"name":"On or near A1179"},"longitude":"-0.271768"},"context":"","outcome_status":{"category":"Investigation complete; no suspect identified","date":"2025-06"},"persistent_id":"d5445a0bba87d68bd9a22c7600ac03e84e6c619c8572004d8c3dbd3d050e4006","id":128906832,"location_subtype":"","month":"2025-06"},{"category":"theft-from-the-person","location_type":"Force","location":{"latitude":"52.591497","street":{"id":2032818,"name":"On or near Peppercorn Close"},"longitude":"-0.255822"},"context":"","outcome_status":{"category":"Unable to prosecute suspect","date":"2025-06"},"persistent_id":"50a85491ed0fd6f15b3db1b225d16d23c46af87b8622b9ee558d478bb38803e9","id":128889871,"location_subtype":"","month":"2025-06"},{"category":"vehicle-crime","location_type":"Force","location":{"latitude":"52.591734","street":{"id":2031734,"name":"On or near Headngs Drive"},"longitude":"-0.281870"},"context":"","outcome_status":{"category":"Investigation complete; no suspect identified","date":"2025-06"},"persistent_id":"c493acfbc8b91bfe2208baa8bbf178887dbe9398aabc20aa44f41187d2a12217","id":128912025,"location_subtype":"","month":"2025-06"},{"category":"vehicle-crime","location_type":"Force","location":{"latitude":"52.585190","street":{"id":2032087,"name":"On or near Edgcote Close"},"longitude":"-0.272073"},"context":"","outcome_status":{"category":"Investigation complete; no suspect identified","date":"2025-06"},"persistent_id":"8e5912c16865d3c0fc26ab57f5657f5b38d9ade567cb73ed187be71eb9872aeb","id":128907955,"location_subtype":"","month":"2025-06"},{"category":"vehicle-crime","location_type":"Force","location":{"latitude":"52.591214","street":{"id":2031663,"name":"On or near Supermarket"},"longitude":"-0.283694"},"context":"","outcome_status":{"category":"Offender given a caution","date":"2025-10"},"persistent_id":"c0f702da1615e2b05df4189a210fc656efe57353533bee51fe1ef49515bc64cc","id":128896249,"location_subtype":"","month":"2025-06"},{"category":"vehicle-crime","location_type":"Force","location":{"latitude":"52.592613","street":{"id":2031609,"name":"On or near Benland"},"longitude":"-0.284832"},"context":"","outcome_status":{"category":"Investigation complete; no suspect identified","date":"2025-06"},"persistent_id":"2bf21dd32ca4c315ceabc65f099cc8afb6202a3f687eaf22d4ff9ef8f8155461","id":128895497,"location_subtype":"","month":"2025-06"},{"category":"vehicle-crime","location_type":"Force","location":{"latitude":"52.580363","street":{"id":2031622,"name":"On or near Artindale"},"longitude":"-0.284484"},"context":"","outcome_status":{"category":"Investigation complete; no suspect identified","date":"2025-06"},"persistent_id":"30fa1e67288ce1b34f8bface59e33860fc69e284b55de75391ee009f8e19f381","id":128900059,"location_subtype":"","month":"2025-06"},{"category":"vehicle-crime","location_type":"Force","location":{"latitude":"52.577557","street":{"id":2032806,"name":"On or near Williamson Avenue"},"longitude":"-0.256744"},"context":"","outcome_status":{"category":"Investigation complete; no suspect identified","date":"2025-06"},"persistent_id":"a853679e196f964f05b3426f263e38abdd9396f678ea55dbc8e3e9c711b8be1c","id":128895768,"location_subtype":"","month":"2025-06"},{"category":"vehicle-crime","location_type":"Force","location":{"latitude":"52.597042","street":{"id":2032332,"name":"On or near A47"},"longitude":"-0.266676"},"context":"","outcome_status":{"category":"Investigation complete; no suspect identified","date":"2025-06"},"persistent_id":"8677cb76311a2f21e5e87eb840792f4abe8f94f306a6c6fe933c2c25ca12078e","id":128902557,"location_subtype":"","month":"2025-06"},{"category":"vehicle-crime","location_type":"Force","location":{"latitude":"52.587934","street":{"id":2032832,"name":"On or near Berry Court"},"longitude":"-0.253764"},"context":"","outcome_status":{"category":"Investigation complete; no suspect identified","date":"2025-06"},"persistent_id":"3985516e41011680921b9d6a02faf9a66d7b9348d6ec28d3b1022fffa7ccd08f","id":128898256,"location_subtype":"","month":"2025-06"},{"category":"vehicle-crime","location_type":"Force","location":{"latitude":"52.591497","street":{"id":2032818,"name":"On or near Peppercorn Close"},"longitude":"-0.255822"},"context":"","outcome_status":{"category":"Unable to prosecute suspect","date":"2025-07"},"persistent_id":"6e0e5542ea9200ee5a12fb842e01d96072a2a05c08c884821f6171767b0a1d44","id":128898225,"location_subtype":"","month":"2025-06"},{"category":"vehicle-crime","location_type":"Force","location":{"latitude":"52.576257","street":{"id":2031569,"name":"On or near Lindridge Walk"},"longitude":"-0.285309"},"context":"","outcome_status":{"category":"Investigation complete; no suspect identified","date":"2025-06"},"persistent_id":"eef08a1103c926b34bc7af4b84a0aeacf75f40106e453b2010690cd4311aa9fd","id":128901606,"location_subtype":"","month":"2025-06"},{"category":"vehicle-crime","location_type":"Force","location":{"latitude":"52.592740","street":{"id":2031921,"name":"On or near Swanspool"},"longitude":"-0.276840"},"context":"","outcome_status":{"category":"Investigation complete; no suspect identified","date":"2025-06"},"persistent_id":"a44c6e2704d456bedc5b9934d086269cd74a992a0d7e2e539cd7d0999b25bdae","id":128900721,"location_subtype":"","month":"2025-06"},{"category":"violent-crime","location_type":"Force","location":{"latitude":"52.579438","street":{"id":2032754,"name":"On or near Nicholls Avenue"},"longitude":"-0.258677"},"context":"","outcome_status":{"category":"Investigation complete; no suspect identified","date":"2025-07"},"persistent_id":"9f3c0fb6e6e3ea16ee18e378a42ae4ea9f9b2b13513bd0074213429ac98c33fa","id":128890086,"location_subtype":"","month":"2025-06"},{"category":"violent-crime","location_type":"Force","location":{"latitude":"52.598343","street":{"id":2031957,"name":"On or near Heltwate"},"longitude":"-0.273269"},"context":"","outcome_status":{"category":"Formal action is not in the public interest","date":"2025-07"},"persistent_id":"91e8e68ecd61ef0d4add42e77eecf282b51784d451b8e07aa5699532c72d1e7f","id":128889698,"location_subtype":"","month":"2025-06"},{"category":"violent-crime","location_type":"Force","location":{"latitude":"52.586514","street":{"id":2032517,"name":"On or near Prison"},"longitude":"-0.259961"},"context":"","outcome_status":{"category":"Unable to prosecute suspect","date":"2025-07"},"persistent_id":"9b4a28582fe8784b322c9043372fc93a7992c4ea450a189b7b7290310acc2071","id":128889581,"location_subtype":"","month":"2025-06"},{"category":"violent-crime","location_type":"Force","location":{"latitude":"52.583716","street":{"id":2033007,"name":"On or near Bourges Boulevard"},"longitude":"-0.252500"},"context":"","outcome_status":{"category":"Unable to prosecute suspect","date":"2025-07"},"persistent_id":"a40f671620ef8155e294b239dd42e53b5497551d1815d229dec9ee0712034283","id":128889017,"location_subtype":"","month":"2025-06"},{"category":"violent-crime","location_type":"Force","location":{"latitude":"52.586514","street":{"id":2032517,"name":"On or near Prison"},"longitude":"-0.259961"},"context":"","outcome_status":{"category":"Unable to prosecute suspect","date":"2025-07"},"persistent_id":"25ec42e56caebf609de291efd729c47247809f9dd2645f52c46b1d161d72023a","id":128888977,"location_subtype":"","month":"2025-06"},{"category":"violent-crime","location_type":"Force","location":{"latitude":"52.586514","street":{"id":2032517,"name":"On or near Prison"},"longitude":"-0.259961"},"context":"","outcome_status":{"category":"Action to be taken by another organisation","date":"2025-07"},"persistent_id":"23539b6dee876760f916561e46e828f8eb6baf38947da57bcd4d9700a5041f1f","id":128888111,"location_subtype":"","month":"2025-06"},{"category":"violent-crime","location_type":"Force","location":{"latitude":"52.585692","street":{"id":2033040,"name":"On or near English Street"},"longitude":"-0.252377"},"context":"","outcome_status":{"category":"Unable to prosecute suspect","date":"2025-07"},"persistent_id":"4500f813759340b2b73a9894d8e852db394dc603010e1c396a76fd2b64c69f75","id":128887454,"location_subtype":"","month":"2025-06"},{"category":"violent-crime","location_type":"Force","location":{"latitude":"52.588596","street":{"id":2032360,"name":"On or near Winwick Place"},"longitude":"-0.267009"},"context":"","outcome_status":{"category":"Unable to prosecute suspect","date":"2025-07"},"persistent_id":"f2c9a0d74d913f7cf22726a7490a578f4344b4a7210dad0e189e9f90502134d5","id":128910779,"location_subtype":"","month":"2025-06"},{"category":"violent-crime","location_type":"Force","location":{"latitude":"52.582693","street":{"id":2031497,"name":"On or near Tyesdale"},"longitude":"-0.286489"},"context":"","outcome_status":{"category":"Offender given a caution","date":"2025-07"},"persistent_id":"1af076ded40c83a0a77e9ae74f51661a83401f9ab8a114be82f67fb8a1f0e37f","id":128909358,"location_subtype":"","month":"2025-06"},{"category":"violent-crime","location_type":"Force","location":{"latitude":"52.586514","street":{"id":2032517,"name":"On or near Prison"},"longitude":"-0.259961"},"context":"","outcome_status":{"category":"Action to be taken by another organisation","date":"2025-07"},"persistent_id":"3ae5e5a51b6599a55e5c45ad2c50de51160dd60989be9285d975349fc1a300e6","id":128909317,"location_subtype":"","month":"2025-06"},{"category":"violent-crime","location_type":"Force","location":{"latitude":"52.586514","street":{"id":2032517,"name":"On or near Prison"},"longitude":"-0.259961"},"context":"","outcome_status":{"category":"Status update unavailable","date":"2025-10"},"persistent_id":"eb9c5541040e16abde0b205e52f08ff289196f14a9ff743ca34acfc54c6e197d","id":129490372,"location_subtype":"","month":"2025-06"},{"category":"violent-crime","location_type":"Force","location":{"latitude":"52.586512","street":{"id":2031516,"name":"On or near Tollgate"},"longitude":"-0.285071"},"context":"","outcome_status":{"category":"Status update unavailable","date":"2025-10"},"persistent_id":"3acd98f89bba877b1b441d5906a30e06a1fea3fa618da8687caa92b9d9ca2730","id":129483166,"location_subtype":"","month":"2025-06"},{"category":"violent-crime","location_type":"Force","location":{"latitude":"52.594868","street":{"id":2032095,"name":"On or near Odecroft"},"longitude":"-0.271707"},"context":"","outcome_status":{"category":"Status update unavailable","date":"2025-10"},"persistent_id":"49daedaab716cecac66348add4d4893b4dd481500ac8c3dd536a5e8b511af603","id":129483099,"location_subtype":"","month":"2025-06"},{"category":"violent-crime","location_type":"Force","location":{"latitude":"52.596941","street":{"id":2031955,"name":"On or near Ellindon"},"longitude":"-0.273929"},"context":"","outcome_status":{"category":"Unable to prosecute suspect","date":"2025-09"},"persistent_id":"b3dec30bd48a53e44d5dc5d40a1b548e82eacb7dc5ffc82fc01392a0e6b2d98e","id":128906550,"location_subtype":"","month":"2025-06"},{"category":"violent-crime","location_type":"Force","location":{"latitude":"52.590442","street":{"id":2032254,"name":"On or near Hampton Court"},"longitude":"-0.268471"},"context":"","outcome_status":{"category":"Unable to prosecute suspect","date":"2025-09"},"persistent_id":"cc6d08a3d929951540ed66f5ad72509cdafd9db7ba5199c30f3555cafa616912","id":128909364,"location_subtype":"","month":"2025-06"},{"category":"violent-crime","location_type":"Force","location":{"latitude":"52.586514","street":{"id":2032517,"name":"On or near Prison"},"longitude":"-0.259961"},"context":"","outcome_status":{"category":"Awaiting court outcome","date":"2025-08"},"persistent_id":"5b456018e8a92a0923f864ac4a8fcc8e83bf6bfd3223b341758284c19c528c72","id":128907650,"location_subtype":"","month":"2025-06"},{"category":"violent-crime","location_type":"Force","location":{"latitude":"52.580761","street":{"id":2032823,"name":"On or near Fulham Road"},"longitude":"-0.257547"},"context":"","outcome_status":{"category":"Unable to prosecute suspect","date":"2025-06"},"persistent_id":"bcb5bfb490639c1bec77f484d5ae7f5fa7f15766e193b6c1b01ac4bc0321ad8c","id":128899008,"location_subtype":"","month":"2025-06"},{"category":"violent-crime","location_type":"Force","location":{"latitude":"52.585140","street":{"id":2032248,"name":"On or near Chelveston Way"},"longitude":"-0.268651"},"context":"","outcome_status":{"category":"Unable to prosecute suspect","date":"2025-06"},"persistent_id":"3601b103a8800e7ab7214b42aff06e6cc2c7ac7d4a2f87079562f999aa02e81c","id":128899429,"location_subtype":"","month":"2025-06"},{"category":"violent-crime","location_type":"Force","location":{"latitude":"52.588376","street":{"id":2031898,"name":"On or near Sandford"},"longitude":"-0.275993"},"context":"","outcome_status":{"category":"Unable to prosecute suspect","date":"2025-06"},"persistent_id":"e7cfa9a2f104c5593da075c7ec5da0e7a253b0861f6dee5118b63a6b6da7f220","id":128908400,"location_subtype":"","month":"2025-06"},{"category":"violent-crime","location_type":"Force","location":{"latitude":"52.582693","street":{"id":2031497,"name":"On or near Tyesdale"},"longitude":"-0.286489"},"context":"","outcome_status":{"category":"Unable to prosecute suspect","date":"2025-06"},"persistent_id":"d354c341f3eb91479c3d9ef29c738e151332b1e4f59c35fe479e251ba11eae54","id":128912143,"location_subtype":"","month":"2025-06"},{"category":"violent-crime","location_type":"Force","location":{"latitude":"52.581112","street":{"id":2032642,"name":"On or near Isham Road"},"longitude":"-0.261873"},"context":"","outcome_status":{"category":"Unable to prosecute suspect","date":"2025-06"},"persistent_id":"58b932a196b2f2f89a82a98796e9d1167f77570a449a6090a0f7b99537c28112","id":128889912,"location_subtype":"","month":"2025-06"},{"category":"violent-crime","location_type":"Force","location":{"latitude":"52.577557","street":{"id":2032806,"name":"On or near Williamson Avenue"},"longitude":"-0.256744"},"context":"","outcome_status":{"category":"Unable to prosecute suspect","date":"2025-06"},"persistent_id":"57523bc94d7a6919495506ea196b352cdf3934fbebe662765d98d7571acbb7be","id":128900017,"location_subtype":"","month":"2025-06"},{"category":"violent-crime","location_type":"Force","location":{"latitude":"52.589161","street":{"id":2031664,"name":"On or near Theatre/concert Hall"},"longitude":"-0.283594"},"context":"","outcome_status":{"category":"Unable to prosecute suspect","date":"2025-06"},"persistent_id":"1dbccd62337de0a74d11cc8ae74c27a0c359858a23a5f5eb66c800d511c07758","id":128895250,"location_subtype":"","month":"2025-06"},{"category":"violent-crime","location_type":"Force","location":{"latitude":"52.577179","street":{"id":2032645,"name":"On or near Angus Court"},"longitude":"-0.261600"},"context":"","outcome_status":{"category":"Unable to prosecute suspect","date":"2025-07"},"persistent_id":"2c2ab775e7e18486964041592d051580c4f3fda99fcfaff94f29a48e3a2e5088","id":128902494,"location_subtype":"","month":"2025-06"},{"category":"violent-crime","location_type":"Force","location":{"latitude":"52.583716","street":{"id":2033007,"name":"On or near Bourges Boulevard"},"longitude":"-0.252500"},"context":"","outcome_status":{"category":"Investigation complete; no suspect identified","date":"2025-07"},"persistent_id":"e0e5baf2dcaacc869ea74333a74835db5f24073d25c0b9c3c1810057d863954e","id":128902023,"location_subtype":"","month":"2025-06"},{"category":"violent-crime","location_type":"Force","location":{"latitude":"52.578268","street":{"id":2032732,"name":"On or near Supermarket"},"longitude":"-0.259240"},"context":"","outcome_status":{"category":"Investigation complete; no suspect identified","date":"2025-07"},"persistent_id":"0928174dea8f4730286f8bd7e1ac2048b1f9690bd7599955a1c659ca0ca34a3a","id":128900469,"location_subtype":"","month":"2025-06"},{"category":"violent-crime","location_type":"Force","location":{"latitude":"52.580204","street":{"id":2032001,"name":"On or near Winslow Road"},"longitude":"-0.273554"},"context":"","outcome_status":{"category":"Unable to prosecute suspect","date":"2025-07"},"persistent_id":"a6562a1a93494b547fd2ab6c767afb9560f04cd6ab5e7e2da96167d241b44b1b","id":128900370,"location_subtype":"","month":"2025-06"},{"category":"violent-crime","location_type":"Force","location":{"latitude":"52.577992","street":{"id":2031767,"name":"On or near Heaton Close"},"longitude":"-0.280341"},"context":"","outcome_status":{"category":"Unable to prosecute suspect","date":"2025-06"},"persistent_id":"7197366abaf0160de4e00e2c9d4964225f99c5c3c29d11579f8c7ab39bf55a2b","id":128896629,"location_subtype":"","month":"2025-06"},{"category":"violent-crime","location_type":"Force","location":{"latitude":"52.581112","street":{"id":2032642,"name":"On or near Isham Road"},"longitude":"-0.261873"},"context":"","outcome_status":{"category":"Unable to prosecute suspect","date":"2025-07"},"persistent_id":"ce98d089b837c881030c0f9e46f2968b002ce13e52a38c28e0be189efb390f57","id":128891036,"location_subtype":"","month":"2025-06"},{"category":"violent-crime","location_type":"Force","location":{"latitude":"52.577992","street":{"id":2031767,"name":"On or near Heaton Close"},"longitude":"-0.280341"},"context":"","outcome_status":{"category":"Unable to prosecute suspect","date":"2025-06"},"persistent_id":"4719b7ba074383b43e69ab8db84a83b5873b6e62dd182cac3a79fbdc7123959f","id":128887514,"location_subtype":"","month":"2025-06"},{"category":"violent-crime","location_type":"Force","location":{"latitude":"52.586514","street":{"id":2032517,"name":"On or near Prison"},"longitude":"-0.259961"},"context":"","outcome_status":{"category":"Awaiting court outcome","date":"2026-01"},"persistent_id":"4db47c75e1636e31440afea06f6ad2456c657a28ebe22f80f4b5dcf9728ab1bd","id":128888091,"location_subtype":"","month":"2025-06"},{"category":"violent-crime","location_type":"Force","location":{"latitude":"52.585692","street":{"id":2033040,"name":"On or near English Street"},"longitude":"-0.252377"},"context":"","outcome_status":{"category":"Unable to prosecute suspect","date":"2025-07"},"persistent_id":"576696298cb116eb47a25b65999473f39b431f2a516d068ee15976632a65bd0a","id":128888241,"location_subtype":"","month":"2025-06"},{"category":"violent-crime","location_type":"Force","location":{"latitude":"52.577992","street":{"id":2031767,"name":"On or near Heaton Close"},"longitude":"-0.280341"},"context":"","outcome_status":{"category":"Unable to prosecute suspect","date":"2025-06"},"persistent_id":"fd8731b02c25e546ba45f0c2b7e9bc08a489b0279660dadda7b18afd32fc0ea2","id":128888636,"location_subtype":"","month":"2025-06"},{"category":"violent-crime","location_type":"Force","location":{"latitude":"52.586514","street":{"id":2032517,"name":"On or near Prison"},"longitude":"-0.259961"},"context":"","outcome_status":{"category":"Awaiting court outcome","date":"2026-01"},"persistent_id":"fca34c8dd249e04cccff3576e0fa095d4c47d8ea6096762d2900933fcfbad33d","id":128888953,"location_subtype":"","month":"2025-06"},{"category":"violent-crime","location_type":"Force","location":{"latitude":"52.586832","street":{"id":2032142,"name":"On or near Flore Close"},"longitude":"-0.268761"},"context":"","outcome_status":{"category":"Investigation complete; no suspect identified","date":"2025-06"},"persistent_id":"e405cf5d7c646a1e507ac3fb8ac592597d20068ca9e13d07898ec3d339e20de0","id":128889125,"location_subtype":"","month":"2025-06"},{"category":"violent-crime","location_type":"Force","location":{"latitude":"52.588376","street":{"id":2031898,"name":"On or near Sandford"},"longitude":"-0.275993"},"context":"","outcome_status":{"category":"Status update unavailable","date":"2025-10"},"persistent_id":"9b5f8d2221a34373ce170da4791e8038b56ceb04c50d2c91cec0deb23ba83cd2","id":128889377,"location_subtype":"","month":"2025-06"},{"category":"violent-crime","location_type":"Force","location":{"latitude":"52.583854","street":{"id":2032163,"name":"On or near Cranford Drive"},"longitude":"-0.269823"},"context":"","outcome_status":{"category":"Unable to prosecute suspect","date":"2025-06"},"persistent_id":"5005ade0186d110702b4b8253a1f23e39328bcf243cf7f234fb3f7229f932593","id":128889792,"location_subtype":"","month":"2025-06"},{"category":"violent-crime","location_type":"Force","location":{"latitude":"52.576993","street":{"id":2032127,"name":"On or near Thorpe Park Road"},"longitude":"-0.269754"},"context":"","outcome_status":{"category":"Status update unavailable","date":"2025-10"},"persistent_id":"8fbcc926ce9e27d588ec7aa484dfd84c2360fbf6d6591b315c09adf3e4c461e0","id":128889932,"location_subtype":"","month":"2025-06"},{"category":"violent-crime","location_type":"Force","location":{"latitude":"52.586514","street":{"id":2032517,"name":"On or near Prison"},"longitude":"-0.259961"},"context":"","outcome_status":{"category":"Unable to prosecute suspect","date":"2025-06"},"persistent_id":"c2ae316e70047b774262ee7f29e50dc66598cf538dabd8054e77da94e29bbecb","id":128890190,"location_subtype":"","month":"2025-06"},{"category":"violent-crime","location_type":"Force","location":{"latitude":"52.588376","street":{"id":2031898,"name":"On or near Sandford"},"longitude":"-0.275993"},"context":"","outcome_status":{"category":"Unable to prosecute suspect","date":"2025-06"},"persistent_id":"8f8819e30f70a71946379cc5417a7195367da526b2507174cf060c916da89d87","id":128890537,"location_subtype":"","month":"2025-06"},{"category":"violent-crime","location_type":"Force","location":{"latitude":"52.581840","street":{"id":2032841,"name":"On or near Supermarket"},"longitude":"-0.257271"},