[{"category":"anti-social-behaviour","location_type":"Force","location":{"latitude":"50.506310","street":{"id":1772192,"name":"On or near Supermarket"},"longitude":"-4.307406"},"context":"","outcome_status":null,"persistent_id":"","id":133357650,"location_subtype":"","month":"2026-01"},{"category":"burglary","location_type":"Force","location":{"latitude":"50.503883","street":{"id":1772213,"name":"On or near Lynher Way"},"longitude":"-4.303663"},"context":"","outcome_status":{"category":"Investigation complete; no suspect identified","date":"2026-01"},"persistent_id":"2e2985847dd825bc8cbf52ced4a142a860ee79c778ee2b76fc0e73c9bf542b69","id":133351361,"location_subtype":"","month":"2026-01"},{"category":"criminal-damage-arson","location_type":"Force","location":{"latitude":"50.503014","street":{"id":1772119,"name":"On or near Fore Street"},"longitude":"-4.315298"},"context":"","outcome_status":{"category":"Under investigation","date":"2026-01"},"persistent_id":"097019121fa058b5ddfd80f2be7727900dec28090cfdfa1d3e5a3d9704652b94","id":133351016,"location_subtype":"","month":"2026-01"},{"category":"drugs","location_type":"Force","location":{"latitude":"50.507217","street":{"id":1772128,"name":"On or near Broad Mead"},"longitude":"-4.315165"},"context":"","outcome_status":{"category":"Further investigation is not in the public interest","date":"2026-01"},"persistent_id":"eacf71639a8a67ee055de4a9f922ab4a82e6ff36c09120610043487d5e8a2304","id":133349916,"location_subtype":"","month":"2026-01"},{"category":"other-theft","location_type":"Force","location":{"latitude":"50.520001","street":{"id":1772123,"name":"On or near Harris Close"},"longitude":"-4.315015"},"context":"","outcome_status":{"category":"Investigation complete; no suspect identified","date":"2026-01"},"persistent_id":"050f8bc2da220611e077c9aded56522b18cd03caae04ed1d8efa345667c3c0b3","id":133353576,"location_subtype":"","month":"2026-01"},{"category":"other-theft","location_type":"Force","location":{"latitude":"50.504806","street":{"id":1772216,"name":"On or near Petrol Station"},"longitude":"-4.306571"},"context":"","outcome_status":{"category":"Under investigation","date":"2026-01"},"persistent_id":"0da5d90189d60e767aadaaaac4f3ff6498c05122acaa5a45b201bfe6674ccd96","id":133347710,"location_subtype":"","month":"2026-01"},{"category":"other-theft","location_type":"Force","location":{"latitude":"50.520001","street":{"id":1772123,"name":"On or near Harris Close"},"longitude":"-4.315015"},"context":"","outcome_status":{"category":"Investigation complete; no suspect identified","date":"2026-01"},"persistent_id":"bcf71422214f9a6880687de00cf92e402cb1e82d48a6de886bafed49b66de5dc","id":133353658,"location_subtype":"","month":"2026-01"},{"category":"public-order","location_type":"Force","location":{"latitude":"50.502915","street":{"id":1772152,"name":"On or near Shopping Area"},"longitude":"-4.313749"},"context":"","outcome_status":{"category":"Investigation complete; no suspect identified","date":"2026-01"},"persistent_id":"67189adb9f4ac445741df172393423557cefc25c281494561f4e581b4f733234","id":133356549,"location_subtype":"","month":"2026-01"},{"category":"public-order","location_type":"Force","location":{"latitude":"50.516199","street":{"id":1772107,"name":"On or near Bryher Close"},"longitude":"-4.316705"},"context":"","outcome_status":{"category":"Investigation complete; no suspect identified","date":"2026-01"},"persistent_id":"2fdc94d7fd50f803a9d45b9ee743a7f8e946023b0a610045acfb4eb1b8b72a0f","id":133350962,"location_subtype":"","month":"2026-01"},{"category":"public-order","location_type":"Force","location":{"latitude":"50.508804","street":{"id":1772172,"name":"On or near Sports/recreation Area"},"longitude":"-4.311020"},"context":"","outcome_status":{"category":"Under investigation","date":"2026-01"},"persistent_id":"1d981dc024f5ec0460143392c3389e35b9a9054f7aca11ef9c9cb7e3e3b31d3f","id":133347432,"location_subtype":"","month":"2026-01"},{"category":"shoplifting","location_type":"Force","location":{"latitude":"50.501812","street":{"id":1772101,"name":"On or near Chantry Park"},"longitude":"-4.316480"},"context":"","outcome_status":{"category":"Unable to prosecute suspect","date":"2026-01"},"persistent_id":"b1b8d34c5bb2973157b1f02e8ac2a22d7bae42f89c5617df461b0b8587cd9921","id":133350675,"location_subtype":"","month":"2026-01"},{"category":"shoplifting","location_type":"Force","location":{"latitude":"50.506310","street":{"id":1772192,"name":"On or near Supermarket"},"longitude":"-4.307406"},"context":"","outcome_status":{"category":"Investigation complete; no suspect identified","date":"2026-01"},"persistent_id":"c458c21f5a824cda6d0a1b662356632a12f2df8ec6d44aca247acd9b4cff9f1c","id":133353647,"location_subtype":"","month":"2026-01"},{"category":"vehicle-crime","location_type":"Force","location":{"latitude":"50.505611","street":{"id":1772184,"name":"On or near Lamorna Drive"},"longitude":"-4.309516"},"context":"","outcome_status":{"category":"Investigation complete; no suspect identified","date":"2026-01"},"persistent_id":"70843a870a40191706b37f9775408e6c475586cefa6b07941e3a2349fa758826","id":133354686,"location_subtype":"","month":"2026-01"},{"category":"vehicle-crime","location_type":"Force","location":{"latitude":"50.504074","street":{"id":1772086,"name":"On or near Valentine Row"},"longitude":"-4.317169"},"context":"","outcome_status":{"category":"Investigation complete; no suspect identified","date":"2026-01"},"persistent_id":"e834a5902acd1f93eccb3cc15dd7373c11eee96fa9d9cabd7b2b96d9262ac419","id":133351292,"location_subtype":"","month":"2026-01"},{"category":"violent-crime","location_type":"Force","location":{"latitude":"50.506652","street":{"id":1772162,"name":"On or near Urban Terrace"},"longitude":"-4.312810"},"context":"","outcome_status":{"category":"Under investigation","date":"2026-01"},"persistent_id":"c0ed0bee9cc7426b922794ccccaca719cf24f5fd1b2bbbc385c8156af303f4b6","id":133356728,"location_subtype":"","month":"2026-01"},{"category":"violent-crime","location_type":"Force","location":{"latitude":"50.520598","street":{"id":1772150,"name":"On or near Bara Place"},"longitude":"-4.313478"},"context":"","outcome_status":{"category":"Under investigation","date":"2026-01"},"persistent_id":"7ddf771e118fa6d9f48315a609f18d13f8a8c559f5c861dd324b73f413be9a4b","id":133357233,"location_subtype":"","month":"2026-01"},{"category":"violent-crime","location_type":"Force","location":{"latitude":"50.509052","street":{"id":1772097,"name":"On or near Glebe Meadow"},"longitude":"-4.315622"},"context":"","outcome_status":{"category":"Unable to prosecute suspect","date":"2026-01"},"persistent_id":"342db988443bc21a232d037240dbc5b0bce4acbdb27bdf832386b0c6b5e09234","id":133357202,"location_subtype":"","month":"2026-01"},{"category":"violent-crime","location_type":"Force","location":{"latitude":"50.505611","street":{"id":1772184,"name":"On or near Lamorna Drive"},"longitude":"-4.309516"},"context":"","outcome_status":{"category":"Unable to prosecute suspect","date":"2026-01"},"persistent_id":"f6e33d67e4d90ebcf29b7f6a20ee7f131afd9ed196ef3c9f6a8744023306203d","id":133351723,"location_subtype":"","month":"2026-01"},{"category":"violent-crime","location_type":"Force","location":{"latitude":"50.503376","street":{"id":1772079,"name":"On or near Haye Road"},"longitude":"-4.318813"},"context":"","outcome_status":{"category":"Unable to prosecute suspect","date":"2026-01"},"persistent_id":"12ed0a2d57714472532eb831089e8c41199e514242aa089e1722217e8f31f575","id":133349824,"location_subtype":"","month":"2026-01"},{"category":"violent-crime","location_type":"Force","location":{"latitude":"50.502868","street":{"id":1772218,"name":"On or near Inney Close"},"longitude":"-4.305884"},"context":"","outcome_status":{"category":"Under investigation","date":"2026-01"},"persistent_id":"f03b3a10aaf0919563bfaecb3a34214919a969f98a6af9787718de12dd758fc9","id":133348797,"location_subtype":"","month":"2026-01"},{"category":"violent-crime","location_type":"Force","location":{"latitude":"50.509756","street":{"id":1772129,"name":"On or near Florence Hill"},"longitude":"-4.312793"},"context":"","outcome_status":{"category":"Under investigation","date":"2026-01"},"persistent_id":"cbc4eedd45b9fd8775e7fce3b9e39e1b08127c193734aa5f7dd1f11adb070dac","id":133348986,"location_subtype":"","month":"2026-01"},{"category":"violent-crime","location_type":"Force","location":{"latitude":"50.505399","street":{"id":1772177,"name":"On or near Coronation Road"},"longitude":"-4.311621"},"context":"","outcome_status":{"category":"Under investigation","date":"2026-01"},"persistent_id":"5f9d87cff688d44d34bb70562461bc5c0896ee6349648919bc89c37d76498ab1","id":133352006,"location_subtype":"","month":"2026-01"},{"category":"violent-crime","location_type":"Force","location":{"latitude":"50.501025","street":{"id":1772158,"name":"On or near Sports/recreation Area"},"longitude":"-4.312424"},"context":"","outcome_status":{"category":"Under investigation","date":"2026-01"},"persistent_id":"337669294685a5730e39d249f5f43faf4216a131d3f3dbc175ac27a8526dfde2","id":133351898,"location_subtype":"","month":"2026-01"},{"category":"violent-crime","location_type":"Force","location":{"latitude":"50.516707","street":{"id":1772131,"name":"On or near Isacombe Oaks"},"longitude":"-4.314656"},"context":"","outcome_status":{"category":"Under investigation","date":"2026-01"},"persistent_id":"33fe9eee7d421388c7fd57a760966701601675b8722a69f4d562e37e6428ce01","id":133347712,"location_subtype":"","month":"2026-01"},{"category":"violent-crime","location_type":"Force","location":{"latitude":"50.506652","street":{"id":1772162,"name":"On or near Urban Terrace"},"longitude":"-4.312810"},"context":"","outcome_status":{"category":"Action to be taken by another organisation","date":"2026-01"},"persistent_id":"c264c68a7218fb4d2a88f5f18f5e1deb110904576de3dbf979db3cbcf2a2ca27","id":133353871,"location_subtype":"","month":"2026-01"},{"category":"violent-crime","location_type":"Force","location":{"latitude":"50.501495","street":{"id":1772211,"name":"On or near Cedar Close"},"longitude":"-4.307086"},"context":"","outcome_status":{"category":"Under investigation","date":"2026-01"},"persistent_id":"b3acf06992dce9188976f418e5c7f6449172a049727fdd991e2b9e22a72a828b","id":133352163,"location_subtype":"","month":"2026-01"},{"category":"violent-crime","location_type":"Force","location":{"latitude":"50.510677","street":{"id":1772108,"name":"On or near Greenfield Close"},"longitude":"-4.316660"},"context":"","outcome_status":{"category":"Unable to prosecute suspect","date":"2026-01"},"persistent_id":"30447878e636c9674aacb5f49d17cd9d84a136251654efac1cf34adb2a8f4f22","id":133352606,"location_subtype":"","month":"2026-01"},{"category":"violent-crime","location_type":"Force","location":{"latitude":"50.519553","street":{"id":1772208,"name":"On or near Parking Area"},"longitude":"-4.293098"},"context":"","outcome_status":{"category":"Investigation complete; no suspect identified","date":"2026-01"},"persistent_id":"35a5f5f39216ad79ca6769db4d12f0ba4e8316638e73762b0b43d564bfd216a7","id":133350037,"location_subtype":"","month":"2026-01"},{"category":"violent-crime","location_type":"Force","location":{"latitude":"50.506652","street":{"id":1772162,"name":"On or near Urban Terrace"},"longitude":"-4.312810"},"context":"","outcome_status":{"category":"Unable to prosecute suspect","date":"2026-01"},"persistent_id":"c884a895faccc833e2aeaa571c540cdae763418cc2b9e545177d5e2edafbf11e","id":133354228,"location_subtype":"","month":"2026-01"},{"category":"other-crime","location_type":"Force","location":{"latitude":"50.503014","street":{"id":1772119,"name":"On or near Fore Street"},"longitude":"-4.315298"},"context":"","outcome_status":{"category":"Unable to prosecute suspect","date":"2026-01"},"persistent_id":"b2e24269556de196a028c68724c0eef759367a4c7b37a47881b0f5ff6cdcbd62","id":133348078,"location_subtype":"","month":"2026-01"}]