[{"category":"criminal-damage-arson","location_type":"Force","location":{"latitude":"50.338673","street":{"id":1770318,"name":"On or near Sea King Court"},"longitude":"-4.648929"},"context":"","outcome_status":{"category":"Unable to prosecute suspect","date":"2025-12"},"persistent_id":"5132387d53bb3a3a94bd3572a3d99fc9d99d9d42828edc5c216c6ff266d94abb","id":132849445,"location_subtype":"","month":"2025-12"},{"category":"criminal-damage-arson","location_type":"Force","location":{"latitude":"50.336992","street":{"id":1770319,"name":"On or near B3415"},"longitude":"-4.646910"},"context":"","outcome_status":{"category":"Investigation complete; no suspect identified","date":"2025-12"},"persistent_id":"cd371f471aa56614df29e9549a46582c7094499307828a1e29b0d83a9b25872c","id":132854921,"location_subtype":"","month":"2025-12"},{"category":"criminal-damage-arson","location_type":"Force","location":{"latitude":"50.337954","street":{"id":1770312,"name":"On or near Hill Hay Close"},"longitude":"-4.649269"},"context":"","outcome_status":{"category":"Unable to prosecute suspect","date":"2025-12"},"persistent_id":"3bdae5fa5550937b7dffcc70116a575f7c7aab89654e48b5eeece95b6c533218","id":132856729,"location_subtype":"","month":"2025-12"},{"category":"criminal-damage-arson","location_type":"Force","location":{"latitude":"50.340620","street":{"id":1770395,"name":"On or near Bodinnick Heights"},"longitude":"-4.626563"},"context":"","outcome_status":{"category":"Investigation complete; no suspect identified","date":"2025-12"},"persistent_id":"521e8ef6756aa69600b29f91253667119b2230c3a8b6c0314fcc7e65423d3d6b","id":132851141,"location_subtype":"","month":"2025-12"},{"category":"other-theft","location_type":"Force","location":{"latitude":"50.335209","street":{"id":1770379,"name":"On or near South Street"},"longitude":"-4.635118"},"context":"","outcome_status":{"category":"Investigation complete; no suspect identified","date":"2025-12"},"persistent_id":"c16ffaf8460917d2bcc5d9f21a0ef21be25c60db52f4f6110fa55cc4be005934","id":132851844,"location_subtype":"","month":"2025-12"},{"category":"public-order","location_type":"Force","location":{"latitude":"50.339015","street":{"id":1770384,"name":"On or near Passage Street"},"longitude":"-4.632293"},"context":"","outcome_status":{"category":"Investigation complete; no suspect identified","date":"2025-12"},"persistent_id":"f1afee33eae5bfd1c4e8b8af06e016621f9027512ed1ac6e1c54dbc9ccc93aae","id":132849160,"location_subtype":"","month":"2025-12"},{"category":"public-order","location_type":"Force","location":{"latitude":"50.327520","street":{"id":1770397,"name":"On or near Greenbank"},"longitude":"-4.630688"},"context":"","outcome_status":{"category":"Under investigation","date":"2025-12"},"persistent_id":"f799225ec1ac30b78c3c5c27a7b0da550838d348f415ae38f872727b646a4026","id":132855727,"location_subtype":"","month":"2025-12"},{"category":"violent-crime","location_type":"Force","location":{"latitude":"50.336194","street":{"id":1770358,"name":"On or near Rose Hill"},"longitude":"-4.637309"},"context":"","outcome_status":{"category":"Unable to prosecute suspect","date":"2025-12"},"persistent_id":"15ebaa9c5c104f0ba037a185cee9af5a59051903deeb565360bcc4a2be84f750","id":132857466,"location_subtype":"","month":"2025-12"},{"category":"violent-crime","location_type":"Force","location":{"latitude":"50.333285","street":{"id":1770355,"name":"On or near Esplanade"},"longitude":"-4.638244"},"context":"","outcome_status":{"category":"Under investigation","date":"2025-12"},"persistent_id":"7f2f1ff071824df55dffcc9f39c405d7404366a76b23b536f6cafecacbf99c5f","id":132857599,"location_subtype":"","month":"2025-12"},{"category":"violent-crime","location_type":"Force","location":{"latitude":"50.339794","street":{"id":1770382,"name":"On or near Station Road"},"longitude":"-4.634037"},"context":"","outcome_status":{"category":"Under investigation","date":"2025-12"},"persistent_id":"49d07f21808bf8ca73b297ed2bdecce310bab5a129f255af0bcd999d9d599b59","id":132852856,"location_subtype":"","month":"2025-12"},{"category":"violent-crime","location_type":"Force","location":{"latitude":"50.338673","street":{"id":1770318,"name":"On or near Sea King Court"},"longitude":"-4.648929"},"context":"","outcome_status":{"category":"Investigation complete; no suspect identified","date":"2025-12"},"persistent_id":"907b9a71ac8137828a70062f5e62b1ac83ca12c7278c1ae83d62e84f9c808751","id":132854108,"location_subtype":"","month":"2025-12"},{"category":"violent-crime","location_type":"Force","location":{"latitude":"50.337954","street":{"id":1770312,"name":"On or near Hill Hay Close"},"longitude":"-4.649269"},"context":"","outcome_status":{"category":"Further action is not in the public interest","date":"2025-12"},"persistent_id":"5f5c04ef5b6bfcc91b48221bb3087700cd6ecbd6e72fd83e2be0f284956ca015","id":132855877,"location_subtype":"","month":"2025-12"},{"category":"violent-crime","location_type":"Force","location":{"latitude":"50.338705","street":{"id":1770314,"name":"On or near Walmsley Lane"},"longitude":"-4.647905"},"context":"","outcome_status":{"category":"Unable to prosecute suspect","date":"2025-12"},"persistent_id":"868234acf8dee0ee7a5540850a9afcc314ab5e048cefe7c2b7424c7304399d31","id":132856275,"location_subtype":"","month":"2025-12"},{"category":"violent-crime","location_type":"Force","location":{"latitude":"50.336992","street":{"id":1770319,"name":"On or near B3415"},"longitude":"-4.646910"},"context":"","outcome_status":{"category":"Unable to prosecute suspect","date":"2026-01"},"persistent_id":"cb0380c628a632b2135a2c407b1bd073755646ce228d5353c88ce2b003f8003b","id":132851787,"location_subtype":"","month":"2025-12"}]