[{"category":"anti-social-behaviour","location_type":"Force","location":{"latitude":"50.862207","street":{"id":1549475,"name":"On or near Iron Mill Close"},"longitude":"-1.209526"},"context":"","outcome_status":null,"persistent_id":"","id":130278295,"location_subtype":"","month":"2025-07"},{"category":"anti-social-behaviour","location_type":"Force","location":{"latitude":"50.856374","street":{"id":1548818,"name":"On or near Mill Lane"},"longitude":"-1.230140"},"context":"","outcome_status":null,"persistent_id":"","id":130276593,"location_subtype":"","month":"2025-07"},{"category":"anti-social-behaviour","location_type":"Force","location":{"latitude":"50.864694","street":{"id":1548705,"name":"On or near Amarylis Close"},"longitude":"-1.244270"},"context":"","outcome_status":null,"persistent_id":"","id":130255285,"location_subtype":"","month":"2025-07"},{"category":"anti-social-behaviour","location_type":"Force","location":{"latitude":"50.866530","street":{"id":1549487,"name":"On or near Runnymede"},"longitude":"-1.209183"},"context":"","outcome_status":null,"persistent_id":"","id":130280531,"location_subtype":"","month":"2025-07"},{"category":"bicycle-theft","location_type":"Force","location":{"latitude":"50.865001","street":{"id":1549420,"name":"On or near The Greendale"},"longitude":"-1.210445"},"context":"","outcome_status":{"category":"Investigation complete; no suspect identified","date":"2025-08"},"persistent_id":"23341b92b080977702ec7e8d6079a035f0fd1cb4204b247b30d0802922e4121b","id":130256469,"location_subtype":"","month":"2025-07"},{"category":"bicycle-theft","location_type":"Force","location":{"latitude":"50.863995","street":{"id":1549484,"name":"On or near Hill Park Road"},"longitude":"-1.207919"},"context":"","outcome_status":{"category":"Unable to prosecute suspect","date":"2025-07"},"persistent_id":"589077951810c9b9af17b2a0f6c3000f3ede963bfff6f395c9393c6f34606e87","id":130275742,"location_subtype":"","month":"2025-07"},{"category":"burglary","location_type":"Force","location":{"latitude":"50.874679","street":{"id":1548786,"name":"On or near Whiteley Lane"},"longitude":"-1.239134"},"context":"","outcome_status":{"category":"Investigation complete; no suspect identified","date":"2025-08"},"persistent_id":"511e6bf5a194f0fac4c80ed2ab97ceedd2386300023cad026fd00fd2d72e9760","id":130255482,"location_subtype":"","month":"2025-07"},{"category":"burglary","location_type":"Force","location":{"latitude":"50.872364","street":{"id":1548805,"name":"On or near Lee Ground"},"longitude":"-1.234396"},"context":"","outcome_status":{"category":"Investigation complete; no suspect identified","date":"2025-09"},"persistent_id":"e36557dd4d4348c1c5fdfec9e5ccbb0fe4a0f81291ed1a9fbcb709904cd6274a","id":130261225,"location_subtype":"","month":"2025-07"},{"category":"burglary","location_type":"Force","location":{"latitude":"50.872364","street":{"id":1548805,"name":"On or near Lee Ground"},"longitude":"-1.234396"},"context":"","outcome_status":{"category":"Investigation complete; no suspect identified","date":"2025-08"},"persistent_id":"e98b18dff06bc9094b11d5d8e3a2978d67777e22f6d5ccfa403c8a1753fda1c7","id":130261132,"location_subtype":"","month":"2025-07"},{"category":"burglary","location_type":"Force","location":{"latitude":"50.874679","street":{"id":1548786,"name":"On or near Whiteley Lane"},"longitude":"-1.239134"},"context":"","outcome_status":{"category":"Investigation complete; no suspect identified","date":"2025-08"},"persistent_id":"221f3ec520cdf75813b780195ac8028ad1abcf5bc44ba56d3492c928cd91495b","id":130257074,"location_subtype":"","month":"2025-07"},{"category":"burglary","location_type":"Force","location":{"latitude":"50.872364","street":{"id":1548805,"name":"On or near Lee Ground"},"longitude":"-1.234396"},"context":"","outcome_status":{"category":"Investigation complete; no suspect identified","date":"2025-08"},"persistent_id":"f7afde3c261029bcb6d325551b1b046aac484ad36cec35acc3afc6ecffe718fa","id":130264504,"location_subtype":"","month":"2025-07"},{"category":"burglary","location_type":"Force","location":{"latitude":"50.858989","street":{"id":1549288,"name":"On or near Neptune Road"},"longitude":"-1.213701"},"context":"","outcome_status":{"category":"Unable to prosecute suspect","date":"2025-07"},"persistent_id":"139b227a2d5d38a9693c8a6cea15114b5855c80f9f033b4f9194d0c493f03ded","id":130269540,"location_subtype":"","month":"2025-07"},{"category":"criminal-damage-arson","location_type":"Force","location":{"latitude":"50.865001","street":{"id":1549420,"name":"On or near The Greendale"},"longitude":"-1.210445"},"context":"","outcome_status":{"category":"Investigation complete; no suspect identified","date":"2025-07"},"persistent_id":"bbad09868d88752f468fd0003dcff676e04b0e3921a0bd9274eace507467ba66","id":130270945,"location_subtype":"","month":"2025-07"},{"category":"criminal-damage-arson","location_type":"Force","location":{"latitude":"50.872224","street":{"id":1548762,"name":"On or near Bader Way"},"longitude":"-1.240538"},"context":"","outcome_status":{"category":"Investigation complete; no suspect identified","date":"2025-07"},"persistent_id":"d928ce01c8c3eb50a20f086928c8aa7588b66979afcd2fe565fbc5fcf14e4a84","id":130263336,"location_subtype":"","month":"2025-07"},{"category":"drugs","location_type":"Force","location":{"latitude":"50.858989","street":{"id":1549288,"name":"On or near Neptune Road"},"longitude":"-1.213701"},"context":"","outcome_status":{"category":"Local resolution","date":"2025-07"},"persistent_id":"0e6d4453995a0bf33cf1703696100dcd969e331ed3dc02b55125aa564791829e","id":130263045,"location_subtype":"","month":"2025-07"},{"category":"other-theft","location_type":"Force","location":{"latitude":"50.862521","street":{"id":1549002,"name":"On or near Sports/recreation Area"},"longitude":"-1.221772"},"context":"","outcome_status":{"category":"Investigation complete; no suspect identified","date":"2025-07"},"persistent_id":"1461d24f172150a14b708d3234a44acf656960e39a0080ce8817f530c5fceaef","id":130260662,"location_subtype":"","month":"2025-07"},{"category":"other-theft","location_type":"Force","location":{"latitude":"50.861254","street":{"id":1548734,"name":"On or near Eastway"},"longitude":"-1.242009"},"context":"","outcome_status":{"category":"Local resolution","date":"2025-08"},"persistent_id":"62553e0c8faaf48ff3c4507ca8555b98236e506c6904b4e751b2bc94ad3481e2","id":130276322,"location_subtype":"","month":"2025-07"},{"category":"possession-of-weapons","location_type":"Force","location":{"latitude":"50.858989","street":{"id":1549288,"name":"On or near Neptune Road"},"longitude":"-1.213701"},"context":"","outcome_status":{"category":"Local resolution","date":"2025-10"},"persistent_id":"1b23aeccfb21939a71ca7b3b9cb78ab219d92564f170eab7a0e924d7a0542bf6","id":130274927,"location_subtype":"","month":"2025-07"},{"category":"possession-of-weapons","location_type":"Force","location":{"latitude":"50.859650","street":{"id":1549251,"name":"On or near Valentine Close"},"longitude":"-1.217029"},"context":"","outcome_status":{"category":"Unable to prosecute suspect","date":"2025-10"},"persistent_id":"3b7a3207da3d43492b4caeeb05b4df7bec621693873c38ed69097af34c20ad14","id":130259300,"location_subtype":"","month":"2025-07"},{"category":"public-order","location_type":"Force","location":{"latitude":"50.859039","street":{"id":1549218,"name":"On or near Privett Road"},"longitude":"-1.217124"},"context":"","outcome_status":{"category":"Investigation complete; no suspect identified","date":"2025-07"},"persistent_id":"41fb8f4a9c32c2147ec40d01b3a935a8c1d7a6b44be1a5df0edd349e37a358ca","id":130271799,"location_subtype":"","month":"2025-07"},{"category":"public-order","location_type":"Force","location":{"latitude":"50.874658","street":{"id":1548646,"name":"On or near Silver Trees"},"longitude":"-1.247079"},"context":"","outcome_status":{"category":"Investigation complete; no suspect identified","date":"2025-07"},"persistent_id":"28330786f384ade53bfc9fabd6ef9db385b313e2d68a4c0d161fafa1b6801029","id":130275430,"location_subtype":"","month":"2025-07"},{"category":"shoplifting","location_type":"Force","location":{"latitude":"50.860801","street":{"id":1549351,"name":"On or near Nashe Way"},"longitude":"-1.213059"},"context":"","outcome_status":{"category":"Awaiting court outcome","date":"2025-08"},"persistent_id":"f17cc649164fe2096dfaa74c2654f49a97d6f5f5ce2f9257cd0efd11b8c9ded8","id":130272616,"location_subtype":"","month":"2025-07"},{"category":"theft-from-the-person","location_type":"Force","location":{"latitude":"50.872213","street":{"id":1548912,"name":"On or near Springles Lane"},"longitude":"-1.229282"},"context":"","outcome_status":{"category":"Unable to prosecute suspect","date":"2025-08"},"persistent_id":"ca874ad87c7ba592615589e756d5667fac8e2a2bdf08502ff18f2606960635a7","id":130265573,"location_subtype":"","month":"2025-07"},{"category":"vehicle-crime","location_type":"Force","location":{"latitude":"50.858674","street":{"id":1548703,"name":"On or near Talbot Road"},"longitude":"-1.243571"},"context":"","outcome_status":{"category":"Investigation complete; no suspect identified","date":"2025-10"},"persistent_id":"dc2b9945f1cd6da6b699efbd273a4892ab7e3fd787a30bb22c3c934bde7f6501","id":130255899,"location_subtype":"","month":"2025-07"},{"category":"vehicle-crime","location_type":"Force","location":{"latitude":"50.872213","street":{"id":1548912,"name":"On or near Springles Lane"},"longitude":"-1.229282"},"context":"","outcome_status":{"category":"Investigation complete; no suspect identified","date":"2025-07"},"persistent_id":"6cfb2f4874592972e5ffa4d6b848c8dff23f1b3f084838d58ed29931bf90403c","id":130260976,"location_subtype":"","month":"2025-07"},{"category":"violent-crime","location_type":"Force","location":{"latitude":"50.862927","street":{"id":1549223,"name":"On or near Wynton Way"},"longitude":"-1.216263"},"context":"","outcome_status":{"category":"Unable to prosecute suspect","date":"2025-07"},"persistent_id":"286153efe6770577da51f8f62da9faaf19a683e4c2b4badf459b6492003cca33","id":130272304,"location_subtype":"","month":"2025-07"},{"category":"violent-crime","location_type":"Force","location":{"latitude":"50.864227","street":{"id":1549287,"name":"On or near Thorni Avenue"},"longitude":"-1.215716"},"context":"","outcome_status":{"category":"Unable to prosecute suspect","date":"2025-07"},"persistent_id":"1e76ba413c906880eaf2840a88a3a4ca9745cec159f441e68e6ca4e61e337bdf","id":130272816,"location_subtype":"","month":"2025-07"},{"category":"violent-crime","location_type":"Force","location":{"latitude":"50.864227","street":{"id":1549287,"name":"On or near Thorni Avenue"},"longitude":"-1.215716"},"context":"","outcome_status":{"category":"Investigation complete; no suspect identified","date":"2025-07"},"persistent_id":"f578e525b178ba36fbc5e8802438fbf8df61af04b8b388fde9a094eec0be4052","id":130272824,"location_subtype":"","month":"2025-07"},{"category":"violent-crime","location_type":"Force","location":{"latitude":"50.859650","street":{"id":1549251,"name":"On or near Valentine Close"},"longitude":"-1.217029"},"context":"","outcome_status":{"category":"Unable to prosecute suspect","date":"2025-07"},"persistent_id":"bb8f35381272fa9881eaad9f42e94384c16c715a6ca3e6cd1340236c3cdfe4f2","id":130272913,"location_subtype":"","month":"2025-07"},{"category":"violent-crime","location_type":"Force","location":{"latitude":"50.864565","street":{"id":1548695,"name":"On or near Jacaranda Close"},"longitude":"-1.245096"},"context":"","outcome_status":{"category":"Unable to prosecute suspect","date":"2025-07"},"persistent_id":"ac2f926830d91cd3410cb7bed6348ab09957744056978a47d3083d08c1034296","id":130272544,"location_subtype":"","month":"2025-07"},{"category":"violent-crime","location_type":"Force","location":{"latitude":"50.862270","street":{"id":1549392,"name":"On or near Ava Gardens"},"longitude":"-1.212239"},"context":"","outcome_status":{"category":"Unable to prosecute suspect","date":"2025-07"},"persistent_id":"8abfc492340a9ffbce91412033bd2ee6a1eed3b8e6e34b8c41d54e147e727275","id":130268961,"location_subtype":"","month":"2025-07"},{"category":"violent-crime","location_type":"Force","location":{"latitude":"50.864227","street":{"id":1549287,"name":"On or near Thorni Avenue"},"longitude":"-1.215716"},"context":"","outcome_status":{"category":"Unable to prosecute suspect","date":"2025-08"},"persistent_id":"71876d07429f4e12f242f9a8c5a9d6a27ce3861a0f248b03688e169d3496f7fc","id":130283054,"location_subtype":"","month":"2025-07"},{"category":"violent-crime","location_type":"Force","location":{"latitude":"50.862270","street":{"id":1549392,"name":"On or near Ava Gardens"},"longitude":"-1.212239"},"context":"","outcome_status":{"category":"Unable to prosecute suspect","date":"2025-07"},"persistent_id":"93670dda3fe7fc1a9552ae0865076d475399566821113ac8214826f7cd33cd7d","id":130268816,"location_subtype":"","month":"2025-07"},{"category":"violent-crime","location_type":"Force","location":{"latitude":"50.863367","street":{"id":1548770,"name":"On or near Park Cottage Drive"},"longitude":"-1.240639"},"context":"","outcome_status":{"category":"Local resolution","date":"2025-08"},"persistent_id":"64025e921414d43406814ea8550c7db9470ca868ad5e86f558fad3d8649dc59c","id":130274900,"location_subtype":"","month":"2025-07"},{"category":"violent-crime","location_type":"Force","location":{"latitude":"50.860801","street":{"id":1549351,"name":"On or near Nashe Way"},"longitude":"-1.213059"},"context":"","outcome_status":{"category":"Unable to prosecute suspect","date":"2025-09"},"persistent_id":"483e3268ca4d26dbbc1a25576445792435ce7fbf3223726202e99b556d9ed2a4","id":130281573,"location_subtype":"","month":"2025-07"},{"category":"violent-crime","location_type":"Force","location":{"latitude":"50.861200","street":{"id":1549434,"name":"On or near Lea-oak Gardens"},"longitude":"-1.210794"},"context":"","outcome_status":{"category":"Unable to prosecute suspect","date":"2025-08"},"persistent_id":"65e74af0475b61159d16990911cc52599f80ffa564e8c54ce6529b4c48124edb","id":130282074,"location_subtype":"","month":"2025-07"},{"category":"violent-crime","location_type":"Force","location":{"latitude":"50.876012","street":{"id":1548881,"name":"On or near Lavey's Lane"},"longitude":"-1.223037"},"context":"","outcome_status":{"category":"Local resolution","date":"2025-11"},"persistent_id":"e658394cd4caf812c897d742b629d293c48d3c42013c8a1cd27c11f99c77702b","id":130283034,"location_subtype":"","month":"2025-07"},{"category":"violent-crime","location_type":"Force","location":{"latitude":"50.859650","street":{"id":1549251,"name":"On or near Valentine Close"},"longitude":"-1.217029"},"context":"","outcome_status":{"category":"Unable to prosecute suspect","date":"2025-08"},"persistent_id":"1a3f2b48625663da4dbabac0ddf8a6089da463ae09dbd8c07897f0eca94cd496","id":130283138,"location_subtype":"","month":"2025-07"},{"category":"violent-crime","location_type":"Force","location":{"latitude":"50.864172","street":{"id":1548769,"name":"On or near Barnes Wallis Road"},"longitude":"-1.239930"},"context":"","outcome_status":{"category":"Unable to prosecute suspect","date":"2025-12"},"persistent_id":"59998b1968f1a807dd693ac05bd15ce34c210f2c45348fdeb8ce821464bfd140","id":130260821,"location_subtype":"","month":"2025-07"},{"category":"violent-crime","location_type":"Force","location":{"latitude":"50.862186","street":{"id":1548733,"name":"On or near Westway"},"longitude":"-1.242932"},"context":"","outcome_status":{"category":"Investigation complete; no suspect identified","date":"2025-08"},"persistent_id":"84f685e6d4ea7f0e5a585b1c91365e6d3c0e474ad31ab603baa9034d82137323","id":130262012,"location_subtype":"","month":"2025-07"},{"category":"violent-crime","location_type":"Force","location":{"latitude":"50.861247","street":{"id":1549175,"name":"On or near Sports/recreation Area"},"longitude":"-1.218978"},"context":"","outcome_status":{"category":"Action to be taken by another organisation","date":"2025-08"},"persistent_id":"a8cdf5f3e4edc061eccd3692c17db0a73d53515f186d601acd19ed42d3b8025c","id":130264145,"location_subtype":"","month":"2025-07"},{"category":"violent-crime","location_type":"Force","location":{"latitude":"50.865001","street":{"id":1549420,"name":"On or near The Greendale"},"longitude":"-1.210445"},"context":"","outcome_status":{"category":"Unable to prosecute suspect","date":"2025-09"},"persistent_id":"71990bf9b0caf49f53239d5ff0a1ee57a70bf4ccd5de1b7ccbe7dc2b0d6dd70c","id":130265907,"location_subtype":"","month":"2025-07"},{"category":"violent-crime","location_type":"Force","location":{"latitude":"50.861247","street":{"id":1549175,"name":"On or near Sports/recreation Area"},"longitude":"-1.218978"},"context":"","outcome_status":{"category":"Local resolution","date":"2025-08"},"persistent_id":"684f060b6369722fa1cc46572feac857e7a4cc0106d3f35b1c6dab6561301deb","id":130267830,"location_subtype":"","month":"2025-07"},{"category":"violent-crime","location_type":"Force","location":{"latitude":"50.861247","street":{"id":1549175,"name":"On or near Sports/recreation Area"},"longitude":"-1.218978"},"context":"","outcome_status":{"category":"Action to be taken by another organisation","date":"2025-07"},"persistent_id":"369e3c34c6d59e59e303c08431872d5f4c348c97cada34f525a13b679553f9e1","id":130264139,"location_subtype":"","month":"2025-07"},{"category":"violent-crime","location_type":"Force","location":{"latitude":"50.866707","street":{"id":1549566,"name":"On or near Thames Drive"},"longitude":"-1.207418"},"context":"","outcome_status":{"category":"Unable to prosecute suspect","date":"2025-07"},"persistent_id":"748c4760633b012cc349220a473efa2c3e9d0b97871e6bbf9acb1bdd1f4cf3b3","id":130259701,"location_subtype":"","month":"2025-07"},{"category":"violent-crime","location_type":"Force","location":{"latitude":"50.866707","street":{"id":1549566,"name":"On or near Thames Drive"},"longitude":"-1.207418"},"context":"","outcome_status":{"category":"Unable to prosecute suspect","date":"2025-07"},"persistent_id":"4fb484cc20d365dc5ba1c026786bea55e367b6a11f2dc1430d5decba3a103a4e","id":130259731,"location_subtype":"","month":"2025-07"},{"category":"violent-crime","location_type":"Force","location":{"latitude":"50.859650","street":{"id":1549251,"name":"On or near Valentine Close"},"longitude":"-1.217029"},"context":"","outcome_status":{"category":"Unable to prosecute suspect","date":"2025-07"},"persistent_id":"5bcd0cf969e007275f5a44eeec480b826cfeebe492e32960e02965edd0523e4e","id":130261240,"location_subtype":"","month":"2025-07"},{"category":"violent-crime","location_type":"Force","location":{"latitude":"50.874679","street":{"id":1548786,"name":"On or near Whiteley Lane"},"longitude":"-1.239134"},"context":"","outcome_status":{"category":"Unable to prosecute suspect","date":"2025-07"},"persistent_id":"be82d2afce8231033866918e146e0c78ebc609f3cb32175b9741fd16fbafbff0","id":130261442,"location_subtype":"","month":"2025-07"},{"category":"violent-crime","location_type":"Force","location":{"latitude":"50.874679","street":{"id":1548786,"name":"On or near Whiteley Lane"},"longitude":"-1.239134"},"context":"","outcome_status":{"category":"Unable to prosecute suspect","date":"2025-07"},"persistent_id":"1e2090fa0cba6d5402bfc3da31d72d055df7ccb320145da0ac49d8a4ec7606af","id":130261444,"location_subtype":"","month":"2025-07"},{"category":"violent-crime","location_type":"Force","location":{"latitude":"50.860801","street":{"id":1549351,"name":"On or near Nashe Way"},"longitude":"-1.213059"},"context":"","outcome_status":{"category":"Action to be taken by another organisation","date":"2025-07"},"persistent_id":"1150245993d9b3a13b96a240eff753f6fed90c2eb97ac34e6e40d5f696089536","id":130262991,"location_subtype":"","month":"2025-07"},{"category":"violent-crime","location_type":"Force","location":{"latitude":"50.866530","street":{"id":1549487,"name":"On or near Runnymede"},"longitude":"-1.209183"},"context":"","outcome_status":{"category":"Local resolution","date":"2025-07"},"persistent_id":"91745041068f634ea357d23fea731858e7e920ff9fcc548e170205ee8f1d5865","id":130266343,"location_subtype":"","month":"2025-07"},{"category":"violent-crime","location_type":"Force","location":{"latitude":"50.876012","street":{"id":1548881,"name":"On or near Lavey's Lane"},"longitude":"-1.223037"},"context":"","outcome_status":{"category":"Investigation complete; no suspect identified","date":"2025-07"},"persistent_id":"911531a535ae5a6e67d4697485c34c293feb07b69a0e4e3a7baed7c61f196071","id":130267371,"location_subtype":"","month":"2025-07"},{"category":"violent-crime","location_type":"Force","location":{"latitude":"50.873337","street":{"id":1548788,"name":"On or near Bleriot Crescent"},"longitude":"-1.240150"},"context":"","outcome_status":{"category":"Investigation complete; no suspect identified","date":"2025-07"},"persistent_id":"a85ad7fceec751b8f6b896374189af064d23ae50903c4ecb0c88141e993a6596","id":130267557,"location_subtype":"","month":"2025-07"},{"category":"violent-crime","location_type":"Force","location":{"latitude":"50.862521","street":{"id":1549002,"name":"On or near Sports/recreation Area"},"longitude":"-1.221772"},"context":"","outcome_status":{"category":"Action to be taken by another organisation","date":"2025-07"},"persistent_id":"ab6454524ab43acb2055d81083b4e1d9cb2bd4b0ae48727670636cc6bab5fe16","id":130269266,"location_subtype":"","month":"2025-07"},{"category":"violent-crime","location_type":"Force","location":{"latitude":"50.862927","street":{"id":1549223,"name":"On or near Wynton Way"},"longitude":"-1.216263"},"context":"","outcome_status":{"category":"Unable to prosecute suspect","date":"2025-07"},"persistent_id":"762ad5c38d6c3351b2cb5886a3c3fe850d585bfd5049440a625519be862eb345","id":130270898,"location_subtype":"","month":"2025-07"},{"category":"violent-crime","location_type":"Force","location":{"latitude":"50.874054","street":{"id":1549345,"name":"On or near Mayles Lane"},"longitude":"-1.211387"},"context":"","outcome_status":{"category":"Unable to prosecute suspect","date":"2025-10"},"persistent_id":"58904c4d3351b112933ec4a19ead3f631bb67914514df7acfa6f12b280aa714a","id":130255617,"location_subtype":"","month":"2025-07"},{"category":"violent-crime","location_type":"Force","location":{"latitude":"50.860801","street":{"id":1549351,"name":"On or near Nashe Way"},"longitude":"-1.213059"},"context":"","outcome_status":{"category":"Investigation complete; no suspect identified","date":"2025-07"},"persistent_id":"475ecb50b3b06d90cb9d1edc79c1af50b56386d0d5c5d4082d8383eb28bf8132","id":130277351,"location_subtype":"","month":"2025-07"},{"category":"other-crime","location_type":"Force","location":{"latitude":"50.870203","street":{"id":1548790,"name":"On or near Whiteley Lane"},"longitude":"-1.239448"},"context":"","outcome_status":{"category":"Status update unavailable","date":"2025-11"},"persistent_id":"c2ee9626545642cee5478b3c7deeb28ad95660f24b14e44837a776f675988063","id":130277702,"location_subtype":"","month":"2025-07"}]