[{"category":"anti-social-behaviour","location_type":"Force","location":{"latitude":"50.914791","street":{"id":1557906,"name":"On or near St Ann's Road"},"longitude":"-1.004264"},"context":"","outcome_status":null,"persistent_id":"","id":128215296,"location_subtype":"","month":"2025-05"},{"category":"anti-social-behaviour","location_type":"Force","location":{"latitude":"50.912771","street":{"id":1557844,"name":"On or near Merchistoun Road"},"longitude":"-1.005701"},"context":"","outcome_status":null,"persistent_id":"","id":128210184,"location_subtype":"","month":"2025-05"},{"category":"anti-social-behaviour","location_type":"Force","location":{"latitude":"50.911783","street":{"id":1557746,"name":"On or near Rodney Way"},"longitude":"-1.009022"},"context":"","outcome_status":null,"persistent_id":"","id":128219403,"location_subtype":"","month":"2025-05"},{"category":"anti-social-behaviour","location_type":"Force","location":{"latitude":"50.914097","street":{"id":1557914,"name":"On or near Jodrell Close"},"longitude":"-1.004051"},"context":"","outcome_status":null,"persistent_id":"","id":128213406,"location_subtype":"","month":"2025-05"},{"category":"criminal-damage-arson","location_type":"Force","location":{"latitude":"50.908391","street":{"id":1557979,"name":"On or near Supermarket"},"longitude":"-1.001400"},"context":"","outcome_status":{"category":"Investigation complete; no suspect identified","date":"2025-05"},"persistent_id":"9a167e1cdbb26cf1621af51f4af45359b90e2039fa55044a7e8b973aea5720c9","id":128212814,"location_subtype":"","month":"2025-05"},{"category":"criminal-damage-arson","location_type":"Force","location":{"latitude":"50.905248","street":{"id":1557463,"name":"On or near Bevan Road"},"longitude":"-1.020055"},"context":"","outcome_status":{"category":"Local resolution","date":"2025-09"},"persistent_id":"1be5fcf9a8597c1705d8492f33fb40a89e77242d0e33c9d6c2182a8be3f21b4f","id":128221428,"location_subtype":"","month":"2025-05"},{"category":"criminal-damage-arson","location_type":"Force","location":{"latitude":"50.906975","street":{"id":1557482,"name":"On or near Elaine Gardens"},"longitude":"-1.020019"},"context":"","outcome_status":{"category":"Offender given a caution","date":"2025-05"},"persistent_id":"65f1635c3ab4220f9852f597d2e61a1169369a6c03319b0620740b6ef645141a","id":128212482,"location_subtype":"","month":"2025-05"},{"category":"criminal-damage-arson","location_type":"Force","location":{"latitude":"50.901335","street":{"id":1557583,"name":"On or near Kendal Close"},"longitude":"-1.014506"},"context":"","outcome_status":{"category":"Local resolution","date":"2025-05"},"persistent_id":"2551c341ede229a4a15560122d6cd0c046fcddc064dec4a041bd2590da507827","id":128214450,"location_subtype":"","month":"2025-05"},{"category":"criminal-damage-arson","location_type":"Force","location":{"latitude":"50.903927","street":{"id":1557647,"name":"On or near Peacock Gardens"},"longitude":"-1.011635"},"context":"","outcome_status":{"category":"Unable to prosecute suspect","date":"2025-05"},"persistent_id":"4c68bda4da561bfdc2a01ba256f2e7516d4c980430669981c785eac9b6ede551","id":128213494,"location_subtype":"","month":"2025-05"},{"category":"criminal-damage-arson","location_type":"Force","location":{"latitude":"50.913702","street":{"id":1558194,"name":"On or near Blendworth Lane"},"longitude":"-0.994743"},"context":"","outcome_status":{"category":"Investigation complete; no suspect identified","date":"2025-05"},"persistent_id":"817e20cde0d56897b5aba3f9173a18783fa2c90b000350348c1cc4656c7c1324","id":128213897,"location_subtype":"","month":"2025-05"},{"category":"criminal-damage-arson","location_type":"Force","location":{"latitude":"50.901465","street":{"id":1557800,"name":"On or near Furze Way"},"longitude":"-1.007563"},"context":"","outcome_status":{"category":"Investigation complete; no suspect identified","date":"2025-05"},"persistent_id":"11356a8c17e03cea1d2d078fbaa00612600bc6830dbcf61c9bbd7ea7b3050e7a","id":128213771,"location_subtype":"","month":"2025-05"},{"category":"other-theft","location_type":"Force","location":{"latitude":"50.913200","street":{"id":1557748,"name":"On or near Bowes-lyon Court"},"longitude":"-1.007556"},"context":"","outcome_status":{"category":"Unable to prosecute suspect","date":"2025-06"},"persistent_id":"315df0a7556ba79bfe85ab717a19abfce223a946eee3835669323cb18c0725b7","id":128220178,"location_subtype":"","month":"2025-05"},{"category":"possession-of-weapons","location_type":"Force","location":{"latitude":"50.924616","street":{"id":1557955,"name":"On or near Well Copse Close"},"longitude":"-1.002802"},"context":"","outcome_status":{"category":"Unable to prosecute suspect","date":"2025-06"},"persistent_id":"ce0ddcbf6b0c6ca4a27f415a161bb897d8b1e3f57855f2a4c588d8c871465d00","id":128217428,"location_subtype":"","month":"2025-05"},{"category":"public-order","location_type":"Force","location":{"latitude":"50.903546","street":{"id":1557431,"name":"On or near Parking Area"},"longitude":"-1.022921"},"context":"","outcome_status":{"category":"Unable to prosecute suspect","date":"2025-05"},"persistent_id":"1c74dee6e3ed7571f99391e9c5919543dd9486e62e17e38210e0b16d110fea05","id":128210124,"location_subtype":"","month":"2025-05"},{"category":"public-order","location_type":"Force","location":{"latitude":"50.920652","street":{"id":1557608,"name":"On or near Catherington Lane"},"longitude":"-1.014582"},"context":"","outcome_status":{"category":"Unable to prosecute suspect","date":"2025-05"},"persistent_id":"abb3d56c81b86ebc7956598ce99aa4e1c910fc5ca6d2d20b714c87305cb35dcb","id":128211466,"location_subtype":"","month":"2025-05"},{"category":"public-order","location_type":"Force","location":{"latitude":"50.904324","street":{"id":1557413,"name":"On or near Woodcroft Lane"},"longitude":"-1.023502"},"context":"","outcome_status":{"category":"Unable to prosecute suspect","date":"2025-05"},"persistent_id":"80cbbae5a10282ab772c27e908d90b327c3056eee4b53147d50366559ca59dd5","id":128212517,"location_subtype":"","month":"2025-05"},{"category":"public-order","location_type":"Force","location":{"latitude":"50.911569","street":{"id":1557711,"name":"On or near Hamilton Close"},"longitude":"-1.011360"},"context":"","outcome_status":{"category":"Investigation complete; no suspect identified","date":"2025-05"},"persistent_id":"e05e73b72abd8e27102aabf82e502c0fc3c6605742d08def51437b03214c781d","id":128209738,"location_subtype":"","month":"2025-05"},{"category":"public-order","location_type":"Force","location":{"latitude":"50.905450","street":{"id":1557899,"name":"On or near Larchfield Way"},"longitude":"-1.004606"},"context":"","outcome_status":{"category":"Investigation complete; no suspect identified","date":"2025-05"},"persistent_id":"4adf7e08df9bfaecf7968cebd53ea2d601c52f400ae25eb1f00cf938398759c9","id":128214205,"location_subtype":"","month":"2025-05"},{"category":"public-order","location_type":"Force","location":{"latitude":"50.905450","street":{"id":1557899,"name":"On or near Larchfield Way"},"longitude":"-1.004606"},"context":"","outcome_status":{"category":"Investigation complete; no suspect identified","date":"2025-05"},"persistent_id":"3d001f11e0598df07e667ac5ec4766a03234981dc604593862940bbe07825200","id":128215308,"location_subtype":"","month":"2025-05"},{"category":"shoplifting","location_type":"Force","location":{"latitude":"50.904324","street":{"id":1557413,"name":"On or near Woodcroft Lane"},"longitude":"-1.023502"},"context":"","outcome_status":{"category":"Court result unavailable","date":"2026-01"},"persistent_id":"5c896c5d1f943ba7476237ccbd614e6ffbe9fbf223b1a508202167b9b43830e3","id":128214592,"location_subtype":"","month":"2025-05"},{"category":"shoplifting","location_type":"Force","location":{"latitude":"50.904324","street":{"id":1557413,"name":"On or near Woodcroft Lane"},"longitude":"-1.023502"},"context":"","outcome_status":{"category":"Court result unavailable","date":"2025-12"},"persistent_id":"d7d73ee0e25ed860f66d009012aaf11b17795b3519fe0f902084ad978f71544a","id":128214070,"location_subtype":"","month":"2025-05"},{"category":"shoplifting","location_type":"Force","location":{"latitude":"50.909384","street":{"id":1557701,"name":"On or near Supermarket"},"longitude":"-1.010427"},"context":"","outcome_status":{"category":"Investigation complete; no suspect identified","date":"2025-06"},"persistent_id":"02d79be57f435c6a3366068adebf007cce6a0ca9d2af6c15121a7da55c1684dd","id":128211717,"location_subtype":"","month":"2025-05"},{"category":"shoplifting","location_type":"Force","location":{"latitude":"50.904324","street":{"id":1557413,"name":"On or near Woodcroft Lane"},"longitude":"-1.023502"},"context":"","outcome_status":{"category":"Court result unavailable","date":"2025-12"},"persistent_id":"7aa54423b582e8c0e6e215a8c0835ef29562910416f68dacb51af3fa2587c4cd","id":128210498,"location_subtype":"","month":"2025-05"},{"category":"shoplifting","location_type":"Force","location":{"latitude":"50.904324","street":{"id":1557413,"name":"On or near Woodcroft Lane"},"longitude":"-1.023502"},"context":"","outcome_status":{"category":"Court result unavailable","date":"2025-12"},"persistent_id":"687a8c6314ae3429ad4e2e28d0615bcc09079cc481e2be1c2029e23d5d11dffa","id":128210496,"location_subtype":"","month":"2025-05"},{"category":"violent-crime","location_type":"Force","location":{"latitude":"50.903497","street":{"id":1557628,"name":"On or near Pump Lane"},"longitude":"-1.013906"},"context":"","outcome_status":{"category":"Unable to prosecute suspect","date":"2025-05"},"persistent_id":"5d1995da0c0273e08cf466fdeed8dca802d40a507637e311c4c73b86046fe3a9","id":128221091,"location_subtype":"","month":"2025-05"},{"category":"violent-crime","location_type":"Force","location":{"latitude":"50.913200","street":{"id":1557748,"name":"On or near Bowes-lyon Court"},"longitude":"-1.007556"},"context":"","outcome_status":{"category":"Unable to prosecute suspect","date":"2025-11"},"persistent_id":"f44fd257e417bd00009e20c3daf2da00c18cc9c3f6619813735f7a5759dcf89d","id":128222196,"location_subtype":"","month":"2025-05"},{"category":"violent-crime","location_type":"Force","location":{"latitude":"50.902989","street":{"id":1557462,"name":"On or near Flag Walk"},"longitude":"-1.020913"},"context":"","outcome_status":{"category":"Unable to prosecute suspect","date":"2025-05"},"persistent_id":"e08ed13bc639afdb13a9f81853dbc9849db09991300a9be1140b7078e9f552a1","id":128208584,"location_subtype":"","month":"2025-05"},{"category":"violent-crime","location_type":"Force","location":{"latitude":"50.905106","street":{"id":1557523,"name":"On or near Nursery Gardens"},"longitude":"-1.018081"},"context":"","outcome_status":{"category":"Action to be taken by another organisation","date":"2025-05"},"persistent_id":"f355a7f39aa78e9c5af6022a09dee68eb8e105bd1b004cca6b50c52866490062","id":128214168,"location_subtype":"","month":"2025-05"},{"category":"violent-crime","location_type":"Force","location":{"latitude":"50.913200","street":{"id":1557748,"name":"On or near Bowes-lyon Court"},"longitude":"-1.007556"},"context":"","outcome_status":{"category":"Unable to prosecute suspect","date":"2025-05"},"persistent_id":"1b0de82958a7200336de0bd05d2c2d8e64ccc5b797c3a7ce9986a857b3c917ac","id":128215367,"location_subtype":"","month":"2025-05"},{"category":"violent-crime","location_type":"Force","location":{"latitude":"50.908701","street":{"id":1557433,"name":"On or near Lensyd Gardens"},"longitude":"-1.022131"},"context":"","outcome_status":{"category":"Unable to prosecute suspect","date":"2025-06"},"persistent_id":"862cfee5ceb071ec6668b677ef2b917a61653a55a59edf25370100bdbf8ece68","id":128223194,"location_subtype":"","month":"2025-05"},{"category":"violent-crime","location_type":"Force","location":{"latitude":"50.908391","street":{"id":1557979,"name":"On or near Supermarket"},"longitude":"-1.001400"},"context":"","outcome_status":{"category":"Investigation complete; no suspect identified","date":"2025-08"},"persistent_id":"5b95933e2931ae9af96697541282503c7a363cbbf2d1329b045039d9694ff67f","id":128214532,"location_subtype":"","month":"2025-05"},{"category":"violent-crime","location_type":"Force","location":{"latitude":"50.903927","street":{"id":1557647,"name":"On or near Peacock Gardens"},"longitude":"-1.011635"},"context":"","outcome_status":{"category":"Unable to prosecute suspect","date":"2025-05"},"persistent_id":"9411976f1f7fd7a2e1aa7ee21b2a62a9dd6d099b4de2bbf5d351e16748c38c25","id":128208635,"location_subtype":"","month":"2025-05"},{"category":"violent-crime","location_type":"Force","location":{"latitude":"50.903927","street":{"id":1557647,"name":"On or near Peacock Gardens"},"longitude":"-1.011635"},"context":"","outcome_status":{"category":"Unable to prosecute suspect","date":"2025-05"},"persistent_id":"7376c364f0e7a09c6a20639224ff2c5dbb71fcff2509579e823f82c75fd7f7bf","id":128209003,"location_subtype":"","month":"2025-05"},{"category":"violent-crime","location_type":"Force","location":{"latitude":"50.903927","street":{"id":1557647,"name":"On or near Peacock Gardens"},"longitude":"-1.011635"},"context":"","outcome_status":{"category":"Unable to prosecute suspect","date":"2025-05"},"persistent_id":"640abe24b94992da72b9f6754cf1ed81befa20a0f07d2975542b5ab83c25e18f","id":128209006,"location_subtype":"","month":"2025-05"},{"category":"violent-crime","location_type":"Force","location":{"latitude":"50.903927","street":{"id":1557647,"name":"On or near Peacock Gardens"},"longitude":"-1.011635"},"context":"","outcome_status":{"category":"Unable to prosecute suspect","date":"2025-06"},"persistent_id":"ab95d8b75db9fa0e7d21c52deecb9cc62e0e9cf1b6db24c07323e5762732200c","id":128210556,"location_subtype":"","month":"2025-05"},{"category":"violent-crime","location_type":"Force","location":{"latitude":"50.912805","street":{"id":1557943,"name":"On or near Cunningham Road"},"longitude":"-1.003382"},"context":"","outcome_status":{"category":"Unable to prosecute suspect","date":"2025-05"},"persistent_id":"66460fad9ccf68106f0796b3f01faa9c005dc843bcf5204fb81966282e351535","id":128210707,"location_subtype":"","month":"2025-05"},{"category":"violent-crime","location_type":"Force","location":{"latitude":"50.903927","street":{"id":1557647,"name":"On or near Peacock Gardens"},"longitude":"-1.011635"},"context":"","outcome_status":{"category":"Unable to prosecute suspect","date":"2025-05"},"persistent_id":"c74653d85c7839fc89098583d6beed4d801d23ae8e44e9fc112056a23b8fc5dd","id":128210856,"location_subtype":"","month":"2025-05"},{"category":"violent-crime","location_type":"Force","location":{"latitude":"50.902462","street":{"id":1557318,"name":"On or near Curlew Gardens"},"longitude":"-1.025603"},"context":"","outcome_status":{"category":"Unable to prosecute suspect","date":"2025-05"},"persistent_id":"e3d2f085b5843934c6eeae5b235e3794f1b2d4587601f04368ccf935cc738161","id":128211280,"location_subtype":"","month":"2025-05"},{"category":"violent-crime","location_type":"Force","location":{"latitude":"50.903927","street":{"id":1557647,"name":"On or near Peacock Gardens"},"longitude":"-1.011635"},"context":"","outcome_status":{"category":"Investigation complete; no suspect identified","date":"2026-01"},"persistent_id":"2171f5500880d24209a697b3d23fa397889278b9b1661ee0c46a1f62801f36e5","id":128211516,"location_subtype":"","month":"2025-05"},{"category":"violent-crime","location_type":"Force","location":{"latitude":"50.924616","street":{"id":1557955,"name":"On or near Well Copse Close"},"longitude":"-1.002802"},"context":"","outcome_status":{"category":"Unable to prosecute suspect","date":"2025-05"},"persistent_id":"4d9d03921758a4cbfedb2a6c18ae411603fc31505c7bdd7aa0e771fc0064ec40","id":128211636,"location_subtype":"","month":"2025-05"},{"category":"violent-crime","location_type":"Force","location":{"latitude":"50.902597","street":{"id":1557412,"name":"On or near Blackbird Close"},"longitude":"-1.023481"},"context":"","outcome_status":{"category":"Unable to prosecute suspect","date":"2025-05"},"persistent_id":"b10347a4416cb921dc15c1a6194bb9e19f4ea7e4e5af42537655a86261aad672","id":128211828,"location_subtype":"","month":"2025-05"},{"category":"violent-crime","location_type":"Force","location":{"latitude":"50.906002","street":{"id":1557499,"name":"On or near Roselands"},"longitude":"-1.018816"},"context":"","outcome_status":{"category":"Unable to prosecute suspect","date":"2025-06"},"persistent_id":"54cc0e7aa68d0165f112a869789556f702607b73a1687c873e392d0cd352da06","id":128213691,"location_subtype":"","month":"2025-05"},{"category":"violent-crime","location_type":"Force","location":{"latitude":"50.912771","street":{"id":1557844,"name":"On or near Merchistoun Road"},"longitude":"-1.005701"},"context":"","outcome_status":{"category":"Status update unavailable","date":"2025-09"},"persistent_id":"cf6ceab026984ca0357894da9460021e00f0d0561c7349053a8127941e2c9087","id":128214058,"location_subtype":"","month":"2025-05"},{"category":"violent-crime","location_type":"Force","location":{"latitude":"50.908873","street":{"id":1557467,"name":"On or near Yoells Crescent"},"longitude":"-1.021188"},"context":"","outcome_status":{"category":"Unable to prosecute suspect","date":"2025-05"},"persistent_id":"66e19cce1ce267434a241ac890fb770ad0182d452781fc0064d387f647e325c8","id":128215113,"location_subtype":"","month":"2025-05"},{"category":"violent-crime","location_type":"Force","location":{"latitude":"50.902989","street":{"id":1557462,"name":"On or near Flag Walk"},"longitude":"-1.020913"},"context":"","outcome_status":{"category":"Unable to prosecute suspect","date":"2025-08"},"persistent_id":"07928c088f2eb039cdc187e69ab3337c8e038d51c5ab179e06362c7e62c32796","id":128216120,"location_subtype":"","month":"2025-05"},{"category":"violent-crime","location_type":"Force","location":{"latitude":"50.903927","street":{"id":1557647,"name":"On or near Peacock Gardens"},"longitude":"-1.011635"},"context":"","outcome_status":{"category":"Unable to prosecute suspect","date":"2025-05"},"persistent_id":"eea0bc35d5576413113cfb83e5720c6bb7eeb2483c76eafb938c361315e1d5e7","id":128216109,"location_subtype":"","month":"2025-05"},{"category":"violent-crime","location_type":"Force","location":{"latitude":"50.923631","street":{"id":1558053,"name":"On or near Juniper Road"},"longitude":"-0.999025"},"context":"","outcome_status":{"category":"Investigation complete; no suspect identified","date":"2025-05"},"persistent_id":"00a09e6965b3203d1a66242ec80ee0c54b75e277cb9317f4c2e77cccbbeb5228","id":128217260,"location_subtype":"","month":"2025-05"},{"category":"violent-crime","location_type":"Force","location":{"latitude":"50.913200","street":{"id":1557748,"name":"On or near Bowes-lyon Court"},"longitude":"-1.007556"},"context":"","outcome_status":{"category":"Unable to prosecute suspect","date":"2025-05"},"persistent_id":"3abb9d253cd43c7953bc67b3de18e66b89a7fdcc9569d04afb015985bcd4622b","id":128217314,"location_subtype":"","month":"2025-05"},{"category":"violent-crime","location_type":"Force","location":{"latitude":"50.902989","street":{"id":1557462,"name":"On or near Flag Walk"},"longitude":"-1.020913"},"context":"","outcome_status":{"category":"Unable to prosecute suspect","date":"2025-05"},"persistent_id":"20d5f0d615d7f0f7969755be3463835c21e10f57bf79435426aa8ea7ef33f4e0","id":128217938,"location_subtype":"","month":"2025-05"},{"category":"violent-crime","location_type":"Force","location":{"latitude":"50.911783","street":{"id":1557746,"name":"On or near Rodney Way"},"longitude":"-1.009022"},"context":"","outcome_status":{"category":"Unable to prosecute suspect","date":"2025-06"},"persistent_id":"f5e88d5e750870667e1c0695028b0f7132cd70af88c1bedc7acbb71e55caa483","id":128219472,"location_subtype":"","month":"2025-05"},{"category":"violent-crime","location_type":"Force","location":{"latitude":"50.903497","street":{"id":1557628,"name":"On or near Pump Lane"},"longitude":"-1.013906"},"context":"","outcome_status":{"category":"Unable to prosecute suspect","date":"2025-06"},"persistent_id":"cc415e9e4d3f6c342692bcf5772cffd78c2db3780bd363d363e833d0eeee221e","id":128220565,"location_subtype":"","month":"2025-05"},{"category":"violent-crime","location_type":"Force","location":{"latitude":"50.903497","street":{"id":1557628,"name":"On or near Pump Lane"},"longitude":"-1.013906"},"context":"","outcome_status":{"category":"Unable to prosecute suspect","date":"2025-06"},"persistent_id":"1a0b3e3711c9f6d584538d58d98e4f0259c2b3240c33739bd6936ad191da1eb0","id":128220927,"location_subtype":"","month":"2025-05"},{"category":"violent-crime","location_type":"Force","location":{"latitude":"50.910139","street":{"id":1557653,"name":"On or near Westbrooke Close"},"longitude":"-1.013438"},"context":"","outcome_status":{"category":"Unable to prosecute suspect","date":"2025-10"},"persistent_id":"ad76077f6aab6d5444e80deb91af71086ec21456a8b8e7f8fe3db9a67e0ce301","id":128221005,"location_subtype":"","month":"2025-05"},{"category":"violent-crime","location_type":"Force","location":{"latitude":"50.902989","street":{"id":1557462,"name":"On or near Flag Walk"},"longitude":"-1.020913"},"context":"","outcome_status":{"category":"Unable to prosecute suspect","date":"2025-08"},"persistent_id":"da8c2c75c59f7eebff65272b7a9ce28c11a99a316a8bcd582dd1a8a16f993e0d","id":128208425,"location_subtype":"","month":"2025-05"},{"category":"violent-crime","location_type":"Force","location":{"latitude":"50.906002","street":{"id":1557499,"name":"On or near Roselands"},"longitude":"-1.018816"},"context":"","outcome_status":{"category":"Unable to prosecute suspect","date":"2025-07"},"persistent_id":"d6bada01ee7c68042ca92d8d09eabf12eeb0927a36a1b4e3e8d96394f06d47ca","id":128212245,"location_subtype":"","month":"2025-05"},{"category":"violent-crime","location_type":"Force","location":{"latitude":"50.913842","street":{"id":1557238,"name":"On or near Coldhill Lane"},"longitude":"-1.026049"},"context":"","outcome_status":{"category":"Action to be taken by another organisation","date":"2025-06"},"persistent_id":"3527f88f82c0597a9785ad1138106f04bafd8d44fb2b8086aba2b1dcd4e295e1","id":128222162,"location_subtype":"","month":"2025-05"},{"category":"violent-crime","location_type":"Force","location":{"latitude":"50.922752","street":{"id":1558049,"name":"On or near Lovage Way"},"longitude":"-1.000395"},"context":"","outcome_status":{"category":"Investigation complete; no suspect identified","date":"2025-06"},"persistent_id":"e37f5e30594a265e6fc991ceb48feb1912379cfba9173ab3ce6c4592f988d491","id":128222381,"location_subtype":"","month":"2025-05"},{"category":"violent-crime","location_type":"Force","location":{"latitude":"50.902462","street":{"id":1557318,"name":"On or near Curlew Gardens"},"longitude":"-1.025603"},"context":"","outcome_status":{"category":"Unable to prosecute suspect","date":"2025-06"},"persistent_id":"70297c1ad7fd07e278883042718228e235292e4ab573fe1112661839ad2050f5","id":128222436,"location_subtype":"","month":"2025-05"},{"category":"violent-crime","location_type":"Force","location":{"latitude":"50.903819","street":{"id":1557305,"name":"On or near Powell Drive"},"longitude":"-1.027680"},"context":"","outcome_status":{"category":"Unable to prosecute suspect","date":"2025-06"},"persistent_id":"bc7318926f942b0346231271bdadf027e5838ed5039600bc20d85acebccda23f","id":128222522,"location_subtype":"","month":"2025-05"},{"category":"violent-crime","location_type":"Force","location":{"latitude":"50.911129","street":{"id":1558162,"name":"On or near Oakleaf Way"},"longitude":"-0.996676"},"context":"","outcome_status":{"category":"Unable to prosecute suspect","date":"2025-06"},"persistent_id":"cdaf0ead135a7cf99ff640bb3235b8b7229d679804c855675862cae1f7c6fabc","id":128222692,"location_subtype":"","month":"2025-05"},{"category":"violent-crime","location_type":"Force","location":{"latitude":"50.911129","street":{"id":1558162,"name":"On or near Oakleaf Way"},"longitude":"-0.996676"},"context":"","outcome_status":{"category":"Unable to prosecute suspect","date":"2025-06"},"persistent_id":"bfdf97d955c8b31b375e2d3dbdfea0434dcb18221340db494c09fc95bab968b6","id":128222767,"location_subtype":"","month":"2025-05"},{"category":"other-crime","location_type":"Force","location":{"latitude":"50.899911","street":{"id":1557565,"name":"On or near Willow Mews"},"longitude":"-1.015247"},"context":"","outcome_status":{"category":"Investigation complete; no suspect identified","date":"2025-06"},"persistent_id":"d0134a583d10b2fbfcefce6c221f076f38ed191a8263e136aec570f7d883bb7d","id":128212045,"location_subtype":"","month":"2025-05"}]