[{"category":"anti-social-behaviour","location_type":"Force","location":{"latitude":"51.455471","street":{"id":1966323,"name":"On or near Sun Street"},"longitude":"-0.951083"},"context":"","outcome_status":null,"persistent_id":"","id":126485114,"location_subtype":"","month":"2025-02"},{"category":"anti-social-behaviour","location_type":"Force","location":{"latitude":"51.457572","street":{"id":1965251,"name":"On or near Vachel Road"},"longitude":"-0.976180"},"context":"","outcome_status":null,"persistent_id":"","id":126484386,"location_subtype":"","month":"2025-02"},{"category":"anti-social-behaviour","location_type":"Force","location":{"latitude":"51.448890","street":{"id":1965226,"name":"On or near Temple Place"},"longitude":"-0.974503"},"context":"","outcome_status":null,"persistent_id":"","id":126484478,"location_subtype":"","month":"2025-02"},{"category":"anti-social-behaviour","location_type":"Force","location":{"latitude":"51.457774","street":{"id":1965412,"name":"On or near Merchants Place"},"longitude":"-0.973484"},"context":"","outcome_status":null,"persistent_id":"","id":126484572,"location_subtype":"","month":"2025-02"},{"category":"anti-social-behaviour","location_type":"Force","location":{"latitude":"51.456740","street":{"id":1965348,"name":"On or near Friar Street"},"longitude":"-0.973507"},"context":"","outcome_status":null,"persistent_id":"","id":126484516,"location_subtype":"","month":"2025-02"},{"category":"anti-social-behaviour","location_type":"Force","location":{"latitude":"51.456826","street":{"id":1965451,"name":"On or near Station Road"},"longitude":"-0.972123"},"context":"","outcome_status":null,"persistent_id":"","id":126484607,"location_subtype":"","month":"2025-02"},{"category":"anti-social-behaviour","location_type":"Force","location":{"latitude":"51.457114","street":{"id":1965264,"name":"On or near Supermarket"},"longitude":"-0.975197"},"context":"","outcome_status":null,"persistent_id":"","id":126484498,"location_subtype":"","month":"2025-02"},{"category":"anti-social-behaviour","location_type":"Force","location":{"latitude":"51.452695","street":{"id":1965416,"name":"On or near Bridge Street"},"longitude":"-0.972648"},"context":"","outcome_status":null,"persistent_id":"","id":126484553,"location_subtype":"","month":"2025-02"},{"category":"anti-social-behaviour","location_type":"Force","location":{"latitude":"51.456016","street":{"id":1965157,"name":"On or near Cheapside"},"longitude":"-0.977150"},"context":"","outcome_status":null,"persistent_id":"","id":126484396,"location_subtype":"","month":"2025-02"},{"category":"anti-social-behaviour","location_type":"Force","location":{"latitude":"51.457774","street":{"id":1965412,"name":"On or near Merchants Place"},"longitude":"-0.973484"},"context":"","outcome_status":null,"persistent_id":"","id":126484552,"location_subtype":"","month":"2025-02"},{"category":"anti-social-behaviour","location_type":"Force","location":{"latitude":"51.458586","street":{"id":1965057,"name":"On or near Regent Court"},"longitude":"-0.977985"},"context":"","outcome_status":null,"persistent_id":"","id":126484367,"location_subtype":"","month":"2025-02"},{"category":"anti-social-behaviour","location_type":"Force","location":{"latitude":"51.458586","street":{"id":1965057,"name":"On or near Regent Court"},"longitude":"-0.977985"},"context":"","outcome_status":null,"persistent_id":"","id":126484366,"location_subtype":"","month":"2025-02"},{"category":"anti-social-behaviour","location_type":"Force","location":{"latitude":"51.458586","street":{"id":1965057,"name":"On or near Regent Court"},"longitude":"-0.977985"},"context":"","outcome_status":null,"persistent_id":"","id":126484365,"location_subtype":"","month":"2025-02"},{"category":"anti-social-behaviour","location_type":"Force","location":{"latitude":"51.459427","street":{"id":1965126,"name":"On or near Nightclub"},"longitude":"-0.977462"},"context":"","outcome_status":null,"persistent_id":"","id":126484368,"location_subtype":"","month":"2025-02"},{"category":"anti-social-behaviour","location_type":"Force","location":{"latitude":"51.462278","street":{"id":1965065,"name":"On or near Addison Road"},"longitude":"-0.978593"},"context":"","outcome_status":null,"persistent_id":"","id":126484356,"location_subtype":"","month":"2025-02"},{"category":"anti-social-behaviour","location_type":"Force","location":{"latitude":"51.443039","street":{"id":1966140,"name":"On or near Cintra Close"},"longitude":"-0.957555"},"context":"","outcome_status":null,"persistent_id":"","id":126485023,"location_subtype":"","month":"2025-02"},{"category":"anti-social-behaviour","location_type":"Force","location":{"latitude":"51.457114","street":{"id":1965264,"name":"On or near Supermarket"},"longitude":"-0.975197"},"context":"","outcome_status":null,"persistent_id":"","id":126484450,"location_subtype":"","month":"2025-02"},{"category":"anti-social-behaviour","location_type":"Force","location":{"latitude":"51.457774","street":{"id":1965412,"name":"On or near Merchants Place"},"longitude":"-0.973484"},"context":"","outcome_status":null,"persistent_id":"","id":126484551,"location_subtype":"","month":"2025-02"},{"category":"anti-social-behaviour","location_type":"Force","location":{"latitude":"51.456068","street":{"id":1965249,"name":"On or near West Street"},"longitude":"-0.975839"},"context":"","outcome_status":null,"persistent_id":"","id":126484439,"location_subtype":"","month":"2025-02"},{"category":"anti-social-behaviour","location_type":"Force","location":{"latitude":"51.455718","street":{"id":1965007,"name":"On or near Chatham Place"},"longitude":"-0.980035"},"context":"","outcome_status":null,"persistent_id":"","id":126484329,"location_subtype":"","month":"2025-02"},{"category":"anti-social-behaviour","location_type":"Force","location":{"latitude":"51.454467","street":{"id":1965180,"name":"On or near Parking Area"},"longitude":"-0.976796"},"context":"","outcome_status":null,"persistent_id":"","id":126484431,"location_subtype":"","month":"2025-02"},{"category":"anti-social-behaviour","location_type":"Force","location":{"latitude":"51.457056","street":{"id":1964945,"name":"On or near Stratheden Place"},"longitude":"-0.980855"},"context":"","outcome_status":null,"persistent_id":"","id":126484316,"location_subtype":"","month":"2025-02"},{"category":"anti-social-behaviour","location_type":"Force","location":{"latitude":"51.448244","street":{"id":1964996,"name":"On or near Petrol Station"},"longitude":"-0.979885"},"context":"","outcome_status":null,"persistent_id":"","id":126484310,"location_subtype":"","month":"2025-02"},{"category":"anti-social-behaviour","location_type":"Force","location":{"latitude":"51.464522","street":{"id":1965605,"name":"On or near Tamesis Place"},"longitude":"-0.968884"},"context":"","outcome_status":null,"persistent_id":"","id":126484757,"location_subtype":"","month":"2025-02"},{"category":"anti-social-behaviour","location_type":"Force","location":{"latitude":"51.460974","street":{"id":1965263,"name":"On or near Caversham Road"},"longitude":"-0.975513"},"context":"","outcome_status":null,"persistent_id":"","id":126484435,"location_subtype":"","month":"2025-02"},{"category":"anti-social-behaviour","location_type":"Force","location":{"latitude":"51.446520","street":{"id":1965692,"name":"On or near Waldeck Street"},"longitude":"-0.967822"},"context":"","outcome_status":null,"persistent_id":"","id":126484829,"location_subtype":"","month":"2025-02"},{"category":"anti-social-behaviour","location_type":"Force","location":{"latitude":"51.447324","street":{"id":1965723,"name":"On or near Mount Pleasant"},"longitude":"-0.966163"},"context":"","outcome_status":null,"persistent_id":"","id":126484831,"location_subtype":"","month":"2025-02"},{"category":"anti-social-behaviour","location_type":"Force","location":{"latitude":"51.465906","street":{"id":1965749,"name":"On or near Gosbrook Road"},"longitude":"-0.965700"},"context":"","outcome_status":null,"persistent_id":"","id":126484833,"location_subtype":"","month":"2025-02"},{"category":"anti-social-behaviour","location_type":"Force","location":{"latitude":"51.451804","street":{"id":1965714,"name":"On or near East Street"},"longitude":"-0.966393"},"context":"","outcome_status":null,"persistent_id":"","id":126484849,"location_subtype":"","month":"2025-02"},{"category":"anti-social-behaviour","location_type":"Force","location":{"latitude":"51.452737","street":{"id":1965781,"name":"On or near Livery Close"},"longitude":"-0.965206"},"context":"","outcome_status":null,"persistent_id":"","id":126484859,"location_subtype":"","month":"2025-02"},{"category":"anti-social-behaviour","location_type":"Force","location":{"latitude":"51.445132","street":{"id":1965812,"name":"On or near Whitley Street"},"longitude":"-0.965378"},"context":"","outcome_status":null,"persistent_id":"","id":126484864,"location_subtype":"","month":"2025-02"},{"category":"anti-social-behaviour","location_type":"Force","location":{"latitude":"51.449823","street":{"id":1965507,"name":"On or near Henry Street"},"longitude":"-0.971244"},"context":"","outcome_status":null,"persistent_id":"","id":126484685,"location_subtype":"","month":"2025-02"},{"category":"anti-social-behaviour","location_type":"Force","location":{"latitude":"51.450047","street":{"id":1965905,"name":"On or near Crown Place"},"longitude":"-0.962964"},"context":"","outcome_status":null,"persistent_id":"","id":126484877,"location_subtype":"","month":"2025-02"},{"category":"anti-social-behaviour","location_type":"Force","location":{"latitude":"51.440846","street":{"id":1965788,"name":"On or near Whitley Rise"},"longitude":"-0.964727"},"context":"","outcome_status":null,"persistent_id":"","id":126484880,"location_subtype":"","month":"2025-02"},{"category":"anti-social-behaviour","location_type":"Force","location":{"latitude":"51.445610","street":{"id":1965853,"name":"On or near Highgrove Street"},"longitude":"-0.964590"},"context":"","outcome_status":null,"persistent_id":"","id":126484896,"location_subtype":"","month":"2025-02"},{"category":"anti-social-behaviour","location_type":"Force","location":{"latitude":"51.454269","street":{"id":1965948,"name":"On or near Kennet Street"},"longitude":"-0.960451"},"context":"","outcome_status":null,"persistent_id":"","id":126484931,"location_subtype":"","month":"2025-02"},{"category":"anti-social-behaviour","location_type":"Force","location":{"latitude":"51.444445","street":{"id":1966005,"name":"On or near Sutherlands Avenue"},"longitude":"-0.960933"},"context":"","outcome_status":null,"persistent_id":"","id":126484932,"location_subtype":"","month":"2025-02"},{"category":"anti-social-behaviour","location_type":"Force","location":{"latitude":"51.455316","street":{"id":1965426,"name":"On or near Shopping Area"},"longitude":"-0.972085"},"context":"","outcome_status":null,"persistent_id":"","id":126484578,"location_subtype":"","month":"2025-02"},{"category":"anti-social-behaviour","location_type":"Force","location":{"latitude":"51.456931","street":{"id":1966205,"name":"On or near Kennet Walk"},"longitude":"-0.955410"},"context":"","outcome_status":null,"persistent_id":"","id":126485060,"location_subtype":"","month":"2025-02"},{"category":"anti-social-behaviour","location_type":"Force","location":{"latitude":"51.457114","street":{"id":1965264,"name":"On or near Supermarket"},"longitude":"-0.975197"},"context":"","outcome_status":null,"persistent_id":"","id":126484466,"location_subtype":"","month":"2025-02"},{"category":"anti-social-behaviour","location_type":"Force","location":{"latitude":"51.456826","street":{"id":1965451,"name":"On or near Station Road"},"longitude":"-0.972123"},"context":"","outcome_status":null,"persistent_id":"","id":126484580,"location_subtype":"","month":"2025-02"},{"category":"anti-social-behaviour","location_type":"Force","location":{"latitude":"51.456826","street":{"id":1965451,"name":"On or near Station Road"},"longitude":"-0.972123"},"context":"","outcome_status":null,"persistent_id":"","id":126484585,"location_subtype":"","month":"2025-02"},{"category":"anti-social-behaviour","location_type":"Force","location":{"latitude":"51.456826","street":{"id":1965451,"name":"On or near Station Road"},"longitude":"-0.972123"},"context":"","outcome_status":null,"persistent_id":"","id":126484584,"location_subtype":"","month":"2025-02"},{"category":"anti-social-behaviour","location_type":"Force","location":{"latitude":"51.450890","street":{"id":1965677,"name":"On or near Nightclub"},"longitude":"-0.967838"},"context":"","outcome_status":null,"persistent_id":"","id":126484814,"location_subtype":"","month":"2025-02"},{"category":"anti-social-behaviour","location_type":"Force","location":{"latitude":"51.453820","street":{"id":1966341,"name":"On or near Norwood Road"},"longitude":"-0.950415"},"context":"","outcome_status":null,"persistent_id":"","id":126485118,"location_subtype":"","month":"2025-02"},{"category":"anti-social-behaviour","location_type":"Force","location":{"latitude":"51.453820","street":{"id":1966341,"name":"On or near Norwood Road"},"longitude":"-0.950415"},"context":"","outcome_status":null,"persistent_id":"","id":126485119,"location_subtype":"","month":"2025-02"},{"category":"anti-social-behaviour","location_type":"Force","location":{"latitude":"51.455316","street":{"id":1965426,"name":"On or near Shopping Area"},"longitude":"-0.972085"},"context":"","outcome_status":null,"persistent_id":"","id":126484612,"location_subtype":"","month":"2025-02"},{"category":"anti-social-behaviour","location_type":"Force","location":{"latitude":"51.457774","street":{"id":1965412,"name":"On or near Merchants Place"},"longitude":"-0.973484"},"context":"","outcome_status":null,"persistent_id":"","id":126484571,"location_subtype":"","month":"2025-02"},{"category":"anti-social-behaviour","location_type":"Force","location":{"latitude":"51.456990","street":{"id":1964748,"name":"On or near George Street"},"longitude":"-0.985793"},"context":"","outcome_status":null,"persistent_id":"","id":126484215,"location_subtype":"","month":"2025-02"},{"category":"anti-social-behaviour","location_type":"Force","location":{"latitude":"51.454753","street":{"id":1964753,"name":"On or near Prospect Mews"},"longitude":"-0.984979"},"context":"","outcome_status":null,"persistent_id":"","id":126484212,"location_subtype":"","month":"2025-02"},{"category":"anti-social-behaviour","location_type":"Force","location":{"latitude":"51.442694","street":{"id":1964603,"name":"On or near The Brookmill"},"longitude":"-0.986872"},"context":"","outcome_status":null,"persistent_id":"","id":126484204,"location_subtype":"","month":"2025-02"},{"category":"anti-social-behaviour","location_type":"Force","location":{"latitude":"51.452916","street":{"id":1964675,"name":"On or near Alleyne Close"},"longitude":"-0.987797"},"context":"","outcome_status":null,"persistent_id":"","id":126484186,"location_subtype":"","month":"2025-02"},{"category":"anti-social-behaviour","location_type":"Force","location":{"latitude":"51.452916","street":{"id":1964675,"name":"On or near Alleyne Close"},"longitude":"-0.987797"},"context":"","outcome_status":null,"persistent_id":"","id":126484185,"location_subtype":"","month":"2025-02"},{"category":"anti-social-behaviour","location_type":"Force","location":{"latitude":"51.457495","street":{"id":1964557,"name":"On or near Salisbury Road"},"longitude":"-0.990128"},"context":"","outcome_status":null,"persistent_id":"","id":126484171,"location_subtype":"","month":"2025-02"},{"category":"anti-social-behaviour","location_type":"Force","location":{"latitude":"51.457774","street":{"id":1965412,"name":"On or near Merchants Place"},"longitude":"-0.973484"},"context":"","outcome_status":null,"persistent_id":"","id":126484570,"location_subtype":"","month":"2025-02"},{"category":"anti-social-behaviour","location_type":"Force","location":{"latitude":"51.459483","street":{"id":1966009,"name":"On or near Luscinia View"},"longitude":"-0.958288"},"context":"","outcome_status":null,"persistent_id":"","id":126485011,"location_subtype":"","month":"2025-02"},{"category":"anti-social-behaviour","location_type":"Force","location":{"latitude":"51.454467","street":{"id":1965180,"name":"On or near Parking Area"},"longitude":"-0.976796"},"context":"","outcome_status":null,"persistent_id":"","id":126484403,"location_subtype":"","month":"2025-02"},{"category":"anti-social-behaviour","location_type":"Force","location":{"latitude":"51.458472","street":{"id":1965154,"name":"On or near A329"},"longitude":"-0.977282"},"context":"","outcome_status":null,"persistent_id":"","id":126484399,"location_subtype":"","month":"2025-02"},{"category":"bicycle-theft","location_type":"Force","location":{"latitude":"51.458788","street":{"id":1964893,"name":"On or near Bus/coach Station"},"longitude":"-0.981536"},"context":"","outcome_status":{"category":"Investigation complete; no suspect identified","date":"2025-02"},"persistent_id":"3c1c565acd47b9de7974c8297543f74e6aa84f299035af2a7c2c763112b82786","id":126484296,"location_subtype":"","month":"2025-02"},{"category":"bicycle-theft","location_type":"Force","location":{"latitude":"51.453506","street":{"id":1965491,"name":"On or near Parking Area"},"longitude":"-0.971823"},"context":"","outcome_status":{"category":"Investigation complete; no suspect identified","date":"2025-04"},"persistent_id":"cd26367279ce296db942f931ae7a9fafcf7e3d5543220929d5dff2e82cfa7863","id":126484659,"location_subtype":"","month":"2025-02"},{"category":"bicycle-theft","location_type":"Force","location":{"latitude":"51.457324","street":{"id":1965578,"name":"On or near Blagrave Street"},"longitude":"-0.970356"},"context":"","outcome_status":{"category":"Investigation complete; no suspect identified","date":"2025-03"},"persistent_id":"d14a582c3724b3821cbacbaac832a4b44ecdab1e4144c8a35f9cb4d0259c927c","id":126484712,"location_subtype":"","month":"2025-02"},{"category":"bicycle-theft","location_type":"Force","location":{"latitude":"51.452369","street":{"id":1965779,"name":"On or near Theatre/concert Hall"},"longitude":"-0.966279"},"context":"","outcome_status":{"category":"Investigation complete; no suspect identified","date":"2025-02"},"persistent_id":"a6db1230dfc27f0274f8bce212a65a8f0f8168a5d5b3876a7de100ede2b03689","id":126484839,"location_subtype":"","month":"2025-02"},{"category":"bicycle-theft","location_type":"Force","location":{"latitude":"51.456935","street":{"id":1966013,"name":"On or near Kenavon Drive"},"longitude":"-0.959958"},"context":"","outcome_status":{"category":"Investigation complete; no suspect identified","date":"2025-02"},"persistent_id":"5ff5b9467176fe002fd9d68fc027e9b22aab86d60e639c981af267b3c00d687e","id":126484921,"location_subtype":"","month":"2025-02"},{"category":"bicycle-theft","location_type":"Force","location":{"latitude":"51.460556","street":{"id":1965536,"name":"On or near Vastern Road"},"longitude":"-0.970873"},"context":"","outcome_status":{"category":"Investigation complete; no suspect identified","date":"2025-03"},"persistent_id":"c9ffa39a90f0695e9dd3872df356a3554b857c30a8f0c8e79f6210b4ab1457f5","id":126484681,"location_subtype":"","month":"2025-02"},{"category":"bicycle-theft","location_type":"Force","location":{"latitude":"51.457114","street":{"id":1965264,"name":"On or near Supermarket"},"longitude":"-0.975197"},"context":"","outcome_status":{"category":"Investigation complete; no suspect identified","date":"2025-02"},"persistent_id":"d49112aefca2d0cc599558b970bea781e1d05645b4b4ff776b0dd66b5ce92172","id":126484484,"location_subtype":"","month":"2025-02"},{"category":"bicycle-theft","location_type":"Force","location":{"latitude":"51.464634","street":{"id":1965169,"name":"On or near Waterman Place"},"longitude":"-0.976554"},"context":"","outcome_status":{"category":"Investigation complete; no suspect identified","date":"2025-03"},"persistent_id":"8a84e9d454b340faecb4737404ea098f9ae2068bf55200aacc5a7f5e47b1e96b","id":126484392,"location_subtype":"","month":"2025-02"},{"category":"bicycle-theft","location_type":"Force","location":{"latitude":"51.454809","street":{"id":1965216,"name":"On or near Shopping Area"},"longitude":"-0.975896"},"context":"","outcome_status":{"category":"Investigation complete; no suspect identified","date":"2025-02"},"persistent_id":"0093b0aea079c6f01908a1320828ddf543fdab192ff69dd7bf545effae7baf71","id":126484465,"location_subtype":"","month":"2025-02"},{"category":"bicycle-theft","location_type":"Force","location":{"latitude":"51.456068","street":{"id":1965249,"name":"On or near West Street"},"longitude":"-0.975839"},"context":"","outcome_status":{"category":"Investigation complete; no suspect identified","date":"2025-02"},"persistent_id":"e70305db0267fb368a50e01524afe2212e912ff1c12ef67f9bd1c5a5b005bc0f","id":126484474,"location_subtype":"","month":"2025-02"},{"category":"bicycle-theft","location_type":"Force","location":{"latitude":"51.449331","street":{"id":1965123,"name":"On or near Garnet Street"},"longitude":"-0.977659"},"context":"","outcome_status":{"category":"Investigation complete; no suspect identified","date":"2025-02"},"persistent_id":"b1cfb9f89af551759aa6e7ef8377414e774a0e018c4d3b4560bedb0f7c4b15b5","id":126484372,"location_subtype":"","month":"2025-02"},{"category":"bicycle-theft","location_type":"Force","location":{"latitude":"51.457114","street":{"id":1965264,"name":"On or near Supermarket"},"longitude":"-0.975197"},"context":"","outcome_status":{"category":"Investigation complete; no suspect identified","date":"2025-02"},"persistent_id":"8f2180a61de1a2eb49e11260136681874dd342c3c0cf322e5df796dee6a87456","id":126484500,"location_subtype":"","month":"2025-02"},{"category":"bicycle-theft","location_type":"Force","location":{"latitude":"51.450642","street":{"id":1966409,"name":"On or near Carnarvon Road"},"longitude":"-0.947984"},"context":"","outcome_status":{"category":"Investigation complete; no suspect identified","date":"2025-02"},"persistent_id":"c5d4b2a5a4fd9fa425d2ad52e41c3899936c0bad653f128e05816dd6180b124a","id":126485182,"location_subtype":"","month":"2025-02"},{"category":"bicycle-theft","location_type":"Force","location":{"latitude":"51.452769","street":{"id":1965729,"name":"On or near Bourne-stevens Close"},"longitude":"-0.966745"},"context":"","outcome_status":{"category":"Investigation complete; no suspect identified","date":"2025-02"},"persistent_id":"597118fc43235d7a35a6e93bb5bdd4f9836adb399f7a72bead704e8035e1164f","id":126484817,"location_subtype":"","month":"2025-02"},{"category":"burglary","location_type":"Force","location":{"latitude":"51.460857","street":{"id":1965547,"name":"On or near Norman Place"},"longitude":"-0.970348"},"context":"","outcome_status":{"category":"Investigation complete; no suspect identified","date":"2025-02"},"persistent_id":"17cae0cc4e449c13761c44b927346becd0609be5165ca1dd46fb3796a8b2f363","id":126484690,"location_subtype":"","month":"2025-02"},{"category":"burglary","location_type":"Force","location":{"latitude":"51.452940","street":{"id":1965158,"name":"On or near Police Station"},"longitude":"-0.976640"},"context":"","outcome_status":{"category":"Investigation complete; no suspect identified","date":"2025-02"},"persistent_id":"103737aac611a93ce1589e911967cea7dc0ee3c8d0d659d873ec9a25dde31492","id":126484419,"location_subtype":"","month":"2025-02"},{"category":"burglary","location_type":"Force","location":{"latitude":"51.455289","street":{"id":1964710,"name":"On or near Parking Area"},"longitude":"-0.986608"},"context":"","outcome_status":{"category":"Investigation complete; no suspect identified","date":"2025-04"},"persistent_id":"12401c7c03e7a6a2b1df31336c4fb37c445f4a26530398f5514f7b0da85dc84d","id":126484201,"location_subtype":"","month":"2025-02"},{"category":"burglary","location_type":"Force","location":{"latitude":"51.449777","street":{"id":1965778,"name":"On or near Jubilee Square"},"longitude":"-0.966036"},"context":"","outcome_status":{"category":"Court result unavailable","date":"2025-09"},"persistent_id":"3856b1b6b8fe1d5d4b3397cfb0e84cd39e302466755007c02c043cb3032811c6","id":126484835,"location_subtype":"","month":"2025-02"},{"category":"burglary","location_type":"Force","location":{"latitude":"51.456826","street":{"id":1965451,"name":"On or near Station Road"},"longitude":"-0.972123"},"context":"","outcome_status":{"category":"Investigation complete; no suspect identified","date":"2025-03"},"persistent_id":"3beb14661a3abe0060235e481826fe0119c2ac7038393872f5b820ecea026f2e","id":126484590,"location_subtype":"","month":"2025-02"},{"category":"burglary","location_type":"Force","location":{"latitude":"51.461287","street":{"id":1965233,"name":"On or near Caversham Road"},"longitude":"-0.975290"},"context":"","outcome_status":{"category":"Unable to prosecute suspect","date":"2025-04"},"persistent_id":"01b34068a3c62a2e4a6f1187bbf0084f014d171718f13049f8270a0fec5d6f81","id":126484443,"location_subtype":"","month":"2025-02"},{"category":"burglary","location_type":"Force","location":{"latitude":"51.460857","street":{"id":1965547,"name":"On or near Norman Place"},"longitude":"-0.970348"},"context":"","outcome_status":{"category":"Investigation complete; no suspect identified","date":"2025-02"},"persistent_id":"8bc0e1bf897877f98006ef9ace9152a567c6622038345b9e583afafb03f37f33","id":126484753,"location_subtype":"","month":"2025-02"},{"category":"burglary","location_type":"Force","location":{"latitude":"51.453214","street":{"id":1966400,"name":"On or near Supermarket"},"longitude":"-0.949062"},"context":"","outcome_status":{"category":"Court result unavailable","date":"2025-11"},"persistent_id":"35001884b91d6bd3ebcbf035f569c064d477e1ae52ae09785e0d8f8f53e340ed","id":126485160,"location_subtype":"","month":"2025-02"},{"category":"burglary","location_type":"Force","location":{"latitude":"51.449777","street":{"id":1965778,"name":"On or near Jubilee Square"},"longitude":"-0.966036"},"context":"","outcome_status":{"category":"Status update unavailable","date":"2025-06"},"persistent_id":"ae72c1255ac71d01ded316368be4700d305056c438fd6afc7c66b1a72a0e1a57","id":126484836,"location_subtype":"","month":"2025-02"},{"category":"burglary","location_type":"Force","location":{"latitude":"51.457411","street":{"id":1964604,"name":"On or near Little Street"},"longitude":"-0.987640"},"context":"","outcome_status":{"category":"Unable to prosecute suspect","date":"2025-06"},"persistent_id":"23c39b3980ecf62245edbdc50a4fb6da3006d89291a9401a63d3ba7a8e8dbb76","id":126484190,"location_subtype":"","month":"2025-02"},{"category":"burglary","location_type":"Force","location":{"latitude":"51.444126","street":{"id":1965078,"name":"On or near Shopping Area"},"longitude":"-0.977666"},"context":"","outcome_status":{"category":"Investigation complete; no suspect identified","date":"2025-04"},"persistent_id":"8714a79c38d87f17340ee5d86bf97de81d40b6fd9c4f41ec6f71d12f9fb3d984","id":126484448,"location_subtype":"","month":"2025-02"},{"category":"burglary","location_type":"Force","location":{"latitude":"51.456826","street":{"id":1965451,"name":"On or near Station Road"},"longitude":"-0.972123"},"context":"","outcome_status":{"category":"Court result unavailable","date":"2025-09"},"persistent_id":"466fea22f183862c2153d36820548adaba1dca26a25287fd659e605f3356e9bd","id":126484583,"location_subtype":"","month":"2025-02"},{"category":"burglary","location_type":"Force","location":{"latitude":"51.449648","street":{"id":1965711,"name":"On or near Theatre/concert Hall"},"longitude":"-0.966701"},"context":"","outcome_status":{"category":"Unable to prosecute suspect","date":"2025-04"},"persistent_id":"5e0725f2536a18ee1f9a4d125418d3029828382629612bd2f3cce5512a9845f8","id":126484826,"location_subtype":"","month":"2025-02"},{"category":"criminal-damage-arson","location_type":"Force","location":{"latitude":"51.448283","street":{"id":1966373,"name":"On or near Hatherley Road"},"longitude":"-0.949708"},"context":"","outcome_status":{"category":"Unable to prosecute suspect","date":"2025-03"},"persistent_id":"a0ccc2149b629e4e6aa4f2c2097ff898d406736b3a6b6957ea7f5f24eb884353","id":126485156,"location_subtype":"","month":"2025-02"},{"category":"criminal-damage-arson","location_type":"Force","location":{"latitude":"51.453942","street":{"id":1965393,"name":"On or near Gun Street"},"longitude":"-0.973325"},"context":"","outcome_status":{"category":"Investigation complete; no suspect identified","date":"2025-06"},"persistent_id":"48ef168d8e3f891dcd98749c3ccc8e8857509884a79f65b25404589e7d208803","id":126484512,"location_subtype":"","month":"2025-02"},{"category":"criminal-damage-arson","location_type":"Force","location":{"latitude":"51.457252","street":{"id":1966138,"name":"On or near Oscar Wilde Road"},"longitude":"-0.957116"},"context":"","outcome_status":{"category":"Investigation complete; no suspect identified","date":"2025-02"},"persistent_id":"4e72b11f19dde2e43e68062968f4b4fb0e0d173fbfecb0b2bd8fa69b03030c76","id":126485054,"location_subtype":"","month":"2025-02"},{"category":"criminal-damage-arson","location_type":"Force","location":{"latitude":"51.454809","street":{"id":1965216,"name":"On or near Shopping Area"},"longitude":"-0.975896"},"context":"","outcome_status":{"category":"Investigation complete; no suspect identified","date":"2025-02"},"persistent_id":"e2cf21bdd66e4e47dbb23e5171b9db4091710bba647a60b57140fa31c2bdee60","id":126484464,"location_subtype":"","month":"2025-02"},{"category":"criminal-damage-arson","location_type":"Force","location":{"latitude":"51.450705","street":{"id":1965619,"name":"On or near St Giles Close"},"longitude":"-0.969267"},"context":"","outcome_status":{"category":"Investigation complete; no suspect identified","date":"2025-02"},"persistent_id":"990e97038a2dbd8937bc395be151b41a6b4d6b3dbc6ec2fbb3f0f9e8c4462a4b","id":126484760,"location_subtype":"","month":"2025-02"},{"category":"criminal-damage-arson","location_type":"Force","location":{"latitude":"51.460857","street":{"id":1965547,"name":"On or near Norman Place"},"longitude":"-0.970348"},"context":"","outcome_status":{"category":"Investigation complete; no suspect identified","date":"2025-02"},"persistent_id":"846285dc5e224cf1f59dc9e24318c29def7d736be4ec67907fb0fea525349f47","id":126484752,"location_subtype":"","month":"2025-02"},{"category":"criminal-damage-arson","location_type":"Force","location":{"latitude":"51.456826","street":{"id":1965451,"name":"On or near Station Road"},"longitude":"-0.972123"},"context":"","outcome_status":{"category":"Status update unavailable","date":"2025-06"},"persistent_id":"ecea123c2b6c432eaffc504741e6c57ab1f61c4f5dd1fc73425a0be6ebab02b4","id":126484643,"location_subtype":"","month":"2025-02"},{"category":"criminal-damage-arson","location_type":"Force","location":{"latitude":"51.445988","street":{"id":1965712,"name":"On or near Charndon Close"},"longitude":"-0.967675"},"context":"","outcome_status":{"category":"Investigation complete; no suspect identified","date":"2025-02"},"persistent_id":"5e06b40b29c195da600255d08d7198cf941e925cc5de21205be779eb5ab78ded","id":126484801,"location_subtype":"","month":"2025-02"},{"category":"criminal-damage-arson","location_type":"Force","location":{"latitude":"51.452260","street":{"id":1966125,"name":"On or near Eldon Square"},"longitude":"-0.958021"},"context":"","outcome_status":{"category":"Investigation complete; no suspect identified","date":"2025-02"},"persistent_id":"0fd0191a1f7b7cc2165ac4fe0ef25853286e8125199433ee1ce2a51505adee08","id":126485028,"location_subtype":"","month":"2025-02"},{"category":"criminal-damage-arson","location_type":"Force","location":{"latitude":"51.448112","street":{"id":1966317,"name":"On or near Donnington Gardens"},"longitude":"-0.950647"},"context":"","outcome_status":{"category":"Investigation complete; no suspect identified","date":"2025-02"},"persistent_id":"eb6cbb4e81c4fc4970166f0867619660786af22f8a9e16d617fa0727ce235aff","id":126485117,"location_subtype":"","month":"2025-02"},{"category":"criminal-damage-arson","location_type":"Force","location":{"latitude":"51.448112","street":{"id":1966317,"name":"On or near Donnington Gardens"},"longitude":"-0.950647"},"context":"","outcome_status":{"category":"Investigation complete; no suspect identified","date":"2025-02"},"persistent_id":"a82ce4a744a7e51dff7c44106a1fa80e46857775057815f08dbd3c3ae0c27d2a","id":126485116,"location_subtype":"","month":"2025-02"},{"category":"criminal-damage-arson","location_type":"Force","location":{"latitude":"51.461287","street":{"id":1965233,"name":"On or near Caversham Road"},"longitude":"-0.975290"},"context":"","outcome_status":{"category":"Investigation complete; no suspect identified","date":"2025-04"},"persistent_id":"148b2c95e2ee2d047c53875287237353ecb4d7bf7b7a722fe58865448c45d939","id":126484460,"location_subtype":"","month":"2025-02"},{"category":"criminal-damage-arson","location_type":"Force","location":{"latitude":"51.465135","street":{"id":1965826,"name":"On or near King's Road"},"longitude":"-0.964926"},"context":"","outcome_status":{"category":"Investigation complete; no suspect identified","date":"2025-02"},"persistent_id":"7c163c84fa0ced243946595b87949c42abb63965c238b0cd2d892c94fbd7c2a4","id":126484838,"location_subtype":"","month":"2025-02"},{"category":"criminal-damage-arson","location_type":"Force","location":{"latitude":"51.449777","street":{"id":1965778,"name":"On or near Jubilee Square"},"longitude":"-0.966036"},"context":"","outcome_status":{"category":"Court result unavailable","date":"2025-08"},"persistent_id":"7ce48add7ab7bac0e85fe3dfaa456527bba02ad01ead40eb8f2600d6bda39106","id":126484863,"location_subtype":"","month":"2025-02"},{"category":"criminal-damage-arson","location_type":"Force","location":{"latitude":"51.453959","street":{"id":1966302,"name":"On or near Rupert Street"},"longitude":"-0.951880"},"context":"","outcome_status":{"category":"Unable to prosecute suspect","date":"2025-02"},"persistent_id":"b500736ef3f227f9d9ac3c00714a7441de1c0a3b82f2619a27df87aa8e7b4337","id":126485110,"location_subtype":"","month":"2025-02"},{"category":"criminal-damage-arson","location_type":"Force","location":{"latitude":"51.458579","street":{"id":1964809,"name":"On or near Sports/recreation Area"},"longitude":"-0.984189"},"context":"","outcome_status":{"category":"Investigation complete; no suspect identified","date":"2025-02"},"persistent_id":"075251437dbee41eae069c042ced75b7181486d5b4505c966f35305f5f0e7943","id":126484236,"location_subtype":"","month":"2025-02"},{"category":"criminal-damage-arson","location_type":"Force","location":{"latitude":"51.451295","street":{"id":1966295,"name":"On or near Donnington Road"},"longitude":"-0.951596"},"context":"","outcome_status":{"category":"Investigation complete; no suspect identified","date":"2025-02"},"persistent_id":"bb99f066131c6732c03f9cdce98e3e0e50d1552c083ecb6887c7eb330cfada0a","id":126485106,"location_subtype":"","month":"2025-02"},{"category":"criminal-damage-arson","location_type":"Force","location":{"latitude":"51.455499","street":{"id":1965632,"name":"On or near Abbey Square"},"longitude":"-0.967360"},"context":"","outcome_status":{"category":"Investigation complete; no suspect identified","date":"2025-03"},"persistent_id":"bc2be49f93768c338ddf80339ad19bdbef3c7db03b41ec977a8faa3ba4e54b6b","id":126484793,"location_subtype":"","month":"2025-02"},{"category":"criminal-damage-arson","location_type":"Force","location":{"latitude":"51.456731","street":{"id":1966361,"name":"On or near School Terrace"},"longitude":"-0.950190"},"context":"","outcome_status":{"category":"Investigation complete; no suspect identified","date":"2025-02"},"persistent_id":"a5a8e38cf72e77f515a02a9156064499ff46ab363c66c128d8efd6a7de9bcf6f","id":126485146,"location_subtype":"","month":"2025-02"},{"category":"criminal-damage-arson","location_type":"Force","location":{"latitude":"51.441447","street":{"id":1965467,"name":"On or near Elgar Road South"},"longitude":"-0.970727"},"context":"","outcome_status":{"category":"Investigation complete; no suspect identified","date":"2025-02"},"persistent_id":"995c8b369faae2dd713bdbe5c85f3407f807bca88c234c53c6071059be812d63","id":126484692,"location_subtype":"","month":"2025-02"},{"category":"criminal-damage-arson","location_type":"Force","location":{"latitude":"51.460103","street":{"id":1965469,"name":"On or near Trooper Potts Way"},"longitude":"-0.971531"},"context":"","outcome_status":{"category":"Unable to prosecute suspect","date":"2025-03"},"persistent_id":"fb920638096b348b52c23bb903ab0512a5071f004411f6613bebc8815d4c61a7","id":126484620,"location_subtype":"","month":"2025-02"},{"category":"criminal-damage-arson","location_type":"Force","location":{"latitude":"51.455316","street":{"id":1965426,"name":"On or near Shopping Area"},"longitude":"-0.972085"},"context":"","outcome_status":{"category":"Unable to prosecute suspect","date":"2025-02"},"persistent_id":"b9b6cccb004af410bad628a2f15b6ab52814ed268a247e6e244d5c3218d5f5f8","id":126484688,"location_subtype":"","month":"2025-02"},{"category":"criminal-damage-arson","location_type":"Force","location":{"latitude":"51.455176","street":{"id":1964556,"name":"On or near Supermarket"},"longitude":"-0.991173"},"context":"","outcome_status":{"category":"Unable to prosecute suspect","date":"2025-05"},"persistent_id":"ccddbd179ffcea9855c3ae009e2ff4400964ecabc2cfbc82470b01b63a299e76","id":126484157,"location_subtype":"","month":"2025-02"},{"category":"criminal-damage-arson","location_type":"Force","location":{"latitude":"51.455781","street":{"id":1965081,"name":"On or near Thorn Street"},"longitude":"-0.978004"},"context":"","outcome_status":{"category":"Investigation complete; no suspect identified","date":"2025-02"},"persistent_id":"04152f120c6e513d020ad975220b8c94864355d5fe4d3665a4742cfe91a51963","id":126484376,"location_subtype":"","month":"2025-02"},{"category":"criminal-damage-arson","location_type":"Force","location":{"latitude":"51.449612","street":{"id":1965421,"name":"On or near Dorothy Street"},"longitude":"-0.971767"},"context":"","outcome_status":{"category":"Investigation complete; no suspect identified","date":"2025-02"},"persistent_id":"1fcf1722aa6c652193919a7c65a9b96378aa04c76c9e42438a205fcfd6e59a8d","id":126484609,"location_subtype":"","month":"2025-02"},{"category":"criminal-damage-arson","location_type":"Force","location":{"latitude":"51.452769","street":{"id":1965729,"name":"On or near Bourne-stevens Close"},"longitude":"-0.966745"},"context":"","outcome_status":{"category":"Unable to prosecute suspect","date":"2025-02"},"persistent_id":"4cf7d93b5e16ceabdb9b9fd8e54c56c782cac90649f6f427935405f9dcb3ab54","id":126484832,"location_subtype":"","month":"2025-02"},{"category":"criminal-damage-arson","location_type":"Force","location":{"latitude":"51.456068","street":{"id":1965249,"name":"On or near West Street"},"longitude":"-0.975839"},"context":"","outcome_status":{"category":"Investigation complete; no suspect identified","date":"2025-02"},"persistent_id":"5b96074a2433212d2aead9a4f614dbd5eb5f19d80da17c7160eef26107b111bc","id":126484458,"location_subtype":"","month":"2025-02"},{"category":"criminal-damage-arson","location_type":"Force","location":{"latitude":"51.455175","street":{"id":1964620,"name":"On or near Ormsby Street"},"longitude":"-0.990108"},"context":"","outcome_status":{"category":"Investigation complete; no suspect identified","date":"2025-02"},"persistent_id":"5018736d4057a43a1ede4617973e0d9e3c449104815f4784aca88615cb77c97f","id":126484172,"location_subtype":"","month":"2025-02"},{"category":"criminal-damage-arson","location_type":"Force","location":{"latitude":"51.460103","street":{"id":1965469,"name":"On or near Trooper Potts Way"},"longitude":"-0.971531"},"context":"","outcome_status":{"category":"Investigation complete; no suspect identified","date":"2025-02"},"persistent_id":"2b8d7820db158b971e8a12446b0cc90af5046aa9deac9e0a3a5b965910b90872","id":126484645,"location_subtype":"","month":"2025-02"},{"category":"criminal-damage-arson","location_type":"Force","location":{"latitude":"51.454884","street":{"id":1966340,"name":"On or near Woodstock Street"},"longitude":"-0.950736"},"context":"","outcome_status":{"category":"Court result unavailable","date":"2025-10"},"persistent_id":"a2552eefdd25f013a8292268fbd32e95afabe29d69e24c0ff21361ae1b4436ec","id":126485112,"location_subtype":"","month":"2025-02"},{"category":"criminal-damage-arson","location_type":"Force","location":{"latitude":"51.453506","street":{"id":1965491,"name":"On or near Parking Area"},"longitude":"-0.971823"},"context":"","outcome_status":{"category":"Investigation complete; no suspect identified","date":"2025-02"},"persistent_id":"a2629f78fb2e3248cc40df4dfd7822a95e0b0567eeb12388c0389701503c8859","id":126484664,"location_subtype":"","month":"2025-02"},{"category":"criminal-damage-arson","location_type":"Force","location":{"latitude":"51.455316","street":{"id":1965426,"name":"On or near Shopping Area"},"longitude":"-0.972085"},"context":"","outcome_status":{"category":"Investigation complete; no suspect identified","date":"2025-02"},"persistent_id":"04c074b6a6e42fa6737940c910a19476791ef13dc94cb0e363008746d07a61fc","id":126484615,"location_subtype":"","month":"2025-02"},{"category":"criminal-damage-arson","location_type":"Force","location":{"latitude":"51.452833","street":{"id":1966114,"name":"On or near Eldon Road"},"longitude":"-0.958728"},"context":"","outcome_status":{"category":"Unable to prosecute suspect","date":"2025-02"},"persistent_id":"79e2c54646a4eac6a0c929bfbe290b640b955739460eec0c95ac9f5b73dfc788","id":126485006,"location_subtype":"","month":"2025-02"},{"category":"criminal-damage-arson","location_type":"Force","location":{"latitude":"51.453941","street":{"id":1966110,"name":"On or near King's Road"},"longitude":"-0.958933"},"context":"","outcome_status":{"category":"Unable to prosecute suspect","date":"2025-03"},"persistent_id":"dca08254c601cdb091b5bad196865fdf408d0a13b04a489080a696d95781b4ef","id":126485013,"location_subtype":"","month":"2025-02"},{"category":"criminal-damage-arson","location_type":"Force","location":{"latitude":"51.443307","street":{"id":1965845,"name":"On or near Glebe Road"},"longitude":"-0.963419"},"context":"","outcome_status":{"category":"Investigation complete; no suspect identified","date":"2025-02"},"persistent_id":"b9ac97f32dffeddb7031ab1877d3cac70f659288d28e4420d113caad22ac3403","id":126484887,"location_subtype":"","month":"2025-02"},{"category":"criminal-damage-arson","location_type":"Force","location":{"latitude":"51.456068","street":{"id":1965249,"name":"On or near West Street"},"longitude":"-0.975839"},"context":"","outcome_status":{"category":"Local resolution","date":"2025-03"},"persistent_id":"eb69aa72c60c293117e0014d52b115a3e199bf5ad86ab0848d8a9d680e4b6c8f","id":126484459,"location_subtype":"","month":"2025-02"},{"category":"criminal-damage-arson","location_type":"Force","location":{"latitude":"51.450674","street":{"id":1965408,"name":"On or near Parthia Close"},"longitude":"-0.972952"},"context":"","outcome_status":{"category":"Investigation complete; no suspect identified","date":"2025-02"},"persistent_id":"0b055cd71a17fc78804e05b7f5c68d2b96abac7323fde06f2b845b5b36cb9fe9","id":126484540,"location_subtype":"","month":"2025-02"},{"category":"criminal-damage-arson","location_type":"Force","location":{"latitude":"51.450674","street":{"id":1965408,"name":"On or near Parthia Close"},"longitude":"-0.972952"},"context":"","outcome_status":{"category":"Investigation complete; no suspect identified","date":"2025-02"},"persistent_id":"8aa50a97543ff0d8b6f98717ff5c45c1a84f547f8920530319200ba1881e5786","id":126484539,"location_subtype":"","month":"2025-02"},{"category":"criminal-damage-arson","location_type":"Force","location":{"latitude":"51.452498","street":{"id":1965816,"name":"On or near South Street"},"longitude":"-0.964593"},"context":"","outcome_status":{"category":"Investigation complete; no suspect identified","date":"2025-03"},"persistent_id":"a2c0729656272cf8eec53da9a09eedfb6caf9ab94c616ee6289c0df3a6d1fe6a","id":126484881,"location_subtype":"","month":"2025-02"},{"category":"criminal-damage-arson","location_type":"Force","location":{"latitude":"51.456155","street":{"id":1965490,"name":"On or near Cross Street"},"longitude":"-0.971419"},"context":"","outcome_status":{"category":"Investigation complete; no suspect identified","date":"2025-04"},"persistent_id":"08052787b2340170c46a0d3ea0ddad6e91a039719509a139e1e2bedc83427192","id":126484649,"location_subtype":"","month":"2025-02"},{"category":"criminal-damage-arson","location_type":"Force","location":{"latitude":"51.454559","street":{"id":1965646,"name":"On or near Duke Street"},"longitude":"-0.968835"},"context":"","outcome_status":{"category":"Investigation complete; no suspect identified","date":"2025-02"},"persistent_id":"b3b933955dd1d9226eb694ff3cb8bb7d6eb7d9cee1b30b94d4414630693450bb","id":126484776,"location_subtype":"","month":"2025-02"},{"category":"drugs","location_type":"Force","location":{"latitude":"51.455316","street":{"id":1965426,"name":"On or near Shopping Area"},"longitude":"-0.972085"},"context":"","outcome_status":{"category":"Local resolution","date":"2025-03"},"persistent_id":"df28ce1eb83f9cdcb75053858a13805f245de2fa439205ea4e72fbddb25fd027","id":126484613,"location_subtype":"","month":"2025-02"},{"category":"drugs","location_type":"Force","location":{"latitude":"51.450001","street":{"id":1966032,"name":"On or near Parking Area"},"longitude":"-0.957785"},"context":"","outcome_status":{"category":"Local resolution","date":"2025-04"},"persistent_id":"221aa2d1b32932af060d9dec4eeeca4adb2f12a9df453628fff0d56b32fb995e","id":126485020,"location_subtype":"","month":"2025-02"},{"category":"drugs","location_type":"Force","location":{"latitude":"51.448480","street":{"id":1965575,"name":"On or near Sherman Road"},"longitude":"-0.969821"},"context":"","outcome_status":{"category":"Investigation complete; no suspect identified","date":"2025-02"},"persistent_id":"31a00c647cbf57038cc7cc839e2c3e62aa6d92a50b37b06d3b6c821d49f151e8","id":126484762,"location_subtype":"","month":"2025-02"},{"category":"drugs","location_type":"Force","location":{"latitude":"51.451888","street":{"id":1965333,"name":"On or near Fobney Street"},"longitude":"-0.973961"},"context":"","outcome_status":{"category":"Local resolution","date":"2025-02"},"persistent_id":"8d23630501fb9dfe5d18bf0aeeec912406996ba2d42ea95094ef36e55e3246fc","id":126484514,"location_subtype":"","month":"2025-02"},{"category":"drugs","location_type":"Force","location":{"latitude":"51.446625","street":{"id":1965043,"name":"On or near Admirals Court"},"longitude":"-0.976755"},"context":"","outcome_status":{"category":"Court result unavailable","date":"2026-01"},"persistent_id":"d9e32c237b9b21ac4d9c343e9f2dc7ac2f885c79387af9a426f4961dcc57d189","id":126484370,"location_subtype":"","month":"2025-02"},{"category":"drugs","location_type":"Force","location":{"latitude":"51.457774","street":{"id":1965412,"name":"On or near Merchants Place"},"longitude":"-0.973484"},"context":"","outcome_status":{"category":"Local resolution","date":"2025-03"},"persistent_id":"12eece5056c0dbe3e2e17125e579f78b09abff17fe6e8996ab7f73179a335dae","id":126484530,"location_subtype":"","month":"2025-02"},{"category":"drugs","location_type":"Force","location":{"latitude":"51.453784","street":{"id":1965062,"name":"On or near Howard Street"},"longitude":"-0.978999"},"context":"","outcome_status":{"category":"Court result unavailable","date":"2025-09"},"persistent_id":"6f51b6edcd4645d4060b8ee503881ff09e007178ca9b80bbf82e4aa96243e247","id":126484345,"location_subtype":"","month":"2025-02"},{"category":"drugs","location_type":"Force","location":{"latitude":"51.443218","street":{"id":1965437,"name":"On or near Nimrod Way"},"longitude":"-0.971666"},"context":"","outcome_status":{"category":"Court result unavailable","date":"2025-12"},"persistent_id":"12374c04c7b0d0dbdad36aecd4988ee99dde64ef916477820d709a8f822aa7dc","id":126484654,"location_subtype":"","month":"2025-02"},{"category":"drugs","location_type":"Force","location":{"latitude":"51.447927","street":{"id":1965611,"name":"On or near Chesterman Street"},"longitude":"-0.969272"},"context":"","outcome_status":{"category":"Local resolution","date":"2025-03"},"persistent_id":"559a5cf10b3b3301fae5d1685a2b6e3697b4de12f0aea58d8d7a04c3a2e3cd57","id":126484772,"location_subtype":"","month":"2025-02"},{"category":"drugs","location_type":"Force","location":{"latitude":"51.456068","street":{"id":1965249,"name":"On or near West Street"},"longitude":"-0.975839"},"context":"","outcome_status":{"category":"Status update unavailable","date":"2025-06"},"persistent_id":"1947edcdc3a0717d35a176b3e497893660495f30495d32a9eba51b9305d28dd5","id":126484447,"location_subtype":"","month":"2025-02"},{"category":"drugs","location_type":"Force","location":{"latitude":"51.465367","street":{"id":1965652,"name":"On or near Patrick Road"},"longitude":"-0.968851"},"context":"","outcome_status":{"category":"Court result unavailable","date":"2025-09"},"persistent_id":"0c18a777d8139bc9de86db2261969438dc8ef6a32ee69407867facdca839e8bd","id":126484778,"location_subtype":"","month":"2025-02"},{"category":"drugs","location_type":"Force","location":{"latitude":"51.456155","street":{"id":1965490,"name":"On or near Cross Street"},"longitude":"-0.971419"},"context":"","outcome_status":{"category":"Investigation complete; no suspect identified","date":"2025-09"},"persistent_id":"1eab2c6741f8d811cfde85092dae3999423abb2a7c831e60b1809b9ff7c7f739","id":126484680,"location_subtype":"","month":"2025-02"},{"category":"drugs","location_type":"Force","location":{"latitude":"51.456155","street":{"id":1965490,"name":"On or near Cross Street"},"longitude":"-0.971419"},"context":"","outcome_status":{"category":"Local resolution","date":"2025-02"},"persistent_id":"b87219864ec1e6a931f667f9f4cff14bdd233f5e3dcb3ca573b4a141560d29a7","id":126484650,"location_subtype":"","month":"2025-02"},{"category":"drugs","location_type":"Force","location":{"latitude":"51.448540","street":{"id":1965360,"name":"On or near River Road"},"longitude":"-0.973561"},"context":"","outcome_status":{"category":"Unable to prosecute suspect","date":"2025-09"},"persistent_id":"9268fc9476154167243e737125ff7de1fd5de4f4ca858a9e222741e8794cd4e4","id":126484569,"location_subtype":"","month":"2025-02"},{"category":"drugs","location_type":"Force","location":{"latitude":"51.442758","street":{"id":1966080,"name":"On or near Cintra Avenue"},"longitude":"-0.959331"},"context":"","outcome_status":{"category":"Status update unavailable","date":"2025-06"},"persistent_id":"e8462a3bc99adf0fd92f1559b9f02d18428dacb104255b13dbd8a085e29f4d67","id":126484970,"location_subtype":"","month":"2025-02"},{"category":"drugs","location_type":"Force","location":{"latitude":"51.460057","street":{"id":1966198,"name":"On or near Supermarket"},"longitude":"-0.956059"},"context":"","outcome_status":{"category":"Local resolution","date":"2025-03"},"persistent_id":"a06b246b79174a908ca16a099257e1e130156d0ab1ae34b81ef95570b0468a90","id":126485051,"location_subtype":"","month":"2025-02"},{"category":"drugs","location_type":"Force","location":{"latitude":"51.456567","street":{"id":1965776,"name":"On or near Abbot's Walk"},"longitude":"-0.966127"},"context":"","outcome_status":{"category":"Local resolution","date":"2025-03"},"persistent_id":"fba21537878f3b1e31848068c6eacf7364fec8ae39452b3984e61c934f53d016","id":126484821,"location_subtype":"","month":"2025-02"},{"category":"drugs","location_type":"Force","location":{"latitude":"51.444531","street":{"id":1965676,"name":"On or near Essex Street"},"longitude":"-0.967651"},"context":"","outcome_status":{"category":"Local resolution","date":"2025-02"},"persistent_id":"f8af663aaf632628262438e6c3fa6909a25f576acebe3c33af323a587bf05eed","id":126484791,"location_subtype":"","month":"2025-02"},{"category":"drugs","location_type":"Force","location":{"latitude":"51.457774","street":{"id":1965412,"name":"On or near Merchants Place"},"longitude":"-0.973484"},"context":"","outcome_status":{"category":"Local resolution","date":"2025-03"},"persistent_id":"7604c5a922554525e82eb2f8b549d51068ae042dd7aac16f7551027aa4d8fe4f","id":126484531,"location_subtype":"","month":"2025-02"},{"category":"drugs","location_type":"Force","location":{"latitude":"51.455316","street":{"id":1965426,"name":"On or near Shopping Area"},"longitude":"-0.972085"},"context":"","outcome_status":{"category":"Local resolution","date":"2025-03"},"persistent_id":"874ac4ad0204f80a9bc50d69deda9f0692b64df0d58c70cecd097f11a190e981","id":126484614,"location_subtype":"","month":"2025-02"},{"category":"other-theft","location_type":"Force","location":{"latitude":"51.448244","street":{"id":1964996,"name":"On or near Petrol Station"},"longitude":"-0.979885"},"context":"","outcome_status":{"category":"Unable to prosecute suspect","date":"2025-02"},"persistent_id":"1cd8b7d0c140e4c23cc5a8d5e3e9c7c6fb90c79e4459d4b67499837b73863f16","id":126484335,"location_subtype":"","month":"2025-02"},{"category":"other-theft","location_type":"Force","location":{"latitude":"51.455289","street":{"id":1964710,"name":"On or near Parking Area"},"longitude":"-0.986608"},"context":"","outcome_status":{"category":"Unable to prosecute suspect","date":"2025-03"},"persistent_id":"52da2aa7eec96ec5174ccb030e896ffacea947784f5f31c149c97a1f5635cbe3","id":126484211,"location_subtype":"","month":"2025-02"},{"category":"other-theft","location_type":"Force","location":{"latitude":"51.457243","street":{"id":1964792,"name":"On or near Stanley Street"},"longitude":"-0.984837"},"context":"","outcome_status":{"category":"Unable to prosecute suspect","date":"2025-03"},"persistent_id":"9052688d2c55ef13297a39ff62b0608b91f85b79292f5f77c2f9102faed16c5e","id":126484228,"location_subtype":"","month":"2025-02"},{"category":"other-theft","location_type":"Force","location":{"latitude":"51.452940","street":{"id":1965158,"name":"On or near Police Station"},"longitude":"-0.976640"},"context":"","outcome_status":{"category":"Investigation complete; no suspect identified","date":"2025-02"},"persistent_id":"bc3046b546dc7122c6f1ce398f1abbd8bf037eaf0db12be4e24fe43e4d925d55","id":126484416,"location_subtype":"","month":"2025-02"},{"category":"other-theft","location_type":"Force","location":{"latitude":"51.453823","street":{"id":1965431,"name":"On or near Nightclub"},"longitude":"-0.973097"},"context":"","outcome_status":{"category":"Investigation complete; no suspect identified","date":"2025-02"},"persistent_id":"d34d120ff133bca5c05fba88b55e04f9d77510fd81ea44bef70b05439de123d6","id":126484559,"location_subtype":"","month":"2025-02"},{"category":"other-theft","location_type":"Force","location":{"latitude":"51.457114","street":{"id":1965264,"name":"On or near Supermarket"},"longitude":"-0.975197"},"context":"","outcome_status":{"category":"Unable to prosecute suspect","date":"2025-03"},"persistent_id":"c1ce84a7ecf2a4092f6bcf01e9e0a557a4fb29c1ab428e965e5b16f135c74351","id":126484486,"location_subtype":"","month":"2025-02"},{"category":"other-theft","location_type":"Force","location":{"latitude":"51.455718","street":{"id":1965007,"name":"On or near Chatham Place"},"longitude":"-0.980035"},"context":"","outcome_status":{"category":"Investigation complete; no suspect identified","date":"2025-02"},"persistent_id":"fa6f6d2990cb0673638e79c086fd83e88e9b10706bca2ce584781fac7e8f1429","id":126484338,"location_subtype":"","month":"2025-02"},{"category":"other-theft","location_type":"Force","location":{"latitude":"51.448244","street":{"id":1964996,"name":"On or near Petrol Station"},"longitude":"-0.979885"},"context":"","outcome_status":{"category":"Unable to prosecute suspect","date":"2025-02"},"persistent_id":"2866851a5715854a17846cfb0d3f1c0aa370200bfe1e83d2e87bb7a09d18e512","id":126484334,"location_subtype":"","month":"2025-02"},{"category":"other-theft","location_type":"Force","location":{"latitude":"51.459205","street":{"id":1965920,"name":"On or near Napier Road"},"longitude":"-0.962411"},"context":"","outcome_status":{"category":"Investigation complete; no suspect identified","date":"2025-03"},"persistent_id":"611b12741aacb3ca91ad5b0847c1fa9203ede56b688aea9bfbc9c0cb2ce3f622","id":126484913,"location_subtype":"","month":"2025-02"},{"category":"other-theft","location_type":"Force","location":{"latitude":"51.453823","street":{"id":1965431,"name":"On or near Nightclub"},"longitude":"-0.973097"},"context":"","outcome_status":{"category":"Investigation complete; no suspect identified","date":"2025-03"},"persistent_id":"91a503c5d03161a4f0898bd61edafe6e52ea4c7d84238b23573052324f143a70","id":126484560,"location_subtype":"","month":"2025-02"},{"category":"other-theft","location_type":"Force","location":{"latitude":"51.459483","street":{"id":1966009,"name":"On or near Luscinia View"},"longitude":"-0.958288"},"context":"","outcome_status":{"category":"Investigation complete; no suspect identified","date":"2025-03"},"persistent_id":"35022f98d220e819ac16fc6fed889970d03ab55461b91a4345d43893af1d8057","id":126485024,"location_subtype":"","month":"2025-02"},{"category":"other-theft","location_type":"Force","location":{"latitude":"51.455167","street":{"id":1964869,"name":"On or near Trinity Place"},"longitude":"-0.982912"},"context":"","outcome_status":{"category":"Investigation complete; no suspect identified","date":"2025-02"},"persistent_id":"c5a96d0eed51b4a50646cfad7b3a3d312d90a8a48746061b6b583b215f47353b","id":126484274,"location_subtype":"","month":"2025-02"},{"category":"other-theft","location_type":"Force","location":{"latitude":"51.461319","street":{"id":1965447,"name":"On or near A329"},"longitude":"-0.972713"},"context":"","outcome_status":{"category":"Investigation complete; no suspect identified","date":"2025-03"},"persistent_id":"91a03f2f5dcadcbbb2ae06f40df0f01588d9a2b0a71a84e31e9e27fdc0cdaec7","id":126484547,"location_subtype":"","month":"2025-02"},{"category":"other-theft","location_type":"Force","location":{"latitude":"51.455486","street":{"id":1965552,"name":"On or near Shopping Area"},"longitude":"-0.970009"},"context":"","outcome_status":{"category":"Investigation complete; no suspect identified","date":"2025-02"},"persistent_id":"f8ccedaa90c5287f7076be8858fd305091eb595a7ff566933e82bb2ca1d3d773","id":126484716,"location_subtype":"","month":"2025-02"},{"category":"other-theft","location_type":"Force","location":{"latitude":"51.453506","street":{"id":1965491,"name":"On or near Parking Area"},"longitude":"-0.971823"},"context":"","outcome_status":{"category":"Unable to prosecute suspect","date":"2025-02"},"persistent_id":"31da94a1e1c8e566af7ca52c14073a37376c32272d48a1a363dcd77232840599","id":126484660,"location_subtype":"","month":"2025-02"},{"category":"other-theft","location_type":"Force","location":{"latitude":"51.453947","street":{"id":1964701,"name":"On or near Prospect Street"},"longitude":"-0.986393"},"context":"","outcome_status":{"category":"Unable to prosecute suspect","date":"2025-02"},"persistent_id":"bdea68bbac0b9738ce02c366ada9a0668861ec335422d734275983687348fe3c","id":126484210,"location_subtype":"","month":"2025-02"},{"category":"other-theft","location_type":"Force","location":{"latitude":"51.455175","street":{"id":1964620,"name":"On or near Ormsby Street"},"longitude":"-0.990108"},"context":"","outcome_status":{"category":"Unable to prosecute suspect","date":"2025-02"},"persistent_id":"8e2a6d9951454a58912102b33a9a7fabd70ce9ab083649abdcc81c0aef00270f","id":126484168,"location_subtype":"","month":"2025-02"},{"category":"other-theft","location_type":"Force","location":{"latitude":"51.450001","street":{"id":1966032,"name":"On or near Parking Area"},"longitude":"-0.957785"},"context":"","outcome_status":{"category":"Investigation complete; no suspect identified","date":"2025-02"},"persistent_id":"e369156a8443e04b25d2f38b5c624cd5a02e621c961d442e364474983a79e8b9","id":126485019,"location_subtype":"","month":"2025-02"},{"category":"other-theft","location_type":"Force","location":{"latitude":"51.454573","street":{"id":1965289,"name":"On or near St Mary's Butts"},"longitude":"-0.974534"},"context":"","outcome_status":{"category":"Investigation complete; no suspect identified","date":"2025-02"},"persistent_id":"d372181e8cea69409554a0e5edfb646ba0897f12252e92c71b5938cf6201358b","id":126484481,"location_subtype":"","month":"2025-02"},{"category":"other-theft","location_type":"Force","location":{"latitude":"51.453942","street":{"id":1965393,"name":"On or near Gun Street"},"longitude":"-0.973325"},"context":"","outcome_status":{"category":"Investigation complete; no suspect identified","date":"2025-02"},"persistent_id":"4d18c99c560818895d9e47a42a7dcd51a8125f91024dffd8c895b230e4fe1c4f","id":126484506,"location_subtype":"","month":"2025-02"},{"category":"other-theft","location_type":"Force","location":{"latitude":"51.454269","street":{"id":1965948,"name":"On or near Kennet Street"},"longitude":"-0.960451"},"context":"","outcome_status":{"category":"Investigation complete; no suspect identified","date":"2025-04"},"persistent_id":"2172386caebcad269728f5ed2ddb65db6a1fbac621a8ee9d194cbae97d51eb88","id":126484924,"location_subtype":"","month":"2025-02"},{"category":"other-theft","location_type":"Force","location":{"latitude":"51.453506","street":{"id":1965491,"name":"On or near Parking Area"},"longitude":"-0.971823"},"context":"","outcome_status":{"category":"Investigation complete; no suspect identified","date":"2025-04"},"persistent_id":"dd215b721ce121d281f5d831764e47ffdf3deda47ded436e360114c4edfbc0bc","id":126484658,"location_subtype":"","month":"2025-02"},{"category":"other-theft","location_type":"Force","location":{"latitude":"51.455316","street":{"id":1965426,"name":"On or near Shopping Area"},"longitude":"-0.972085"},"context":"","outcome_status":{"category":"Investigation complete; no suspect identified","date":"2025-04"},"persistent_id":"162aa3debe9fd7d8fd38e88b44e9bb9bedfa05ccb9d19d3692f66e06ed1d2ed7","id":126410506,"location_subtype":"","month":"2025-02"},{"category":"other-theft","location_type":"Force","location":{"latitude":"51.454147","street":{"id":1966204,"name":"On or near Further/higher Educational Building"},"longitude":"-0.955434"},"context":"","outcome_status":{"category":"Unable to prosecute suspect","date":"2025-05"},"persistent_id":"68682aa9fe6825cd86b84746dcf4d543190ca0504c8f346dabd2953a0db304e2","id":126485062,"location_subtype":"","month":"2025-02"},{"category":"other-theft","location_type":"Force","location":{"latitude":"51.447013","street":{"id":1965197,"name":"On or near Laud Close"},"longitude":"-0.975826"},"context":"","outcome_status":{"category":"Unable to prosecute suspect","date":"2025-06"},"persistent_id":"9c915b48d17d7c099bb0a1de94fd247453fe6e93b07ff9bb2ac41d646d235ffc","id":126484476,"location_subtype":"","month":"2025-02"},{"category":"other-theft","location_type":"Force","location":{"latitude":"51.441075","street":{"id":1965904,"name":"On or near George Palmer Close"},"longitude":"-0.963153"},"context":"","outcome_status":{"category":"Investigation complete; no suspect identified","date":"2025-02"},"persistent_id":"90e7b1f036ecc45ed144abe60c935541de03304c26b7b15bd39d0fef232c657f","id":126484907,"location_subtype":"","month":"2025-02"},{"category":"other-theft","location_type":"Force","location":{"latitude":"51.457499","street":{"id":1966229,"name":"On or near Alexander Turner Close"},"longitude":"-0.953584"},"context":"","outcome_status":{"category":"Investigation complete; no suspect identified","date":"2025-02"},"persistent_id":"d6537f6c1e6a716bdc1f834b39915077fa44612cadf3db82fa3061cacd35f989","id":126485083,"location_subtype":"","month":"2025-02"},{"category":"other-theft","location_type":"Force","location":{"latitude":"51.457324","street":{"id":1965578,"name":"On or near Blagrave Street"},"longitude":"-0.970356"},"context":"","outcome_status":{"category":"Investigation complete; no suspect identified","date":"2025-02"},"persistent_id":"3b97d468f0e110945ae5c2ac62571e41acd9b2826cabfea63ab261e20ba34d84","id":126484707,"location_subtype":"","month":"2025-02"},{"category":"other-theft","location_type":"Force","location":{"latitude":"51.457114","street":{"id":1965264,"name":"On or near Supermarket"},"longitude":"-0.975197"},"context":"","outcome_status":{"category":"Investigation complete; no suspect identified","date":"2025-02"},"persistent_id":"e03d62b08339e86b2797fcf96c14dbe8a98a177ea9ad15a8c61b008d7a7cc6b8","id":126484469,"location_subtype":"","month":"2025-02"},{"category":"other-theft","location_type":"Force","location":{"latitude":"51.453823","street":{"id":1965431,"name":"On or near Nightclub"},"longitude":"-0.973097"},"context":"","outcome_status":{"category":"Investigation complete; no suspect identified","date":"2025-02"},"persistent_id":"f5a440f46edfc63c93f27e13d77cc6bef9f5abf161885ef33eaf6bf9e33b410d","id":126484563,"location_subtype":"","month":"2025-02"},{"category":"other-theft","location_type":"Force","location":{"latitude":"51.453820","street":{"id":1966341,"name":"On or near Norwood Road"},"longitude":"-0.950415"},"context":"","outcome_status":{"category":"Investigation complete; no suspect identified","date":"2025-02"},"persistent_id":"25ba8904e2a7c3fede70735d485a9475a7621df02d07f527a93b2257d2618f89","id":126485150,"location_subtype":"","month":"2025-02"},{"category":"other-theft","location_type":"Force","location":{"latitude":"51.454809","street":{"id":1965216,"name":"On or near Shopping Area"},"longitude":"-0.975896"},"context":"","outcome_status":{"category":"Investigation complete; no suspect identified","date":"2025-02"},"persistent_id":"abc19de436ea68a01e78ba6fbc34da59d9cb3e770b864a8e8f43354a7aa7ebeb","id":126484441,"location_subtype":"","month":"2025-02"},{"category":"other-theft","location_type":"Force","location":{"latitude":"51.455499","street":{"id":1965632,"name":"On or near Abbey Square"},"longitude":"-0.967360"},"context":"","outcome_status":{"category":"Investigation complete; no suspect identified","date":"2025-03"},"persistent_id":"7e42f26fd59aabde6e03864e25a9a8fbbf4b9abc626be9b9f51631ac904b6bd1","id":126484800,"location_subtype":"","month":"2025-02"},{"category":"other-theft","location_type":"Force","location":{"latitude":"51.453214","street":{"id":1966400,"name":"On or near Supermarket"},"longitude":"-0.949062"},"context":"","outcome_status":{"category":"Court result unavailable","date":"2025-10"},"persistent_id":"a561630d5df1e6f1ed165dae8843ac07cc97be3262419d0fb32335a1d065f069","id":126485157,"location_subtype":"","month":"2025-02"},{"category":"other-theft","location_type":"Force","location":{"latitude":"51.455471","street":{"id":1966323,"name":"On or near Sun Street"},"longitude":"-0.951083"},"context":"","outcome_status":{"category":"Unable to prosecute suspect","date":"2025-05"},"persistent_id":"b158584cf503d6ba5fe969ecbf4b2121d878e190cd1aa8371e9cbb0b813f4b48","id":126485122,"location_subtype":"","month":"2025-02"},{"category":"other-theft","location_type":"Force","location":{"latitude":"51.450890","street":{"id":1965677,"name":"On or near Nightclub"},"longitude":"-0.967838"},"context":"","outcome_status":{"category":"Investigation complete; no suspect identified","date":"2025-03"},"persistent_id":"2a19107f2ccafb7e6b0cfc60ded5e64b9857d6e496223a5aaceac87762a8d3b9","id":126484806,"location_subtype":"","month":"2025-02"},{"category":"other-theft","location_type":"Force","location":{"latitude":"51.455316","street":{"id":1965426,"name":"On or near Shopping Area"},"longitude":"-0.972085"},"context":"","outcome_status":{"category":"Court result unavailable","date":"2025-09"},"persistent_id":"b8f893687022231e71570ae591972b190b3f0cbc61079add8c811420626187dc","id":126484548,"location_subtype":"","month":"2025-02"},{"category":"other-theft","location_type":"Force","location":{"latitude":"51.456670","street":{"id":1965436,"name":"On or near Fife Court"},"longitude":"-0.972717"},"context":"","outcome_status":{"category":"Investigation complete; no suspect identified","date":"2025-02"},"persistent_id":"acd93c8f272d2d310ab949af721e1fd323fb7f0e5d9d5fd12704e8c01e0a1135","id":126484576,"location_subtype":"","month":"2025-02"},{"category":"other-theft","location_type":"Force","location":{"latitude":"51.460057","street":{"id":1966198,"name":"On or near Supermarket"},"longitude":"-0.956059"},"context":"","outcome_status":{"category":"Investigation complete; no suspect identified","date":"2025-02"},"persistent_id":"28fa95140ca398bdc053246b49c2c92cf876a5cf5b6ff3e4d333ca269872bfee","id":126485050,"location_subtype":"","month":"2025-02"},{"category":"other-theft","location_type":"Force","location":{"latitude":"51.453434","street":{"id":1966211,"name":"On or near Montague Street"},"longitude":"-0.955505"},"context":"","outcome_status":{"category":"Investigation complete; no suspect identified","date":"2025-02"},"persistent_id":"684f82b4c0fa25ea103b10fb480b7fda7dae6a21ce4dad2967ae17bc64a90f29","id":126485068,"location_subtype":"","month":"2025-02"},{"category":"other-theft","location_type":"Force","location":{"latitude":"51.455338","street":{"id":1966226,"name":"On or near Canal Way"},"longitude":"-0.955288"},"context":"","outcome_status":{"category":"Unable to prosecute suspect","date":"2025-04"},"persistent_id":"58705dc102c452b55eca0fbea4c661a069e0421493afa13d4107c3982ecf0683","id":126485069,"location_subtype":"","month":"2025-02"},{"category":"other-theft","location_type":"Force","location":{"latitude":"51.451276","street":{"id":1966395,"name":"On or near De Beauvoir Road"},"longitude":"-0.949466"},"context":"","outcome_status":{"category":"Investigation complete; no suspect identified","date":"2025-03"},"persistent_id":"1e92f55633502810337da03112dece444a364bdaf49b7f3c69deb580ce8654bc","id":126485154,"location_subtype":"","month":"2025-02"},{"category":"other-theft","location_type":"Force","location":{"latitude":"51.456935","street":{"id":1966013,"name":"On or near Kenavon Drive"},"longitude":"-0.959958"},"context":"","outcome_status":{"category":"Investigation complete; no suspect identified","date":"2025-02"},"persistent_id":"ac3a5e1c9e178c697975113f9c29c26e0fb2e2f9639be04b6b8dc4723a0b93a1","id":126484916,"location_subtype":"","month":"2025-02"},{"category":"other-theft","location_type":"Force","location":{"latitude":"51.452498","street":{"id":1965816,"name":"On or near South Street"},"longitude":"-0.964593"},"context":"","outcome_status":{"category":"Unable to prosecute suspect","date":"2025-04"},"persistent_id":"e4499b3d90f386b94adad6da940a2a6ab953cf0df543ffde088ca9a2dd72e1b5","id":126484882,"location_subtype":"","month":"2025-02"},{"category":"other-theft","location_type":"Force","location":{"latitude":"51.447103","street":{"id":1965796,"name":"On or near Highgrove Terrace"},"longitude":"-0.965578"},"context":"","outcome_status":{"category":"Investigation complete; no suspect identified","date":"2025-03"},"persistent_id":"6c9bf119ba4d041c813fa01b64c4be49f3671bd42c132943721a5719d7300a81","id":126484870,"location_subtype":"","month":"2025-02"},{"category":"other-theft","location_type":"Force","location":{"latitude":"51.454543","street":{"id":1965104,"name":"On or near Further/higher Educational Building"},"longitude":"-0.977341"},"context":"","outcome_status":{"category":"Unable to prosecute suspect","date":"2025-03"},"persistent_id":"3421c9a6d8ac7a5abb15e3f7daaf9046ff02e1cef1019afff09bc8b9e585bf60","id":126484385,"location_subtype":"","month":"2025-02"},{"category":"other-theft","location_type":"Force","location":{"latitude":"51.447324","street":{"id":1965723,"name":"On or near Mount Pleasant"},"longitude":"-0.966163"},"context":"","outcome_status":{"category":"Investigation complete; no suspect identified","date":"2025-02"},"persistent_id":"b3755215cd6022c57b0ad37f8ed4fa578dd410a88a212518966228b7ab94bb66","id":126484843,"location_subtype":"","month":"2025-02"},{"category":"other-theft","location_type":"Force","location":{"latitude":"51.440195","street":{"id":1965716,"name":"On or near Rowley Road"},"longitude":"-0.967389"},"context":"","outcome_status":{"category":"Investigation complete; no suspect identified","date":"2025-02"},"persistent_id":"eae08b887f8986a28f48dde20db40bf5abe5333cdb21b9034336006df75eff03","id":126484812,"location_subtype":"","month":"2025-02"},{"category":"other-theft","location_type":"Force","location":{"latitude":"51.446327","street":{"id":1964763,"name":"On or near Carsdale Close"},"longitude":"-0.984835"},"context":"","outcome_status":{"category":"Investigation complete; no suspect identified","date":"2025-03"},"persistent_id":"736cfce9e4d94f3a2dbca30a68c2382ad9b7ab6e5ae40f2b3f22d93c391f4869","id":126484223,"location_subtype":"","month":"2025-02"},{"category":"other-theft","location_type":"Force","location":{"latitude":"51.456670","street":{"id":1965436,"name":"On or near Fife Court"},"longitude":"-0.972717"},"context":"","outcome_status":{"category":"Investigation complete; no suspect identified","date":"2025-02"},"persistent_id":"3db455e8fab0c54d2ae3c519e574c5e9531d3a3dd12f937de58ddb5dc123a4e8","id":126484595,"location_subtype":"","month":"2025-02"},{"category":"other-theft","location_type":"Force","location":{"latitude":"51.455678","street":{"id":1964959,"name":"On or near Eaton Place"},"longitude":"-0.980626"},"context":"","outcome_status":{"category":"Unable to prosecute suspect","date":"2025-03"},"persistent_id":"2bbf5b67250b711395fa6659b9fffb1e7b91c543ee47782fc426b2670cd656ec","id":126484319,"location_subtype":"","month":"2025-02"},{"category":"other-theft","location_type":"Force","location":{"latitude":"51.455783","street":{"id":1965044,"name":"On or near Alfred Street"},"longitude":"-0.979300"},"context":"","outcome_status":{"category":"Investigation complete; no suspect identified","date":"2025-03"},"persistent_id":"4a62d52143c3f73779007c7c2bd0678f9f6d89d420ad494ec571fe585b878cbe","id":126484347,"location_subtype":"","month":"2025-02"},{"category":"other-theft","location_type":"Force","location":{"latitude":"51.456740","street":{"id":1965348,"name":"On or near Friar Street"},"longitude":"-0.973507"},"context":"","outcome_status":{"category":"Investigation complete; no suspect identified","date":"2025-03"},"persistent_id":"c036fb3c9e7ac49b7872585eff7b7ac056cbfdcc397cb9bcb23590976417d21f","id":126484508,"location_subtype":"","month":"2025-02"},{"category":"other-theft","location_type":"Force","location":{"latitude":"51.450001","street":{"id":1966032,"name":"On or near Parking Area"},"longitude":"-0.957785"},"context":"","outcome_status":{"category":"Unable to prosecute suspect","date":"2025-02"},"persistent_id":"0e838d93856b12466ceb344ac76cbf2f85b5c73f957b1269c3e07561b7a16864","id":126485029,"location_subtype":"","month":"2025-02"},{"category":"other-theft","location_type":"Force","location":{"latitude":"51.456740","street":{"id":1965348,"name":"On or near Friar Street"},"longitude":"-0.973507"},"context":"","outcome_status":{"category":"Investigation complete; no suspect identified","date":"2025-02"},"persistent_id":"e673bf64af7bec980c8eb6e386e780652cd9e7f6b0ff9fb38cc6e6313faea62f","id":126484501,"location_subtype":"","month":"2025-02"},{"category":"other-theft","location_type":"Force","location":{"latitude":"51.456068","street":{"id":1965249,"name":"On or near West Street"},"longitude":"-0.975839"},"context":"","outcome_status":{"category":"Investigation complete; no suspect identified","date":"2025-02"},"persistent_id":"b8cb37dfecd4b0c642cb9cfdc7ab68209a46e4da5570b7b6bdae8c7e871584c8","id":126484462,"location_subtype":"","month":"2025-02"},{"category":"other-theft","location_type":"Force","location":{"latitude":"51.458265","street":{"id":1965186,"name":"On or near Stanshawe Road"},"longitude":"-0.976164"},"context":"","outcome_status":{"category":"Investigation complete; no suspect identified","date":"2025-02"},"persistent_id":"f4600df4a052fefba5c95fa9052575f818174c8aa9b96f38daa9417bdbad6c76","id":126484446,"location_subtype":"","month":"2025-02"},{"category":"possession-of-weapons","location_type":"Force","location":{"latitude":"51.439888","street":{"id":1965864,"name":"On or near Ella Garett Close"},"longitude":"-0.963137"},"context":"","outcome_status":{"category":"Court result unavailable","date":"2025-08"},"persistent_id":"b508c504a85dc7c1322f4025c0e766b3a0046666132ef48abfc51dc28df584a0","id":126484910,"location_subtype":"","month":"2025-02"},{"category":"possession-of-weapons","location_type":"Force","location":{"latitude":"51.455013","street":{"id":1965179,"name":"On or near Shopping Area"},"longitude":"-0.976306"},"context":"","outcome_status":{"category":"Unable to prosecute suspect","date":"2025-03"},"persistent_id":"6c3b09c7d9d0a20478c349feb59a4c9531ab24116c116bd25eef77cafc44c191","id":126484389,"location_subtype":"","month":"2025-02"},{"category":"possession-of-weapons","location_type":"Force","location":{"latitude":"51.461961","street":{"id":1965448,"name":"On or near Lynmouth Road"},"longitude":"-0.972195"},"context":"","outcome_status":{"category":"Offender given a caution","date":"2025-09"},"persistent_id":"4d1b5021bc848880cab9213a1c6addf0c24f37a9d4a973ac4d38ef4b5825129d","id":126484637,"location_subtype":"","month":"2025-02"},{"category":"possession-of-weapons","location_type":"Force","location":{"latitude":"51.446274","street":{"id":1964919,"name":"On or near Holybrook Road"},"longitude":"-0.981886"},"context":"","outcome_status":{"category":"Court result unavailable","date":"2025-09"},"persistent_id":"267b08b1d1f05288c6f37e8c94cf0a5c46f533de452cc9810abda9421d1df1c7","id":126484285,"location_subtype":"","month":"2025-02"},{"category":"possession-of-weapons","location_type":"Force","location":{"latitude":"51.456935","street":{"id":1966013,"name":"On or near Kenavon Drive"},"longitude":"-0.959958"},"context":"","outcome_status":{"category":"Action to be taken by another organisation","date":"2025-03"},"persistent_id":"30b3d34f442470210b921b8929f9654ccbc0281d73a01e9a23fa209a4e22f280","id":126484940,"location_subtype":"","month":"2025-02"},{"category":"possession-of-weapons","location_type":"Force","location":{"latitude":"51.457114","street":{"id":1965264,"name":"On or near Supermarket"},"longitude":"-0.975197"},"context":"","outcome_status":{"category":"Unable to prosecute suspect","date":"2025-04"},"persistent_id":"2b97af035c917a41938594492332befb4783294a95fa33cf9179d0df41136cd9","id":126484488,"location_subtype":"","month":"2025-02"},{"category":"possession-of-weapons","location_type":"Force","location":{"latitude":"51.456935","street":{"id":1966013,"name":"On or near Kenavon Drive"},"longitude":"-0.959958"},"context":"","outcome_status":{"category":"Investigation complete; no suspect identified","date":"2025-10"},"persistent_id":"d3ac3f878a552b04c37415c96a61d774b4f082c862dd0973ea3aaf8b94b8057e","id":126484941,"location_subtype":"","month":"2025-02"},{"category":"public-order","location_type":"Force","location":{"latitude":"51.448024","street":{"id":1965162,"name":"On or near St Paul's Court"},"longitude":"-0.977285"},"context":"","outcome_status":{"category":"Investigation complete; no suspect identified","date":"2025-02"},"persistent_id":"1626fbb991784a9add3f8c7325d876ade436f19479a746632f3328753af25662","id":126484401,"location_subtype":"","month":"2025-02"},{"category":"public-order","location_type":"Force","location":{"latitude":"51.453214","street":{"id":1966400,"name":"On or near Supermarket"},"longitude":"-0.949062"},"context":"","outcome_status":{"category":"Unable to prosecute suspect","date":"2025-09"},"persistent_id":"55a9cb101c860634c22bb5d218381aca88ed52aeca60c8091bacb00f095fe3a7","id":126485141,"location_subtype":"","month":"2025-02"},{"category":"public-order","location_type":"Force","location":{"latitude":"51.454940","street":{"id":1965918,"name":"On or near Bembridge Place"},"longitude":"-0.963098"},"context":"","outcome_status":{"category":"Investigation complete; no suspect identified","date":"2025-02"},"persistent_id":"3f1020a9aa5ea42a02920c2f04849cd7ae9c3a215fa957f26097b0525dd9c087","id":126484902,"location_subtype":"","month":"2025-02"},{"category":"public-order","location_type":"Force","location":{"latitude":"51.461207","street":{"id":1965163,"name":"On or near Northfield Road"},"longitude":"-0.976415"},"context":"","outcome_status":{"category":"Investigation complete; no suspect identified","date":"2025-02"},"persistent_id":"69f27cfd929b532dd01a3a88cd52836e07c98d279470625ccd43e27e4dcd0cdd","id":126484407,"location_subtype":"","month":"2025-02"},{"category":"public-order","location_type":"Force","location":{"latitude":"51.451593","street":{"id":1966001,"name":"On or near Petrol Station"},"longitude":"-0.960644"},"context":"","outcome_status":{"category":"Unable to prosecute suspect","date":"2025-02"},"persistent_id":"93a5d98c4cbb9d215cb124cf94c0b44e5ec66825d3d6aba6eaaa11aed59c29f7","id":126484981,"location_subtype":"","month":"2025-02"},{"category":"public-order","location_type":"Force","location":{"latitude":"51.443599","street":{"id":1965725,"name":"On or near Milman Road"},"longitude":"-0.966981"},"context":"","outcome_status":{"category":"Investigation complete; no suspect identified","date":"2025-02"},"persistent_id":"86a4aa1c95a29db875f7c94fc2c287d32fc638f503ba9a32f5d1be2765583765","id":126484816,"location_subtype":"","month":"2025-02"},{"category":"public-order","location_type":"Force","location":{"latitude":"51.456731","street":{"id":1966361,"name":"On or near School Terrace"},"longitude":"-0.950190"},"context":"","outcome_status":{"category":"Investigation complete; no suspect identified","date":"2025-02"},"persistent_id":"2c8ae0f2a85f2ae9489c212fb54f759ac92aeea637c34021cf52bdf96ce9c46a","id":126485130,"location_subtype":"","month":"2025-02"},{"category":"public-order","location_type":"Force","location":{"latitude":"51.453820","street":{"id":1966341,"name":"On or near Norwood Road"},"longitude":"-0.950415"},"context":"","outcome_status":{"category":"Investigation complete; no suspect identified","date":"2025-02"},"persistent_id":"f5b6da11b941cfe5f236eae266d05f2150365f8304a78de2cf3b3e85171ed725","id":126485134,"location_subtype":"","month":"2025-02"},{"category":"public-order","location_type":"Force","location":{"latitude":"51.453645","street":{"id":1965513,"name":"On or near Shopping Area"},"longitude":"-0.971317"},"context":"","outcome_status":{"category":"Investigation complete; no suspect identified","date":"2025-02"},"persistent_id":"e10a2af4161642977d37843ef2aaf6a904df913713d3e05ea8e3bf728294999d","id":126484695,"location_subtype":"","month":"2025-02"},{"category":"public-order","location_type":"Force","location":{"latitude":"51.454467","street":{"id":1965180,"name":"On or near Parking Area"},"longitude":"-0.976796"},"context":"","outcome_status":{"category":"Unable to prosecute suspect","date":"2025-02"},"persistent_id":"7bfbf17ece131d204fd1534adcf63c05d71df48216a977d741ea1e8c6ab72c64","id":126484404,"location_subtype":"","month":"2025-02"},{"category":"public-order","location_type":"Force","location":{"latitude":"51.456068","street":{"id":1965249,"name":"On or near West Street"},"longitude":"-0.975839"},"context":"","outcome_status":{"category":"Investigation complete; no suspect identified","date":"2025-02"},"persistent_id":"2eb547ce66ea3b6db3e8beb7868ec2bae8012835c78e95e2f1f4d218bac5c0eb","id":126484495,"location_subtype":"","month":"2025-02"},{"category":"public-order","location_type":"Force","location":{"latitude":"51.452428","street":{"id":1966375,"name":"On or near Granby Court"},"longitude":"-0.949584"},"context":"","outcome_status":{"category":"Investigation complete; no suspect identified","date":"2025-02"},"persistent_id":"ceb66206760f5b048459b35901b308c02836abe358ad78c25fb584ee3aac56fa","id":126485123,"location_subtype":"","month":"2025-02"},{"category":"public-order","location_type":"Force","location":{"latitude":"51.454573","street":{"id":1965289,"name":"On or near St Mary's Butts"},"longitude":"-0.974534"},"context":"","outcome_status":{"category":"Status update unavailable","date":"2025-06"},"persistent_id":"995a94a5464e94601a0b6102ca7a1a3289f2b94d71ed54503536da6343b2de55","id":126484497,"location_subtype":"","month":"2025-02"},{"category":"public-order","location_type":"Force","location":{"latitude":"51.448890","street":{"id":1965226,"name":"On or near Temple Place"},"longitude":"-0.974503"},"context":"","outcome_status":{"category":"Unable to prosecute suspect","date":"2025-02"},"persistent_id":"2539fd646e2f87b821ebeee0175ba394c296384a192aeab789d8da412582e9b7","id":126484490,"location_subtype":"","month":"2025-02"},{"category":"public-order","location_type":"Force","location":{"latitude":"51.453553","street":{"id":1966268,"name":"On or near Kingsgate Street"},"longitude":"-0.952810"},"context":"","outcome_status":{"category":"Investigation complete; no suspect identified","date":"2025-02"},"persistent_id":"b0494c38b52505a2f20c15df8d37d43931cbe80b8b93c701c723bba17905e224","id":126485096,"location_subtype":"","month":"2025-02"},{"category":"public-order","location_type":"Force","location":{"latitude":"51.443039","street":{"id":1966140,"name":"On or near Cintra Close"},"longitude":"-0.957555"},"context":"","outcome_status":{"category":"Unable to prosecute suspect","date":"2025-03"},"persistent_id":"30e85b6307af60396cf7f9ae0ea727f9c3d33ea234819ade75cba257b1cca74a","id":126485033,"location_subtype":"","month":"2025-02"},{"category":"public-order","location_type":"Force","location":{"latitude":"51.451862","street":{"id":1965224,"name":"On or near Talbot Court"},"longitude":"-0.976149"},"context":"","outcome_status":{"category":"Unable to prosecute suspect","date":"2025-02"},"persistent_id":"1a006a667fb96176c8cd54af9dba2ae3bf86fdd7d667adfaa36dcf5a640807c9","id":126484433,"location_subtype":"","month":"2025-02"},{"category":"public-order","location_type":"Force","location":{"latitude":"51.457114","street":{"id":1965264,"name":"On or near Supermarket"},"longitude":"-0.975197"},"context":"","outcome_status":{"category":"Unable to prosecute suspect","date":"2025-03"},"persistent_id":"e5921a225be50f705394b5800ba3260937e13a00d07172d0871a31b4ce2084fb","id":126484487,"location_subtype":"","month":"2025-02"},{"category":"public-order","location_type":"Force","location":{"latitude":"51.449745","street":{"id":1966456,"name":"On or near Junction Road"},"longitude":"-0.947285"},"context":"","outcome_status":{"category":"Investigation complete; no suspect identified","date":"2025-03"},"persistent_id":"af99e63d7e55143e603c95531060731b5ebcaff4031b4b15649bf888ecd80651","id":126485192,"location_subtype":"","month":"2025-02"},{"category":"public-order","location_type":"Force","location":{"latitude":"51.455486","street":{"id":1965552,"name":"On or near Shopping Area"},"longitude":"-0.970009"},"context":"","outcome_status":{"category":"Investigation complete; no suspect identified","date":"2025-03"},"persistent_id":"9e7f0db5640952a5b9ff866c2e16d99cd377b7a3a9a1b37db3a714876f11cf88","id":126484713,"location_subtype":"","month":"2025-02"},{"category":"public-order","location_type":"Force","location":{"latitude":"51.456155","street":{"id":1965490,"name":"On or near Cross Street"},"longitude":"-0.971419"},"context":"","outcome_status":{"category":"Unable to prosecute suspect","date":"2025-02"},"persistent_id":"ae400fa8b4c5ff2e254e3b08133476be49f25c52430dcaf6660379cab10a3f5c","id":126484652,"location_subtype":"","month":"2025-02"},{"category":"public-order","location_type":"Force","location":{"latitude":"51.454940","street":{"id":1965918,"name":"On or near Bembridge Place"},"longitude":"-0.963098"},"context":"","outcome_status":{"category":"Investigation complete; no suspect identified","date":"2025-02"},"persistent_id":"c62b1dcc70734d5b203121efc91da415dda5b3176e4461dfbaf7223c992873c6","id":126484915,"location_subtype":"","month":"2025-02"},{"category":"public-order","location_type":"Force","location":{"latitude":"51.452498","street":{"id":1965816,"name":"On or near South Street"},"longitude":"-0.964593"},"context":"","outcome_status":{"category":"Unable to prosecute suspect","date":"2025-02"},"persistent_id":"784c1d9116eb84b0015a15bbce97fa2d4be67d2ed36aa25d8a1de2e56ee6431b","id":126484883,"location_subtype":"","month":"2025-02"},{"category":"public-order","location_type":"Force","location":{"latitude":"51.452940","street":{"id":1965158,"name":"On or near Police Station"},"longitude":"-0.976640"},"context":"","outcome_status":{"category":"Further investigation is not in the public interest","date":"2025-11"},"persistent_id":"91995ce0fe98faf3f272647ca980b24f1efdfbd256f53984e8b299fc7a7947a7","id":126484417,"location_subtype":"","month":"2025-02"},{"category":"public-order","location_type":"Force","location":{"latitude":"51.456406","street":{"id":1964825,"name":"On or near Bedford Road"},"longitude":"-0.983690"},"context":"","outcome_status":{"category":"Unable to prosecute suspect","date":"2025-02"},"persistent_id":"b2f2709999ebfac5d6236f969f543b555aa28e8a9cca0d83b551a19ab5c630cd","id":126484256,"location_subtype":"","month":"2025-02"},{"category":"public-order","location_type":"Force","location":{"latitude":"51.451013","street":{"id":1964813,"name":"On or near Janson Court"},"longitude":"-0.983925"},"context":"","outcome_status":{"category":"Local resolution","date":"2025-03"},"persistent_id":"4e63eebd0ae91a351176f71933d312f4caf511cf472842ba8d82d201f0697441","id":126484281,"location_subtype":"","month":"2025-02"},{"category":"public-order","location_type":"Force","location":{"latitude":"51.451684","street":{"id":1965661,"name":"On or near Further/higher Educational Building"},"longitude":"-0.968094"},"context":"","outcome_status":{"category":"Unable to prosecute suspect","date":"2025-04"},"persistent_id":"a28192250759142fd5f6cd85ddc71be3e7c6b50ee339d9718f34a20381ec1922","id":126484809,"location_subtype":"","month":"2025-02"},{"category":"public-order","location_type":"Force","location":{"latitude":"51.452124","street":{"id":1965702,"name":"On or near London Street"},"longitude":"-0.968069"},"context":"","outcome_status":{"category":"Investigation complete; no suspect identified","date":"2025-02"},"persistent_id":"995c62b1ae8707002ad4f26cd9ce4d84cdf517e4a4a8250be6fd3e2d082922a8","id":126484798,"location_subtype":"","month":"2025-02"},{"category":"public-order","location_type":"Force","location":{"latitude":"51.456016","street":{"id":1965157,"name":"On or near Cheapside"},"longitude":"-0.977150"},"context":"","outcome_status":{"category":"Unable to prosecute suspect","date":"2025-07"},"persistent_id":"5aba524b95c2f888f0c52b83fce328debe89d9070ffabe2cc70de1d24a26ef7a","id":126484379,"location_subtype":"","month":"2025-02"},{"category":"public-order","location_type":"Force","location":{"latitude":"51.452833","street":{"id":1966114,"name":"On or near Eldon Road"},"longitude":"-0.958728"},"context":"","outcome_status":{"category":"Investigation complete; no suspect identified","date":"2025-03"},"persistent_id":"d65c496df6d7ce42d8690790dd848719c6db213687ec8ac5bc8a6bf92ac954a8","id":126485008,"location_subtype":"","month":"2025-02"},{"category":"public-order","location_type":"Force","location":{"latitude":"51.445132","street":{"id":1965812,"name":"On or near Whitley Street"},"longitude":"-0.965378"},"context":"","outcome_status":{"category":"Unable to prosecute suspect","date":"2025-04"},"persistent_id":"db265336b8d195ba881082899115682cc18c4081c56bd996cc39a8e1327e3866","id":126484866,"location_subtype":"","month":"2025-02"},{"category":"public-order","location_type":"Force","location":{"latitude":"51.455783","street":{"id":1965044,"name":"On or near Alfred Street"},"longitude":"-0.979300"},"context":"","outcome_status":{"category":"Unable to prosecute suspect","date":"2025-03"},"persistent_id":"80dff193ce7228919f20b560433b34ebcfad099dac9b0dcb54b3c7cd8f203b1a","id":126484346,"location_subtype":"","month":"2025-02"},{"category":"public-order","location_type":"Force","location":{"latitude":"51.456406","street":{"id":1964825,"name":"On or near Bedford Road"},"longitude":"-0.983690"},"context":"","outcome_status":{"category":"Unable to prosecute suspect","date":"2025-02"},"persistent_id":"c57c8aaa3868f4a09a2244cf238339ce4dde144f531a3f4f36fc0df16e56e033","id":126484257,"location_subtype":"","month":"2025-02"},{"category":"public-order","location_type":"Force","location":{"latitude":"51.448024","street":{"id":1965162,"name":"On or near St Paul's Court"},"longitude":"-0.977285"},"context":"","outcome_status":{"category":"Investigation complete; no suspect identified","date":"2025-02"},"persistent_id":"3c3c653ef430fbb9a76df68409726f8a844f192d0bb99f26654c134f49a74cba","id":126484400,"location_subtype":"","month":"2025-02"},{"category":"public-order","location_type":"Force","location":{"latitude":"51.452288","street":{"id":1965021,"name":"On or near Carey Street"},"longitude":"-0.979593"},"context":"","outcome_status":{"category":"Unable to prosecute suspect","date":"2025-02"},"persistent_id":"ecb5e21f1c38aa024f9b3ae8c053f59ebec6d08d34fb3fa4c1d49b832687a81d","id":126484349,"location_subtype":"","month":"2025-02"},{"category":"public-order","location_type":"Force","location":{"latitude":"51.452940","street":{"id":1965158,"name":"On or near Police Station"},"longitude":"-0.976640"},"context":"","outcome_status":{"category":"Awaiting court outcome","date":"2025-09"},"persistent_id":"b35dedb6c9657e9a2a748d888c9b8ce515220573325c9900ecef71cdb79941a3","id":126484420,"location_subtype":"","month":"2025-02"},{"category":"public-order","location_type":"Force","location":{"latitude":"51.455316","street":{"id":1965426,"name":"On or near Shopping Area"},"longitude":"-0.972085"},"context":"","outcome_status":{"category":"Unable to prosecute suspect","date":"2025-05"},"persistent_id":"5d34b42bbb49b01e3387e23db2f186209c225326c7bf24f4603d3f383e741f72","id":126484636,"location_subtype":"","month":"2025-02"},{"category":"public-order","location_type":"Force","location":{"latitude":"51.455013","street":{"id":1965179,"name":"On or near Shopping Area"},"longitude":"-0.976306"},"context":"","outcome_status":{"category":"Investigation complete; no suspect identified","date":"2025-02"},"persistent_id":"232d7d518569a97b345b34c57355903b1b15c1911e74d847721bdc2198d85292","id":126484388,"location_subtype":"","month":"2025-02"},{"category":"public-order","location_type":"Force","location":{"latitude":"51.455781","street":{"id":1965081,"name":"On or near Thorn Street"},"longitude":"-0.978004"},"context":"","outcome_status":{"category":"Unable to prosecute suspect","date":"2025-02"},"persistent_id":"2177395be635a336d0ef76d069245d9070169dceb9747248fb432dfb07874174","id":126484382,"location_subtype":"","month":"2025-02"},{"category":"public-order","location_type":"Force","location":{"latitude":"51.445132","street":{"id":1965812,"name":"On or near Whitley Street"},"longitude":"-0.965378"},"context":"","outcome_status":{"category":"Unable to prosecute suspect","date":"2025-03"},"persistent_id":"0d8192e81fcdbb3c2d4f47c9151b972ee1f6af6f2db23356187d8e9595682e07","id":126484869,"location_subtype":"","month":"2025-02"},{"category":"robbery","location_type":"Force","location":{"latitude":"51.456740","street":{"id":1965348,"name":"On or near Friar Street"},"longitude":"-0.973507"},"context":"","outcome_status":{"category":"Investigation complete; no suspect identified","date":"2025-08"},"persistent_id":"4916d8af252dcce98be69eabf4934c2c1a0fe6c63524642817951c9ca6b431f5","id":126484535,"location_subtype":"","month":"2025-02"},{"category":"robbery","location_type":"Force","location":{"latitude":"51.452940","street":{"id":1965158,"name":"On or near Police Station"},"longitude":"-0.976640"},"context":"","outcome_status":{"category":"Unable to prosecute suspect","date":"2025-03"},"persistent_id":"c522fba384fa1c5d0b1ee3a58984d8fa4a1fa711709b9d99c507acc93b52a815","id":126484421,"location_subtype":"","month":"2025-02"},{"category":"robbery","location_type":"Force","location":{"latitude":"51.455783","street":{"id":1965044,"name":"On or near Alfred Street"},"longitude":"-0.979300"},"context":"","outcome_status":{"category":"Investigation complete; no suspect identified","date":"2025-04"},"persistent_id":"a02361771a7c64d73f96c531eb1f9dbe8b2f691b076f4773ddd882bcc57b49b0","id":126484348,"location_subtype":"","month":"2025-02"},{"category":"robbery","location_type":"Force","location":{"latitude":"51.451593","street":{"id":1966001,"name":"On or near Petrol Station"},"longitude":"-0.960644"},"context":"","outcome_status":{"category":"Investigation complete; no suspect identified","date":"2025-04"},"persistent_id":"10679717eef6c12dbc6e5f0a27074115163f5ee358c3b580b88f820fc3dec9bb","id":126484978,"location_subtype":"","month":"2025-02"},{"category":"robbery","location_type":"Force","location":{"latitude":"51.455702","street":{"id":1964700,"name":"On or near Petrol Station"},"longitude":"-0.987229"},"context":"","outcome_status":{"category":"Investigation complete; no suspect identified","date":"2025-03"},"persistent_id":"0fd703b77dfa102d532c73565444b250717c4d266f77f96ebb855f411da3dc76","id":126484200,"location_subtype":"","month":"2025-02"},{"category":"robbery","location_type":"Force","location":{"latitude":"51.455289","street":{"id":1964710,"name":"On or near Parking Area"},"longitude":"-0.986608"},"context":"","outcome_status":{"category":"Investigation complete; no suspect identified","date":"2025-03"},"persistent_id":"e2bb0eaf99a9c24bb2cb60c1e045b74139232be08d1dd52d095c7b2648f1fc59","id":126484209,"location_subtype":"","month":"2025-02"},{"category":"robbery","location_type":"Force","location":{"latitude":"51.445610","street":{"id":1965853,"name":"On or near Highgrove Street"},"longitude":"-0.964590"},"context":"","outcome_status":{"category":"Unable to prosecute suspect","date":"2025-04"},"persistent_id":"652ac90ee34265ef7359f794a7d57c0da6f4ca02d9bae5299fe1db809dcb951a","id":126484848,"location_subtype":"","month":"2025-02"},{"category":"robbery","location_type":"Force","location":{"latitude":"51.455176","street":{"id":1964556,"name":"On or near Supermarket"},"longitude":"-0.991173"},"context":"","outcome_status":{"category":"Status update unavailable","date":"2025-06"},"persistent_id":"deef917f6d72b11788490a565f5dcfd6baad6ab7ec58328a1c27dfecbaa39786","id":126484159,"location_subtype":"","month":"2025-02"},{"category":"robbery","location_type":"Force","location":{"latitude":"51.450178","street":{"id":1965648,"name":"On or near Crown Street"},"longitude":"-0.968646"},"context":"","outcome_status":{"category":"Unable to prosecute suspect","date":"2025-03"},"persistent_id":"eed02f68fb85d29b477affa4827cea47e85c36c98dbcd4f75a9e88c770797341","id":126484779,"location_subtype":"","month":"2025-02"},{"category":"robbery","location_type":"Force","location":{"latitude":"51.455486","street":{"id":1965552,"name":"On or near Shopping Area"},"longitude":"-0.970009"},"context":"","outcome_status":{"category":"Court result unavailable","date":"2025-09"},"persistent_id":"b93cd518a618504e2975db5a61b686cf94a197bf8719a9a69de8a140eedfce5d","id":126484711,"location_subtype":"","month":"2025-02"},{"category":"robbery","location_type":"Force","location":{"latitude":"51.454467","street":{"id":1965180,"name":"On or near Parking Area"},"longitude":"-0.976796"},"context":"","outcome_status":{"category":"Investigation complete; no suspect identified","date":"2025-03"},"persistent_id":"fef97a4daf8335316aed5ff2be1bdc03f5edeff84ab00b38b951d5aca684e3e1","id":126484427,"location_subtype":"","month":"2025-02"},{"category":"robbery","location_type":"Force","location":{"latitude":"51.455486","street":{"id":1965552,"name":"On or near Shopping Area"},"longitude":"-0.970009"},"context":"","outcome_status":{"category":"Unable to prosecute suspect","date":"2025-05"},"persistent_id":"081e69a0aae59b73a5c279bfe29f37fbfdfdcedeb0aaeb166b18856397a624d1","id":126484710,"location_subtype":"","month":"2025-02"},