[{"category":"anti-social-behaviour","location_type":"Force","location":{"latitude":"51.251897","street":{"id":1552812,"name":"On or near Parking Area"},"longitude":"-1.131894"},"context":"","outcome_status":null,"persistent_id":"","id":131456466,"location_subtype":"","month":"2025-09"},{"category":"anti-social-behaviour","location_type":"Force","location":{"latitude":"51.251897","street":{"id":1552812,"name":"On or near Parking Area"},"longitude":"-1.131894"},"context":"","outcome_status":null,"persistent_id":"","id":131459462,"location_subtype":"","month":"2025-09"},{"category":"anti-social-behaviour","location_type":"Force","location":{"latitude":"51.246005","street":{"id":1552514,"name":"On or near Buckingham Court"},"longitude":"-1.138839"},"context":"","outcome_status":null,"persistent_id":"","id":131460164,"location_subtype":"","month":"2025-09"},{"category":"anti-social-behaviour","location_type":"Force","location":{"latitude":"51.259445","street":{"id":1552727,"name":"On or near Fylingdales Close"},"longitude":"-1.133501"},"context":"","outcome_status":null,"persistent_id":"","id":131454846,"location_subtype":"","month":"2025-09"},{"category":"anti-social-behaviour","location_type":"Force","location":{"latitude":"51.254997","street":{"id":1552924,"name":"On or near Cambrian Way"},"longitude":"-1.130260"},"context":"","outcome_status":null,"persistent_id":"","id":131455444,"location_subtype":"","month":"2025-09"},{"category":"anti-social-behaviour","location_type":"Force","location":{"latitude":"51.251574","street":{"id":1552361,"name":"On or near Linnet Close"},"longitude":"-1.140469"},"context":"","outcome_status":null,"persistent_id":"","id":131464812,"location_subtype":"","month":"2025-09"},{"category":"anti-social-behaviour","location_type":"Force","location":{"latitude":"51.250133","street":{"id":1553035,"name":"On or near Pack Lane"},"longitude":"-1.128030"},"context":"","outcome_status":null,"persistent_id":"","id":131465192,"location_subtype":"","month":"2025-09"},{"category":"bicycle-theft","location_type":"Force","location":{"latitude":"51.261336","street":{"id":1552825,"name":"On or near Cotswold Close"},"longitude":"-1.132720"},"context":"","outcome_status":{"category":"Investigation complete; no suspect identified","date":"2025-09"},"persistent_id":"047da6d6fe59eb3609e4c4286249c1a5f9f3862f7d38d4c71d0d833f51ec6535","id":131456901,"location_subtype":"","month":"2025-09"},{"category":"criminal-damage-arson","location_type":"Force","location":{"latitude":"51.259662","street":{"id":1552548,"name":"On or near Devizes Close"},"longitude":"-1.137395"},"context":"","outcome_status":{"category":"Unable to prosecute suspect","date":"2025-10"},"persistent_id":"473eeb141c5402246452b001d2d090e050bf43d4e1942843343af2e89812a777","id":131456887,"location_subtype":"","month":"2025-09"},{"category":"criminal-damage-arson","location_type":"Force","location":{"latitude":"51.258081","street":{"id":1552515,"name":"On or near Upavon Close"},"longitude":"-1.138800"},"context":"","outcome_status":{"category":"Unable to prosecute suspect","date":"2025-09"},"persistent_id":"2b44fd41d021d950431b51b6dd59d1e53c1de9879bc5c07f3876e9355e419c28","id":131462491,"location_subtype":"","month":"2025-09"},{"category":"criminal-damage-arson","location_type":"Force","location":{"latitude":"51.251897","street":{"id":1552812,"name":"On or near Parking Area"},"longitude":"-1.131894"},"context":"","outcome_status":{"category":"Investigation complete; no suspect identified","date":"2025-09"},"persistent_id":"2b8baf18550ff41a6a0c5ac8811f65413e5acf871c751509c79963da05ddbe27","id":131465456,"location_subtype":"","month":"2025-09"},{"category":"criminal-damage-arson","location_type":"Force","location":{"latitude":"51.259662","street":{"id":1552548,"name":"On or near Devizes Close"},"longitude":"-1.137395"},"context":"","outcome_status":{"category":"Unable to prosecute suspect","date":"2025-09"},"persistent_id":"5be82d15025b0bf36d87fdb7383e24c14fe5d073d3f7f872143789197ebe9cd4","id":131460471,"location_subtype":"","month":"2025-09"},{"category":"other-theft","location_type":"Force","location":{"latitude":"51.259113","street":{"id":1552437,"name":"On or near Wiltshire Crescent"},"longitude":"-1.139741"},"context":"","outcome_status":{"category":"Investigation complete; no suspect identified","date":"2025-09"},"persistent_id":"bd0dc6a131f9aadd2643d49312494d6dc1af0bdd544019ab71219f30fb7f59be","id":131461362,"location_subtype":"","month":"2025-09"},{"category":"other-theft","location_type":"Force","location":{"latitude":"51.256056","street":{"id":1552766,"name":"On or near Supermarket"},"longitude":"-1.133516"},"context":"","outcome_status":{"category":"Investigation complete; no suspect identified","date":"2025-10"},"persistent_id":"42a16b024cf3d38db5c98929e44077d248636e23ed1741432311e7336d866168","id":131455422,"location_subtype":"","month":"2025-09"},{"category":"other-theft","location_type":"Force","location":{"latitude":"51.255516","street":{"id":1552777,"name":"On or near Antrim Close"},"longitude":"-1.133575"},"context":"","outcome_status":{"category":"Investigation complete; no suspect identified","date":"2025-09"},"persistent_id":"209bec87668f5bb0a616ae8b79d78b24561b82e64bba40b2f0984fe6960155d0","id":131458105,"location_subtype":"","month":"2025-09"},{"category":"public-order","location_type":"Force","location":{"latitude":"51.241274","street":{"id":1552062,"name":"On or near Sandpiper Way"},"longitude":"-1.146033"},"context":"","outcome_status":{"category":"Unable to prosecute suspect","date":"2025-11"},"persistent_id":"ced001007bebb9ccbe0209259c0a7030a1642b8f3cbcde235461e9f4709790d8","id":131462166,"location_subtype":"","month":"2025-09"},{"category":"public-order","location_type":"Force","location":{"latitude":"51.260957","street":{"id":1552442,"name":"On or near Warham Road"},"longitude":"-1.139821"},"context":"","outcome_status":{"category":"Formal action is not in the public interest","date":"2025-09"},"persistent_id":"9df36ffc42a00e977822055217af1120c29be3c1ebb3f463d214ff78960da1d9","id":131465095,"location_subtype":"","month":"2025-09"},{"category":"shoplifting","location_type":"Force","location":{"latitude":"51.246240","street":{"id":1552507,"name":"On or near Old Down Close"},"longitude":"-1.137732"},"context":"","outcome_status":{"category":"Unable to prosecute suspect","date":"2025-11"},"persistent_id":"50a61e5e56c39173a7cb6e95df2d14f0875e7cc17fae06c0876e9f58a9295f78","id":131455871,"location_subtype":"","month":"2025-09"},{"category":"shoplifting","location_type":"Force","location":{"latitude":"51.246240","street":{"id":1552507,"name":"On or near Old Down Close"},"longitude":"-1.137732"},"context":"","outcome_status":{"category":"Unable to prosecute suspect","date":"2025-10"},"persistent_id":"d29c6fb4ad48fe1c03d9a7a96b4ec07fdc27b73520aa32880ca0346b3e7d5902","id":131455081,"location_subtype":"","month":"2025-09"},{"category":"violent-crime","location_type":"Force","location":{"latitude":"51.251351","street":{"id":1553019,"name":"On or near Pitman Close"},"longitude":"-1.127391"},"context":"","outcome_status":{"category":"Unable to prosecute suspect","date":"2025-09"},"persistent_id":"b3253cdf40a8b97cd69b04ecad0861ccdbae2be55fb1bb44f60ffc91f84d03b0","id":131460755,"location_subtype":"","month":"2025-09"},{"category":"violent-crime","location_type":"Force","location":{"latitude":"51.255734","street":{"id":1552668,"name":"On or near Mendip Close"},"longitude":"-1.135118"},"context":"","outcome_status":{"category":"Unable to prosecute suspect","date":"2025-10"},"persistent_id":"f06e3f025a83271d7c55a7e02fa5d2d27ebb7795fc830481f7ce12183accca9f","id":131462976,"location_subtype":"","month":"2025-09"},{"category":"violent-crime","location_type":"Force","location":{"latitude":"51.261106","street":{"id":1552834,"name":"On or near Mourne Close"},"longitude":"-1.132008"},"context":"","outcome_status":{"category":"Unable to prosecute suspect","date":"2025-09"},"persistent_id":"4d5902769eaffce1ca1424b253fcd75d36d08a5bbc5925f568052a9c0e58144a","id":131463706,"location_subtype":"","month":"2025-09"},{"category":"violent-crime","location_type":"Force","location":{"latitude":"51.259915","street":{"id":1552709,"name":"On or near School Close"},"longitude":"-1.135154"},"context":"","outcome_status":{"category":"Action to be taken by another organisation","date":"2025-09"},"persistent_id":"8c96c31a96e421fccc82cbabee16bd53118ff7984d9255ffa795f949eddd7d66","id":131464514,"location_subtype":"","month":"2025-09"},{"category":"violent-crime","location_type":"Force","location":{"latitude":"51.254617","street":{"id":1552752,"name":"On or near Cleveland Close"},"longitude":"-1.132502"},"context":"","outcome_status":{"category":"Unable to prosecute suspect","date":"2025-09"},"persistent_id":"3f25a60caa8d0fe8e65a42cd2603f731654882855f4c66af9c511537b01d47a0","id":131465113,"location_subtype":"","month":"2025-09"},{"category":"violent-crime","location_type":"Force","location":{"latitude":"51.259383","street":{"id":1552477,"name":"On or near Chippenham Close"},"longitude":"-1.138532"},"context":"","outcome_status":{"category":"Status update unavailable","date":"2026-01"},"persistent_id":"0f6e9c1c3a813c6b2f516ea68a0078886ee7f808c808a3a4c547de2c3c2b2c5b","id":131458979,"location_subtype":"","month":"2025-09"},{"category":"violent-crime","location_type":"Force","location":{"latitude":"51.246005","street":{"id":1552514,"name":"On or near Buckingham Court"},"longitude":"-1.138839"},"context":"","outcome_status":{"category":"Investigation complete; no suspect identified","date":"2025-09"},"persistent_id":"01087b332d7840eef0d63334e00c4b848daa3b163db661830c1652b85634e858","id":131456278,"location_subtype":"","month":"2025-09"},{"category":"violent-crime","location_type":"Force","location":{"latitude":"51.257691","street":{"id":1552479,"name":"On or near Dorset Crescent"},"longitude":"-1.139624"},"context":"","outcome_status":{"category":"Unable to prosecute suspect","date":"2025-09"},"persistent_id":"5c69d99c76e658a2ea58e6ac2ba146745380bd585c2dd291ddd03230ec9e69b5","id":131461099,"location_subtype":"","month":"2025-09"},{"category":"violent-crime","location_type":"Force","location":{"latitude":"51.258081","street":{"id":1552515,"name":"On or near Upavon Close"},"longitude":"-1.138800"},"context":"","outcome_status":{"category":"Action to be taken by another organisation","date":"2025-09"},"persistent_id":"b35ffaf5c52561dd69b863229fb17de25597c2e9bb9034da0503b52c32d8d3c3","id":131457802,"location_subtype":"","month":"2025-09"},{"category":"violent-crime","location_type":"Force","location":{"latitude":"51.256056","street":{"id":1552766,"name":"On or near Supermarket"},"longitude":"-1.133516"},"context":"","outcome_status":{"category":"Unable to prosecute suspect","date":"2025-10"},"persistent_id":"9e298d1865d46f14297a308667c38f24c94577e64791e9cba486311d6d91185f","id":131456720,"location_subtype":"","month":"2025-09"}]