[{"category":"criminal-damage-arson","location_type":"Force","location":{"latitude":"51.349198","street":{"id":1552468,"name":"On or near Elmhurst"},"longitude":"-1.138975"},"context":"","outcome_status":{"category":"Investigation complete; no suspect identified","date":"2025-02"},"persistent_id":"6b8ad0a21634709a81143e72daae6d628c3f5d633e0b65c2f050fd7dfd04a866","id":126543009,"location_subtype":"","month":"2025-02"},{"category":"public-order","location_type":"Force","location":{"latitude":"51.352805","street":{"id":1552770,"name":"On or near West Street Close"},"longitude":"-1.132991"},"context":"","outcome_status":{"category":"Investigation complete; no suspect identified","date":"2025-02"},"persistent_id":"4deb5d8a9165efcaf62e586d6b6f531ee70b3a15ceebb0709974e41f8e3e8b34","id":126540001,"location_subtype":"","month":"2025-02"},{"category":"shoplifting","location_type":"Force","location":{"latitude":"51.350634","street":{"id":1552760,"name":"On or near Giles Road"},"longitude":"-1.133764"},"context":"","outcome_status":{"category":"Unable to prosecute suspect","date":"2025-04"},"persistent_id":"0221ab1ea91b2034cd6400744d1e3d2e92b2e420c0ad8b71e78488ae93f9e755","id":126550934,"location_subtype":"","month":"2025-02"},{"category":"vehicle-crime","location_type":"Force","location":{"latitude":"51.349532","street":{"id":1552614,"name":"On or near Tunworth Mews"},"longitude":"-1.134273"},"context":"","outcome_status":{"category":"Unable to prosecute suspect","date":"2025-03"},"persistent_id":"0e2b9513a2ceb509b48a976d0aae3dd5f91df199aecc72a1b630fe1e761d65b3","id":126550978,"location_subtype":"","month":"2025-02"},{"category":"violent-crime","location_type":"Force","location":{"latitude":"51.344562","street":{"id":1552657,"name":"On or near Sports/recreation Area"},"longitude":"-1.135607"},"context":"","outcome_status":{"category":"Investigation complete; no suspect identified","date":"2025-04"},"persistent_id":"1533d69e845224b859ebd9ba76db885868436cd5c03246d1f2afe55f527ef6ab","id":126546949,"location_subtype":"","month":"2025-02"},{"category":"violent-crime","location_type":"Force","location":{"latitude":"51.346260","street":{"id":1552544,"name":"On or near Hawkley Drive"},"longitude":"-1.136862"},"context":"","outcome_status":{"category":"Unable to prosecute suspect","date":"2025-03"},"persistent_id":"11775b7cfd01880f2e4806d83020df5bed5fbd753dc30d2b36504c44e70a6a3a","id":126546329,"location_subtype":"","month":"2025-02"},{"category":"violent-crime","location_type":"Force","location":{"latitude":"51.346922","street":{"id":1552311,"name":"On or near Ramsdell Close"},"longitude":"-1.142521"},"context":"","outcome_status":{"category":"Unable to prosecute suspect","date":"2025-03"},"persistent_id":"15690366a336ea03114212b56d711c7da0e23b43c79c665b0729e5918030661c","id":126546339,"location_subtype":"","month":"2025-02"},{"category":"violent-crime","location_type":"Force","location":{"latitude":"51.350805","street":{"id":1552207,"name":"On or near Willow Road"},"longitude":"-1.143511"},"context":"","outcome_status":{"category":"Investigation complete; no suspect identified","date":"2025-07"},"persistent_id":"5932e8f595fb04cbb41545c8994e4fa67abebd2777062697c772e304ace2c2f1","id":126545582,"location_subtype":"","month":"2025-02"},{"category":"violent-crime","location_type":"Force","location":{"latitude":"51.349532","street":{"id":1552614,"name":"On or near Tunworth Mews"},"longitude":"-1.134273"},"context":"","outcome_status":{"category":"Unable to prosecute suspect","date":"2025-02"},"persistent_id":"d442bb6efcdd31b4e84a114b8a1129b90adc1f0e90d7574f3d030f6efd8f9b0c","id":126542820,"location_subtype":"","month":"2025-02"},{"category":"violent-crime","location_type":"Force","location":{"latitude":"51.349239","street":{"id":1552971,"name":"On or near Rampton's Meadow"},"longitude":"-1.128664"},"context":"","outcome_status":{"category":"Unable to prosecute suspect","date":"2025-03"},"persistent_id":"a7472010e0fd479ee53df36bbd36f588d5080aab662411e2e824be5695281f8b","id":126550381,"location_subtype":"","month":"2025-02"},{"category":"violent-crime","location_type":"Force","location":{"latitude":"51.348409","street":{"id":1552276,"name":"On or near Reginald Close"},"longitude":"-1.141775"},"context":"","outcome_status":{"category":"Investigation complete; no suspect identified","date":"2025-03"},"persistent_id":"2ec4c9dfdf1a8fc5ecabca132a53c53e6d9c967c365fd267c21b3f8bf3056231","id":126541015,"location_subtype":"","month":"2025-02"},{"category":"violent-crime","location_type":"Force","location":{"latitude":"51.346922","street":{"id":1552311,"name":"On or near Ramsdell Close"},"longitude":"-1.142521"},"context":"","outcome_status":{"category":"Unable to prosecute suspect","date":"2025-03"},"persistent_id":"4df1067c4ecbde3f98053b54138144c9f6d462ef0dcb4e54d205d895c237350f","id":126546807,"location_subtype":"","month":"2025-02"},{"category":"violent-crime","location_type":"Force","location":{"latitude":"51.348409","street":{"id":1552276,"name":"On or near Reginald Close"},"longitude":"-1.141775"},"context":"","outcome_status":{"category":"Unable to prosecute suspect","date":"2025-02"},"persistent_id":"5a689cdacb2d64c9d8b601243a4ef012f6455fe389d8ac84afec2dcb379d054a","id":126541895,"location_subtype":"","month":"2025-02"}]