[{"category":"anti-social-behaviour","location_type":"Force","location":{"latitude":"51.605274","street":{"id":1709901,"name":"On or near Oldmead Close"},"longitude":"0.227908"},"context":"","outcome_status":null,"persistent_id":"","id":130292896,"location_subtype":"","month":"2025-07"},{"category":"anti-social-behaviour","location_type":"Force","location":{"latitude":"51.609761","street":{"id":1709296,"name":"On or near Dock Walk"},"longitude":"0.208875"},"context":"","outcome_status":null,"persistent_id":"","id":130294274,"location_subtype":"","month":"2025-07"},{"category":"anti-social-behaviour","location_type":"Force","location":{"latitude":"51.604872","street":{"id":1710107,"name":"On or near Leamington Close"},"longitude":"0.237203"},"context":"","outcome_status":null,"persistent_id":"","id":130294290,"location_subtype":"","month":"2025-07"},{"category":"anti-social-behaviour","location_type":"Force","location":{"latitude":"51.593671","street":{"id":1709365,"name":"On or near Shenstone Gardens"},"longitude":"0.212310"},"context":"","outcome_status":null,"persistent_id":"","id":130295123,"location_subtype":"","month":"2025-07"},{"category":"anti-social-behaviour","location_type":"Force","location":{"latitude":"51.598539","street":{"id":1709795,"name":"On or near Spilsby Road"},"longitude":"0.223593"},"context":"","outcome_status":null,"persistent_id":"","id":130295175,"location_subtype":"","month":"2025-07"},{"category":"anti-social-behaviour","location_type":"Force","location":{"latitude":"51.600852","street":{"id":1709834,"name":"On or near Leyburn Crescent"},"longitude":"0.225410"},"context":"","outcome_status":null,"persistent_id":"","id":130295376,"location_subtype":"","month":"2025-07"},{"category":"anti-social-behaviour","location_type":"Force","location":{"latitude":"51.605771","street":{"id":1709743,"name":"On or near Trowbridge Road"},"longitude":"0.223036"},"context":"","outcome_status":null,"persistent_id":"","id":130295448,"location_subtype":"","month":"2025-07"},{"category":"anti-social-behaviour","location_type":"Force","location":{"latitude":"51.593874","street":{"id":1709504,"name":"On or near Launceston Close"},"longitude":"0.214442"},"context":"","outcome_status":null,"persistent_id":"","id":130295933,"location_subtype":"","month":"2025-07"},{"category":"anti-social-behaviour","location_type":"Force","location":{"latitude":"51.604748","street":{"id":1709633,"name":"On or near Dartfields"},"longitude":"0.218625"},"context":"","outcome_status":null,"persistent_id":"","id":130299631,"location_subtype":"","month":"2025-07"},{"category":"anti-social-behaviour","location_type":"Force","location":{"latitude":"51.601844","street":{"id":1709157,"name":"On or near Archway"},"longitude":"0.205747"},"context":"","outcome_status":null,"persistent_id":"","id":130299991,"location_subtype":"","month":"2025-07"},{"category":"anti-social-behaviour","location_type":"Force","location":{"latitude":"51.600852","street":{"id":1709834,"name":"On or near Leyburn Crescent"},"longitude":"0.225410"},"context":"","outcome_status":null,"persistent_id":"","id":130300181,"location_subtype":"","month":"2025-07"},{"category":"anti-social-behaviour","location_type":"Force","location":{"latitude":"51.592745","street":{"id":1709938,"name":"On or near Safflower Lane"},"longitude":"0.229879"},"context":"","outcome_status":null,"persistent_id":"","id":130300231,"location_subtype":"","month":"2025-07"},{"category":"anti-social-behaviour","location_type":"Force","location":{"latitude":"51.591796","street":{"id":1709894,"name":"On or near Elderberry Close"},"longitude":"0.227768"},"context":"","outcome_status":null,"persistent_id":"","id":130300788,"location_subtype":"","month":"2025-07"},{"category":"anti-social-behaviour","location_type":"Force","location":{"latitude":"51.607546","street":{"id":1709429,"name":"On or near Daventry Road"},"longitude":"0.211887"},"context":"","outcome_status":null,"persistent_id":"","id":130300981,"location_subtype":"","month":"2025-07"},{"category":"anti-social-behaviour","location_type":"Force","location":{"latitude":"51.602011","street":{"id":1709974,"name":"On or near Amersham Walk"},"longitude":"0.231590"},"context":"","outcome_status":null,"persistent_id":"","id":130301267,"location_subtype":"","month":"2025-07"},{"category":"anti-social-behaviour","location_type":"Force","location":{"latitude":"51.614271","street":{"id":1709650,"name":"On or near Preston Road"},"longitude":"0.219595"},"context":"","outcome_status":null,"persistent_id":"","id":130301276,"location_subtype":"","month":"2025-07"},{"category":"anti-social-behaviour","location_type":"Force","location":{"latitude":"51.593379","street":{"id":1710039,"name":"On or near Parking Area"},"longitude":"0.233938"},"context":"","outcome_status":null,"persistent_id":"","id":130289215,"location_subtype":"","month":"2025-07"},{"category":"anti-social-behaviour","location_type":"Force","location":{"latitude":"51.604872","street":{"id":1710107,"name":"On or near Leamington Close"},"longitude":"0.237203"},"context":"","outcome_status":null,"persistent_id":"","id":130297304,"location_subtype":"","month":"2025-07"},{"category":"anti-social-behaviour","location_type":"Force","location":{"latitude":"51.609775","street":{"id":1709893,"name":"On or near Lindfield Road"},"longitude":"0.227666"},"context":"","outcome_status":null,"persistent_id":"","id":130289016,"location_subtype":"","month":"2025-07"},{"category":"anti-social-behaviour","location_type":"Force","location":{"latitude":"51.598242","street":{"id":1709457,"name":"On or near Mimosa Close"},"longitude":"0.212648"},"context":"","outcome_status":null,"persistent_id":"","id":130288985,"location_subtype":"","month":"2025-07"},{"category":"anti-social-behaviour","location_type":"Force","location":{"latitude":"51.606714","street":{"id":1709714,"name":"On or near Quilter Way"},"longitude":"0.220700"},"context":"","outcome_status":null,"persistent_id":"","id":130297586,"location_subtype":"","month":"2025-07"},{"category":"anti-social-behaviour","location_type":"Force","location":{"latitude":"51.591208","street":{"id":1709706,"name":"On or near Chadwick Drive"},"longitude":"0.219900"},"context":"","outcome_status":null,"persistent_id":"","id":130297738,"location_subtype":"","month":"2025-07"},{"category":"anti-social-behaviour","location_type":"Force","location":{"latitude":"51.605767","street":{"id":1709680,"name":"On or near Chippenham Road"},"longitude":"0.219426"},"context":"","outcome_status":null,"persistent_id":"","id":130291187,"location_subtype":"","month":"2025-07"},{"category":"anti-social-behaviour","location_type":"Force","location":{"latitude":"51.601098","street":{"id":1709792,"name":"On or near Kingsbridge Circus"},"longitude":"0.224296"},"context":"","outcome_status":null,"persistent_id":"","id":130293141,"location_subtype":"","month":"2025-07"},{"category":"anti-social-behaviour","location_type":"Force","location":{"latitude":"51.593559","street":{"id":1709947,"name":"On or near Wessex Lane"},"longitude":"0.230612"},"context":"","outcome_status":null,"persistent_id":"","id":130293591,"location_subtype":"","month":"2025-07"},{"category":"anti-social-behaviour","location_type":"Force","location":{"latitude":"51.591796","street":{"id":1709894,"name":"On or near Elderberry Close"},"longitude":"0.227768"},"context":"","outcome_status":null,"persistent_id":"","id":130286644,"location_subtype":"","month":"2025-07"},{"category":"anti-social-behaviour","location_type":"Force","location":{"latitude":"51.604748","street":{"id":1709633,"name":"On or near Dartfields"},"longitude":"0.218625"},"context":"","outcome_status":null,"persistent_id":"","id":130290014,"location_subtype":"","month":"2025-07"},{"category":"anti-social-behaviour","location_type":"Force","location":{"latitude":"51.591916","street":{"id":1709778,"name":"On or near Mason Drive"},"longitude":"0.222894"},"context":"","outcome_status":null,"persistent_id":"","id":130296510,"location_subtype":"","month":"2025-07"},{"category":"anti-social-behaviour","location_type":"Force","location":{"latitude":"51.596182","street":{"id":1709611,"name":"On or near Hatherleigh Way"},"longitude":"0.217486"},"context":"","outcome_status":null,"persistent_id":"","id":130301018,"location_subtype":"","month":"2025-07"},{"category":"anti-social-behaviour","location_type":"Force","location":{"latitude":"51.605303","street":{"id":1710067,"name":"On or near Hucknall Close"},"longitude":"0.235809"},"context":"","outcome_status":null,"persistent_id":"","id":130306968,"location_subtype":"","month":"2025-07"},{"category":"anti-social-behaviour","location_type":"Force","location":{"latitude":"51.600222","street":{"id":1709224,"name":"On or near Chaucer Road"},"longitude":"0.205899"},"context":"","outcome_status":null,"persistent_id":"","id":130306873,"location_subtype":"","month":"2025-07"},{"category":"anti-social-behaviour","location_type":"Force","location":{"latitude":"51.607496","street":{"id":1709740,"name":"On or near Chippenham Close"},"longitude":"0.221229"},"context":"","outcome_status":null,"persistent_id":"","id":130306869,"location_subtype":"","month":"2025-07"},{"category":"anti-social-behaviour","location_type":"Force","location":{"latitude":"51.593559","street":{"id":1709947,"name":"On or near Wessex Lane"},"longitude":"0.230612"},"context":"","outcome_status":null,"persistent_id":"","id":130306625,"location_subtype":"","month":"2025-07"},{"category":"anti-social-behaviour","location_type":"Force","location":{"latitude":"51.599377","street":{"id":1709821,"name":"On or near Camborne Avenue"},"longitude":"0.225886"},"context":"","outcome_status":null,"persistent_id":"","id":130304457,"location_subtype":"","month":"2025-07"},{"category":"anti-social-behaviour","location_type":"Force","location":{"latitude":"51.593217","street":{"id":1709794,"name":"On or near Juniper Way"},"longitude":"0.223506"},"context":"","outcome_status":null,"persistent_id":"","id":130297230,"location_subtype":"","month":"2025-07"},{"category":"anti-social-behaviour","location_type":"Force","location":{"latitude":"51.609550","street":{"id":1709345,"name":"On or near Appleby Drive"},"longitude":"0.210092"},"context":"","outcome_status":null,"persistent_id":"","id":130304262,"location_subtype":"","month":"2025-07"},{"category":"anti-social-behaviour","location_type":"Force","location":{"latitude":"51.605767","street":{"id":1709680,"name":"On or near Chippenham Road"},"longitude":"0.219426"},"context":"","outcome_status":null,"persistent_id":"","id":130289519,"location_subtype":"","month":"2025-07"},{"category":"anti-social-behaviour","location_type":"Force","location":{"latitude":"51.598436","street":{"id":1710032,"name":"On or near Sunnydene Close"},"longitude":"0.233768"},"context":"","outcome_status":null,"persistent_id":"","id":130304168,"location_subtype":"","month":"2025-07"},{"category":"anti-social-behaviour","location_type":"Force","location":{"latitude":"51.597099","street":{"id":1709240,"name":"On or near Harrow Crescent"},"longitude":"0.206037"},"context":"","outcome_status":null,"persistent_id":"","id":130304132,"location_subtype":"","month":"2025-07"},{"category":"anti-social-behaviour","location_type":"Force","location":{"latitude":"51.609775","street":{"id":1709893,"name":"On or near Lindfield Road"},"longitude":"0.227666"},"context":"","outcome_status":null,"persistent_id":"","id":130291181,"location_subtype":"","month":"2025-07"},{"category":"anti-social-behaviour","location_type":"Force","location":{"latitude":"51.593217","street":{"id":1709794,"name":"On or near Juniper Way"},"longitude":"0.223506"},"context":"","outcome_status":null,"persistent_id":"","id":130303904,"location_subtype":"","month":"2025-07"},{"category":"anti-social-behaviour","location_type":"Force","location":{"latitude":"51.606306","street":{"id":1709677,"name":"On or near Farnham Road"},"longitude":"0.219019"},"context":"","outcome_status":null,"persistent_id":"","id":130303690,"location_subtype":"","month":"2025-07"},{"category":"anti-social-behaviour","location_type":"Force","location":{"latitude":"51.593217","street":{"id":1709794,"name":"On or near Juniper Way"},"longitude":"0.223506"},"context":"","outcome_status":null,"persistent_id":"","id":130303338,"location_subtype":"","month":"2025-07"},{"category":"anti-social-behaviour","location_type":"Force","location":{"latitude":"51.600852","street":{"id":1709834,"name":"On or near Leyburn Crescent"},"longitude":"0.225410"},"context":"","outcome_status":null,"persistent_id":"","id":130303239,"location_subtype":"","month":"2025-07"},{"category":"anti-social-behaviour","location_type":"Force","location":{"latitude":"51.607496","street":{"id":1709740,"name":"On or near Chippenham Close"},"longitude":"0.221229"},"context":"","outcome_status":null,"persistent_id":"","id":130302959,"location_subtype":"","month":"2025-07"},{"category":"anti-social-behaviour","location_type":"Force","location":{"latitude":"51.605274","street":{"id":1709901,"name":"On or near Oldmead Close"},"longitude":"0.227908"},"context":"","outcome_status":null,"persistent_id":"","id":130302729,"location_subtype":"","month":"2025-07"},{"category":"anti-social-behaviour","location_type":"Force","location":{"latitude":"51.605771","street":{"id":1709743,"name":"On or near Trowbridge Road"},"longitude":"0.223036"},"context":"","outcome_status":null,"persistent_id":"","id":130301576,"location_subtype":"","month":"2025-07"},{"category":"anti-social-behaviour","location_type":"Force","location":{"latitude":"51.609775","street":{"id":1709893,"name":"On or near Lindfield Road"},"longitude":"0.227666"},"context":"","outcome_status":null,"persistent_id":"","id":130301503,"location_subtype":"","month":"2025-07"},{"category":"anti-social-behaviour","location_type":"Force","location":{"latitude":"51.607383","street":{"id":1710203,"name":"On or near Sidhu Mews"},"longitude":"0.243248"},"context":"","outcome_status":null,"persistent_id":"","id":130289975,"location_subtype":"","month":"2025-07"},{"category":"anti-social-behaviour","location_type":"Force","location":{"latitude":"51.607620","street":{"id":1710083,"name":"On or near Redruth Walk"},"longitude":"0.236457"},"context":"","outcome_status":null,"persistent_id":"","id":130301349,"location_subtype":"","month":"2025-07"},{"category":"anti-social-behaviour","location_type":"Force","location":{"latitude":"51.607620","street":{"id":1710083,"name":"On or near Redruth Walk"},"longitude":"0.236457"},"context":"","outcome_status":null,"persistent_id":"","id":130291436,"location_subtype":"","month":"2025-07"},{"category":"anti-social-behaviour","location_type":"Force","location":{"latitude":"51.612751","street":{"id":1709806,"name":"On or near Whitchurch Road"},"longitude":"0.224851"},"context":"","outcome_status":null,"persistent_id":"","id":130292507,"location_subtype":"","month":"2025-07"},{"category":"anti-social-behaviour","location_type":"Force","location":{"latitude":"51.596196","street":{"id":1709609,"name":"On or near Neave Crescent"},"longitude":"0.216721"},"context":"","outcome_status":null,"persistent_id":"","id":130292577,"location_subtype":"","month":"2025-07"},{"category":"anti-social-behaviour","location_type":"Force","location":{"latitude":"51.609775","street":{"id":1709893,"name":"On or near Lindfield Road"},"longitude":"0.227666"},"context":"","outcome_status":null,"persistent_id":"","id":130292717,"location_subtype":"","month":"2025-07"},{"category":"anti-social-behaviour","location_type":"Force","location":{"latitude":"51.610317","street":{"id":1709713,"name":"On or near Dorking Walk"},"longitude":"0.220399"},"context":"","outcome_status":null,"persistent_id":"","id":130292788,"location_subtype":"","month":"2025-07"},{"category":"anti-social-behaviour","location_type":"Force","location":{"latitude":"51.593343","street":{"id":1710026,"name":"On or near Harold Wood"},"longitude":"0.233893"},"context":"","outcome_status":null,"persistent_id":"","id":130293860,"location_subtype":"","month":"2025-07"},{"category":"anti-social-behaviour","location_type":"Force","location":{"latitude":"51.606971","street":{"id":1709440,"name":"On or near Edenhall Close"},"longitude":"0.212335"},"context":"","outcome_status":null,"persistent_id":"","id":130297884,"location_subtype":"","month":"2025-07"},{"category":"anti-social-behaviour","location_type":"Force","location":{"latitude":"51.599970","street":{"id":1709225,"name":"On or near Mellonde Close"},"longitude":"0.204948"},"context":"","outcome_status":null,"persistent_id":"","id":130288544,"location_subtype":"","month":"2025-07"},{"category":"anti-social-behaviour","location_type":"Force","location":{"latitude":"51.598445","street":{"id":1710209,"name":"On or near Bates Road"},"longitude":"0.243198"},"context":"","outcome_status":null,"persistent_id":"","id":130288438,"location_subtype":"","month":"2025-07"},{"category":"anti-social-behaviour","location_type":"Force","location":{"latitude":"51.591796","street":{"id":1709894,"name":"On or near Elderberry Close"},"longitude":"0.227768"},"context":"","outcome_status":null,"persistent_id":"","id":130288217,"location_subtype":"","month":"2025-07"},{"category":"anti-social-behaviour","location_type":"Force","location":{"latitude":"51.611383","street":{"id":1709524,"name":"On or near Taunton Road"},"longitude":"0.214919"},"context":"","outcome_status":null,"persistent_id":"","id":130297914,"location_subtype":"","month":"2025-07"},{"category":"anti-social-behaviour","location_type":"Force","location":{"latitude":"51.610268","street":{"id":1710046,"name":"On or near Sedgefield Close"},"longitude":"0.234378"},"context":"","outcome_status":null,"persistent_id":"","id":130297946,"location_subtype":"","month":"2025-07"},{"category":"anti-social-behaviour","location_type":"Force","location":{"latitude":"51.606156","street":{"id":1709949,"name":"On or near Sports/recreation Area"},"longitude":"0.231091"},"context":"","outcome_status":null,"persistent_id":"","id":130288162,"location_subtype":"","month":"2025-07"},{"category":"anti-social-behaviour","location_type":"Force","location":{"latitude":"51.594358","street":{"id":1709251,"name":"On or near Masefield Close"},"longitude":"0.208301"},"context":"","outcome_status":null,"persistent_id":"","id":130287826,"location_subtype":"","month":"2025-07"},{"category":"anti-social-behaviour","location_type":"Force","location":{"latitude":"51.593217","street":{"id":1709794,"name":"On or near Juniper Way"},"longitude":"0.223506"},"context":"","outcome_status":null,"persistent_id":"","id":130290796,"location_subtype":"","month":"2025-07"},{"category":"anti-social-behaviour","location_type":"Force","location":{"latitude":"51.609775","street":{"id":1709893,"name":"On or near Lindfield Road"},"longitude":"0.227666"},"context":"","outcome_status":null,"persistent_id":"","id":130287322,"location_subtype":"","month":"2025-07"},{"category":"anti-social-behaviour","location_type":"Force","location":{"latitude":"51.604810","street":{"id":1710174,"name":"On or near Tarnworth Road"},"longitude":"0.241850"},"context":"","outcome_status":null,"persistent_id":"","id":130287109,"location_subtype":"","month":"2025-07"},{"category":"anti-social-behaviour","location_type":"Force","location":{"latitude":"51.609315","street":{"id":1709522,"name":"On or near Barnstaple Road"},"longitude":"0.215381"},"context":"","outcome_status":null,"persistent_id":"","id":130298031,"location_subtype":"","month":"2025-07"},{"category":"anti-social-behaviour","location_type":"Force","location":{"latitude":"51.599377","street":{"id":1709821,"name":"On or near Camborne Avenue"},"longitude":"0.225886"},"context":"","outcome_status":null,"persistent_id":"","id":130290887,"location_subtype":"","month":"2025-07"},{"category":"anti-social-behaviour","location_type":"Force","location":{"latitude":"51.612751","street":{"id":1709806,"name":"On or near Whitchurch Road"},"longitude":"0.224851"},"context":"","outcome_status":null,"persistent_id":"","id":130291025,"location_subtype":"","month":"2025-07"},{"category":"anti-social-behaviour","location_type":"Force","location":{"latitude":"51.599749","street":{"id":1709575,"name":"On or near Briar Road"},"longitude":"0.216215"},"context":"","outcome_status":null,"persistent_id":"","id":130298472,"location_subtype":"","month":"2025-07"},{"category":"anti-social-behaviour","location_type":"Force","location":{"latitude":"51.606306","street":{"id":1709677,"name":"On or near Farnham Road"},"longitude":"0.219019"},"context":"","outcome_status":null,"persistent_id":"","id":130287033,"location_subtype":"","month":"2025-07"},{"category":"anti-social-behaviour","location_type":"Force","location":{"latitude":"51.590672","street":{"id":1709832,"name":"On or near Larch Place"},"longitude":"0.224941"},"context":"","outcome_status":null,"persistent_id":"","id":130286869,"location_subtype":"","month":"2025-07"},{"category":"anti-social-behaviour","location_type":"Force","location":{"latitude":"51.605771","street":{"id":1709743,"name":"On or near Trowbridge Road"},"longitude":"0.223036"},"context":"","outcome_status":null,"persistent_id":"","id":130301734,"location_subtype":"","month":"2025-07"},{"category":"anti-social-behaviour","location_type":"Force","location":{"latitude":"51.610622","street":{"id":1709548,"name":"On or near Mortimer Drive"},"longitude":"0.215214"},"context":"","outcome_status":null,"persistent_id":"","id":130291096,"location_subtype":"","month":"2025-07"},{"category":"anti-social-behaviour","location_type":"Force","location":{"latitude":"51.596021","street":{"id":1709036,"name":"On or near Bell Avenue"},"longitude":"0.204526"},"context":"","outcome_status":null,"persistent_id":"","id":130285574,"location_subtype":"","month":"2025-07"},{"category":"anti-social-behaviour","location_type":"Force","location":{"latitude":"51.604872","street":{"id":1710107,"name":"On or near Leamington Close"},"longitude":"0.237203"},"context":"","outcome_status":null,"persistent_id":"","id":130285573,"location_subtype":"","month":"2025-07"},{"category":"anti-social-behaviour","location_type":"Force","location":{"latitude":"51.592745","street":{"id":1709938,"name":"On or near Safflower Lane"},"longitude":"0.229879"},"context":"","outcome_status":null,"persistent_id":"","id":130290718,"location_subtype":"","month":"2025-07"},{"category":"anti-social-behaviour","location_type":"Force","location":{"latitude":"51.611383","street":{"id":1709524,"name":"On or near Taunton Road"},"longitude":"0.214919"},"context":"","outcome_status":null,"persistent_id":"","id":130304651,"location_subtype":"","month":"2025-07"},{"category":"anti-social-behaviour","location_type":"Force","location":{"latitude":"51.600438","street":{"id":1709766,"name":"On or near Leyburn Road"},"longitude":"0.223065"},"context":"","outcome_status":null,"persistent_id":"","id":130291481,"location_subtype":"","month":"2025-07"},{"category":"anti-social-behaviour","location_type":"Force","location":{"latitude":"51.593217","street":{"id":1709794,"name":"On or near Juniper Way"},"longitude":"0.223506"},"context":"","outcome_status":null,"persistent_id":"","id":130297214,"location_subtype":"","month":"2025-07"},{"category":"anti-social-behaviour","location_type":"Force","location":{"latitude":"51.591607","street":{"id":1710028,"name":"On or near Saxon Close"},"longitude":"0.233476"},"context":"","outcome_status":null,"persistent_id":"","id":130304607,"location_subtype":"","month":"2025-07"},{"category":"anti-social-behaviour","location_type":"Force","location":{"latitude":"51.599034","street":{"id":1709255,"name":"On or near Heaton Avenue"},"longitude":"0.206925"},"context":"","outcome_status":null,"persistent_id":"","id":130285279,"location_subtype":"","month":"2025-07"},{"category":"anti-social-behaviour","location_type":"Force","location":{"latitude":"51.598445","street":{"id":1710209,"name":"On or near Bates Road"},"longitude":"0.243198"},"context":"","outcome_status":null,"persistent_id":"","id":130285097,"location_subtype":"","month":"2025-07"},{"category":"anti-social-behaviour","location_type":"Force","location":{"latitude":"51.593217","street":{"id":1709794,"name":"On or near Juniper Way"},"longitude":"0.223506"},"context":"","outcome_status":null,"persistent_id":"","id":130284758,"location_subtype":"","month":"2025-07"},{"category":"anti-social-behaviour","location_type":"Force","location":{"latitude":"51.593217","street":{"id":1709794,"name":"On or near Juniper Way"},"longitude":"0.223506"},"context":"","outcome_status":null,"persistent_id":"","id":130290696,"location_subtype":"","month":"2025-07"},{"category":"anti-social-behaviour","location_type":"Force","location":{"latitude":"51.602157","street":{"id":1709485,"name":"On or near Myrtle Road"},"longitude":"0.213473"},"context":"","outcome_status":null,"persistent_id":"","id":130284659,"location_subtype":"","month":"2025-07"},{"category":"anti-social-behaviour","location_type":"Force","location":{"latitude":"51.592302","street":{"id":1709681,"name":"On or near Petrol Station"},"longitude":"0.220083"},"context":"","outcome_status":null,"persistent_id":"","id":130305030,"location_subtype":"","month":"2025-07"},{"category":"anti-social-behaviour","location_type":"Force","location":{"latitude":"51.593217","street":{"id":1709794,"name":"On or near Juniper Way"},"longitude":"0.223506"},"context":"","outcome_status":null,"persistent_id":"","id":130284504,"location_subtype":"","month":"2025-07"},{"category":"anti-social-behaviour","location_type":"Force","location":{"latitude":"51.592302","street":{"id":1709681,"name":"On or near Petrol Station"},"longitude":"0.220083"},"context":"","outcome_status":null,"persistent_id":"","id":130284234,"location_subtype":"","month":"2025-07"},{"category":"anti-social-behaviour","location_type":"Force","location":{"latitude":"51.600852","street":{"id":1709834,"name":"On or near Leyburn Crescent"},"longitude":"0.225410"},"context":"","outcome_status":null,"persistent_id":"","id":130284140,"location_subtype":"","month":"2025-07"},{"category":"anti-social-behaviour","location_type":"Force","location":{"latitude":"51.604115","street":{"id":1710084,"name":"On or near Oxford Road"},"longitude":"0.235881"},"context":"","outcome_status":null,"persistent_id":"","id":130305184,"location_subtype":"","month":"2025-07"},{"category":"anti-social-behaviour","location_type":"Force","location":{"latitude":"51.604799","street":{"id":1709807,"name":"On or near Mirfield Close"},"longitude":"0.224000"},"context":"","outcome_status":null,"persistent_id":"","id":130305862,"location_subtype":"","month":"2025-07"},{"category":"anti-social-behaviour","location_type":"Force","location":{"latitude":"51.592302","street":{"id":1709681,"name":"On or near Petrol Station"},"longitude":"0.220083"},"context":"","outcome_status":null,"persistent_id":"","id":130290458,"location_subtype":"","month":"2025-07"},{"category":"anti-social-behaviour","location_type":"Force","location":{"latitude":"51.606971","street":{"id":1709440,"name":"On or near Edenhall Close"},"longitude":"0.212335"},"context":"","outcome_status":null,"persistent_id":"","id":130283757,"location_subtype":"","month":"2025-07"},{"category":"anti-social-behaviour","location_type":"Force","location":{"latitude":"51.611914","street":{"id":1709707,"name":"On or near Skylark Grove"},"longitude":"0.221083"},"context":"","outcome_status":null,"persistent_id":"","id":130291997,"location_subtype":"","month":"2025-07"},{"category":"anti-social-behaviour","location_type":"Force","location":{"latitude":"51.611785","street":{"id":1709875,"name":"On or near Wigton Road"},"longitude":"0.226927"},"context":"","outcome_status":null,"persistent_id":"","id":130291459,"location_subtype":"","month":"2025-07"},{"category":"anti-social-behaviour","location_type":"Force","location":{"latitude":"51.598242","street":{"id":1709457,"name":"On or near Mimosa Close"},"longitude":"0.212648"},"context":"","outcome_status":null,"persistent_id":"","id":130305981,"location_subtype":"","month":"2025-07"},{"category":"anti-social-behaviour","location_type":"Force","location":{"latitude":"51.609272","street":{"id":1709908,"name":"On or near Harkness Close"},"longitude":"0.230010"},"context":"","outcome_status":null,"persistent_id":"","id":130306273,"location_subtype":"","month":"2025-07"},{"category":"anti-social-behaviour","location_type":"Force","location":{"latitude":"51.602512","street":{"id":1709456,"name":"On or near Saddleworth Road"},"longitude":"0.213216"},"context":"","outcome_status":null,"persistent_id":"","id":130297191,"location_subtype":"","month":"2025-07"},{"category":"anti-social-behaviour","location_type":"Force","location":{"latitude":"51.609775","street":{"id":1709893,"name":"On or near Lindfield Road"},"longitude":"0.227666"},"context":"","outcome_status":null,"persistent_id":"","id":130290386,"location_subtype":"","month":"2025-07"},{"category":"anti-social-behaviour","location_type":"Force","location":{"latitude":"51.593217","street":{"id":1709794,"name":"On or near Juniper Way"},"longitude":"0.223506"},"context":"","outcome_status":null,"persistent_id":"","id":130290020,"location_subtype":"","month":"2025-07"},{"category":"anti-social-behaviour","location_type":"Force","location":{"latitude":"51.611785","street":{"id":1709875,"name":"On or near Wigton Road"},"longitude":"0.226927"},"context":"","outcome_status":null,"persistent_id":"","id":130291435,"location_subtype":"","month":"2025-07"},{"category":"anti-social-behaviour","location_type":"Force","location":{"latitude":"51.611178","street":{"id":1709874,"name":"On or near Alpine Close"},"longitude":"0.228139"},"context":"","outcome_status":null,"persistent_id":"","id":130297011,"location_subtype":"","month":"2025-07"},{"category":"anti-social-behaviour","location_type":"Force","location":{"latitude":"51.593217","street":{"id":1709794,"name":"On or near Juniper Way"},"longitude":"0.223506"},"context":"","outcome_status":null,"persistent_id":"","id":130291956,"location_subtype":"","month":"2025-07"},{"category":"anti-social-behaviour","location_type":"Force","location":{"latitude":"51.600533","street":{"id":1709474,"name":"On or near Rosehip Close"},"longitude":"0.213235"},"context":"","outcome_status":null,"persistent_id":"","id":130286284,"location_subtype":"","month":"2025-07"},{"category":"anti-social-behaviour","location_type":"Force","location":{"latitude":"51.602512","street":{"id":1709456,"name":"On or near Saddleworth Road"},"longitude":"0.213216"},"context":"","outcome_status":null,"persistent_id":"","id":130297137,"location_subtype":"","month":"2025-07"},{"category":"anti-social-behaviour","location_type":"Force","location":{"latitude":"51.605274","street":{"id":1709901,"name":"On or near Oldmead Close"},"longitude":"0.227908"},"context":"","outcome_status":null,"persistent_id":"","id":130296159,"location_subtype":"","month":"2025-07"},{"category":"anti-social-behaviour","location_type":"Force","location":{"latitude":"51.590672","street":{"id":1709832,"name":"On or near Larch Place"},"longitude":"0.224941"},"context":"","outcome_status":null,"persistent_id":"","id":130292090,"location_subtype":"","month":"2025-07"},{"category":"bicycle-theft","location_type":"Force","location":{"latitude":"51.596021","street":{"id":1709036,"name":"On or near Bell Avenue"},"longitude":"0.204526"},"context":"","outcome_status":{"category":"Investigation complete; no suspect identified","date":"2025-07"},"persistent_id":"4ade2b62984c6372451617b533fd40d8b24bdae2c50998188dba2d14329ccf1a","id":130347107,"location_subtype":"","month":"2025-07"},{"category":"bicycle-theft","location_type":"Force","location":{"latitude":"51.594358","street":{"id":1709251,"name":"On or near Masefield Close"},"longitude":"0.208301"},"context":"","outcome_status":{"category":"Investigation complete; no suspect identified","date":"2025-07"},"persistent_id":"ab9c9df327ab1b2cec00beb72ab63540ad8ece5dcbcb56b0478d8a10b10f2745","id":130369825,"location_subtype":"","month":"2025-07"},{"category":"burglary","location_type":"Force","location":{"latitude":"51.592219","street":{"id":1709776,"name":"On or near Whitmore Avenue"},"longitude":"0.223010"},"context":"","outcome_status":{"category":"Investigation complete; no suspect identified","date":"2025-08"},"persistent_id":"92189932ab521ce4feb293f5dc32240deea94bd2bfec5b394b0ecb79297d68d5","id":130358529,"location_subtype":"","month":"2025-07"},{"category":"burglary","location_type":"Force","location":{"latitude":"51.608372","street":{"id":1709272,"name":"On or near Stanwyck Gardens"},"longitude":"0.207175"},"context":"","outcome_status":{"category":"Unable to prosecute suspect","date":"2025-07"},"persistent_id":"5a6452bb42f34379793c4cb42adc988aa3291a1ac620cb429c3a27a3e63f8a88","id":130350043,"location_subtype":"","month":"2025-07"},{"category":"burglary","location_type":"Force","location":{"latitude":"51.611807","street":{"id":1709700,"name":"On or near Troopers Drive"},"longitude":"0.219619"},"context":"","outcome_status":{"category":"Investigation complete; no suspect identified","date":"2025-09"},"persistent_id":"24856c3517494f6f0fd892b317e3cdad1c50aa649fc8f149ec9150fb81256970","id":130360477,"location_subtype":"","month":"2025-07"},{"category":"burglary","location_type":"Force","location":{"latitude":"51.612133","street":{"id":1709390,"name":"On or near Hitchin Close"},"longitude":"0.212355"},"context":"","outcome_status":{"category":"Unable to prosecute suspect","date":"2025-10"},"persistent_id":"2da2e5d89506b38028588d38de24e671ced37bbeefa2450a4bff3373b9862ef4","id":130358856,"location_subtype":"","month":"2025-07"},{"category":"burglary","location_type":"Force","location":{"latitude":"51.600936","street":{"id":1710237,"name":"On or near Elgin Avenue"},"longitude":"0.246959"},"context":"","outcome_status":{"category":"Awaiting court outcome","date":"2025-12"},"persistent_id":"841b22f4a8243acb63d4e5a0369c0f2f535cab251435c6c8d7031f94319830ab","id":130334868,"location_subtype":"","month":"2025-07"},{"category":"burglary","location_type":"Force","location":{"latitude":"51.605303","street":{"id":1710067,"name":"On or near Hucknall Close"},"longitude":"0.235809"},"context":"","outcome_status":{"category":"Unable to prosecute suspect","date":"2025-07"},"persistent_id":"a449054e7068399f73f47c0667a3d3eea72676cf42fade124d5af9240c1a9668","id":130377586,"location_subtype":"","month":"2025-07"},{"category":"burglary","location_type":"Force","location":{"latitude":"51.607765","street":{"id":1710150,"name":"On or near Tiverton Grove"},"longitude":"0.239700"},"context":"","outcome_status":{"category":"Status update unavailable","date":"2025-11"},"persistent_id":"9f6cc3d4261812cc5816304a8c805fd3bb8637bbdd0e53f0a983120575a92f5c","id":130368862,"location_subtype":"","month":"2025-07"},{"category":"burglary","location_type":"Force","location":{"latitude":"51.602807","street":{"id":1709846,"name":"On or near Kingsbridge Close"},"longitude":"0.226155"},"context":"","outcome_status":{"category":"Investigation complete; no suspect identified","date":"2025-09"},"persistent_id":"13b686c85192419d437e13a2378d5206ac0c6cc98dde1ba14cdb5cf41814b6e2","id":130377523,"location_subtype":"","month":"2025-07"},{"category":"criminal-damage-arson","location_type":"Force","location":{"latitude":"51.604115","street":{"id":1710084,"name":"On or near Oxford Road"},"longitude":"0.235881"},"context":"","outcome_status":{"category":"Investigation complete; no suspect identified","date":"2025-07"},"persistent_id":"f87a754c04c46fc0e6b669460a5ef893e02f4571df63f8b309c130641a7cf60e","id":130372531,"location_subtype":"","month":"2025-07"},{"category":"criminal-damage-arson","location_type":"Force","location":{"latitude":"51.600852","street":{"id":1709834,"name":"On or near Leyburn Crescent"},"longitude":"0.225410"},"context":"","outcome_status":{"category":"Unable to prosecute suspect","date":"2025-07"},"persistent_id":"830df7a39bdb21a64e4dc180de8631e589aee75b1719324946cbdb76d3d0ca9a","id":130328315,"location_subtype":"","month":"2025-07"},{"category":"criminal-damage-arson","location_type":"Force","location":{"latitude":"51.606601","street":{"id":1709642,"name":"On or near Supermarket"},"longitude":"0.218252"},"context":"","outcome_status":{"category":"Investigation complete; no suspect identified","date":"2025-07"},"persistent_id":"ab3758b322e8e046123cf42b9940f5398e81834124e77fa9648de3cf16603e68","id":130328593,"location_subtype":"","month":"2025-07"},{"category":"criminal-damage-arson","location_type":"Force","location":{"latitude":"51.602701","street":{"id":1709509,"name":"On or near Honeysuckle Close"},"longitude":"0.215146"},"context":"","outcome_status":{"category":"Investigation complete; no suspect identified","date":"2025-08"},"persistent_id":"d8c482e0fa0e269ed916a7bcdd713bb9fa4cf29bd1e8dacb6d62dd31c1d50162","id":130315252,"location_subtype":"","month":"2025-07"},{"category":"criminal-damage-arson","location_type":"Force","location":{"latitude":"51.600153","street":{"id":1709897,"name":"On or near Lancing Road"},"longitude":"0.227628"},"context":"","outcome_status":{"category":"Unable to prosecute suspect","date":"2025-10"},"persistent_id":"27610f0aec803c689a97ab566f40a956a727c61efb7317e45ac260cdc9ae2915","id":130369682,"location_subtype":"","month":"2025-07"},{"category":"criminal-damage-arson","location_type":"Force","location":{"latitude":"51.610521","street":{"id":1709460,"name":"On or near Sevenoaks Close"},"longitude":"0.214371"},"context":"","outcome_status":{"category":"Investigation complete; no suspect identified","date":"2025-07"},"persistent_id":"61fd39c58667c41858c71c51f39fb4895ea0ba6aae404a09725fe00dc8a66ed7","id":130307787,"location_subtype":"","month":"2025-07"},{"category":"criminal-damage-arson","location_type":"Force","location":{"latitude":"51.609775","street":{"id":1709893,"name":"On or near Lindfield Road"},"longitude":"0.227666"},"context":"","outcome_status":{"category":"Investigation complete; no suspect identified","date":"2025-07"},"persistent_id":"5e2b82b46c979c55fc8163781508cbe442a0c0710d4925452187766c862828ab","id":130319043,"location_subtype":"","month":"2025-07"},{"category":"criminal-damage-arson","location_type":"Force","location":{"latitude":"51.598242","street":{"id":1709457,"name":"On or near Mimosa Close"},"longitude":"0.212648"},"context":"","outcome_status":{"category":"Investigation complete; no suspect identified","date":"2025-07"},"persistent_id":"b5d4076c85016bf8cf5e162fdfa6e2b0e300fe9b45826b947bc7e3a9ec453b00","id":130323371,"location_subtype":"","month":"2025-07"},{"category":"criminal-damage-arson","location_type":"Force","location":{"latitude":"51.601506","street":{"id":1709470,"name":"On or near Barberry Close"},"longitude":"0.213167"},"context":"","outcome_status":{"category":"Status update unavailable","date":"2025-11"},"persistent_id":"6ae85f97eab2b515e452e6cab2de3ae4e0eda234fe746f7b2cf72c9328d3de73","id":130370519,"location_subtype":"","month":"2025-07"},{"category":"criminal-damage-arson","location_type":"Force","location":{"latitude":"51.607131","street":{"id":1709682,"name":"On or near East Dene Drive"},"longitude":"0.220070"},"context":"","outcome_status":{"category":"Investigation complete; no suspect identified","date":"2025-07"},"persistent_id":"a54d5ad92c2f041627d03bcd9ee0a64abfcddea8223b56bd862c035d89bb8525","id":130332108,"location_subtype":"","month":"2025-07"},{"category":"criminal-damage-arson","location_type":"Force","location":{"latitude":"51.609468","street":{"id":1709653,"name":"On or near Peony Road"},"longitude":"0.219173"},"context":"","outcome_status":{"category":"Unable to prosecute suspect","date":"2025-10"},"persistent_id":"b627fabb92a534ff7bdd171b300ae59d1ad5b4adc522fc114a67da1a2c687c43","id":130378667,"location_subtype":"","month":"2025-07"},{"category":"criminal-damage-arson","location_type":"Force","location":{"latitude":"51.592745","street":{"id":1709938,"name":"On or near Safflower Lane"},"longitude":"0.229879"},"context":"","outcome_status":{"category":"Investigation complete; no suspect identified","date":"2025-07"},"persistent_id":"ce905de5ed762a254f62597bad4d2b8b885cd10fe52a679047f243545bb1dbf2","id":130342895,"location_subtype":"","month":"2025-07"},{"category":"criminal-damage-arson","location_type":"Force","location":{"latitude":"51.588916","street":{"id":1709973,"name":"On or near Squirrels Heath Road"},"longitude":"0.231698"},"context":"","outcome_status":{"category":"Investigation complete; no suspect identified","date":"2025-07"},"persistent_id":"9d9fc688dd604187d85f7898d15dc078c5ffb1699c7ed89a787b92265e839889","id":130352979,"location_subtype":"","month":"2025-07"},{"category":"criminal-damage-arson","location_type":"Force","location":{"latitude":"51.595563","street":{"id":1709521,"name":"On or near Bideford Close"},"longitude":"0.214510"},"context":"","outcome_status":{"category":"Court result unavailable","date":"2026-01"},"persistent_id":"51541b95aa3d447e5f4674afccdb8030d808636151d8b3e1014e71ce54e1dc1c","id":130387678,"location_subtype":"","month":"2025-07"},{"category":"criminal-damage-arson","location_type":"Force","location":{"latitude":"51.596021","street":{"id":1709036,"name":"On or near Bell Avenue"},"longitude":"0.204526"},"context":"","outcome_status":{"category":"Unable to prosecute suspect","date":"2025-07"},"persistent_id":"3e310ddb7f1261b66118d67dfb19a4d0501cc5a62b1a8555413b6d1715878eb1","id":130327783,"location_subtype":"","month":"2025-07"},{"category":"criminal-damage-arson","location_type":"Force","location":{"latitude":"51.599591","street":{"id":1709990,"name":"On or near Wednesbury Road"},"longitude":"0.232106"},"context":"","outcome_status":{"category":"Unable to prosecute suspect","date":"2025-07"},"persistent_id":"14412e0c42f47c00da52089e911f938685459b06c5cfb27bd278285074d758f9","id":130335765,"location_subtype":"","month":"2025-07"},{"category":"criminal-damage-arson","location_type":"Force","location":{"latitude":"51.589125","street":{"id":1709905,"name":"On or near Lynross Close"},"longitude":"0.229225"},"context":"","outcome_status":{"category":"Investigation complete; no suspect identified","date":"2025-08"},"persistent_id":"5f7c855c5be70d1bdcbf5ebf54138c06b3ebaf0d9f88c791c7630efea9779a98","id":130339336,"location_subtype":"","month":"2025-07"},{"category":"criminal-damage-arson","location_type":"Force","location":{"latitude":"51.611771","street":{"id":1709920,"name":"On or near Tring Gardens"},"longitude":"0.230060"},"context":"","outcome_status":{"category":"Investigation complete; no suspect identified","date":"2025-07"},"persistent_id":"271fc538f812f28ec99c62d959c1f84ef02ae102816d968a61eeb0fc5ccd7e1b","id":130339470,"location_subtype":"","month":"2025-07"},{"category":"criminal-damage-arson","location_type":"Force","location":{"latitude":"51.589152","street":{"id":1709997,"name":"On or near Harold View"},"longitude":"0.233471"},"context":"","outcome_status":{"category":"Investigation complete; no suspect identified","date":"2025-07"},"persistent_id":"5bcda5fd212ce93c6e50c9201cdcff94a6bad87e0c89a050640b275fbc4e8428","id":130332169,"location_subtype":"","month":"2025-07"},{"category":"criminal-damage-arson","location_type":"Force","location":{"latitude":"51.588493","street":{"id":1709871,"name":"On or near Court Way"},"longitude":"0.227448"},"context":"","outcome_status":{"category":"Unable to prosecute suspect","date":"2025-08"},"persistent_id":"99591b0f74cd25e8466ba4056ca0287121917e6ae492da725588e7a15a9b5c1f","id":130376610,"location_subtype":"","month":"2025-07"},{"category":"criminal-damage-arson","location_type":"Force","location":{"latitude":"51.589125","street":{"id":1709905,"name":"On or near Lynross Close"},"longitude":"0.229225"},"context":"","outcome_status":{"category":"Investigation complete; no suspect identified","date":"2025-08"},"persistent_id":"5e2c239555c4ee6130bd212eb6b3cc730af2afb52ed6dd6d123f8d2c83ee32de","id":130388035,"location_subtype":"","month":"2025-07"},{"category":"criminal-damage-arson","location_type":"Force","location":{"latitude":"51.607674","street":{"id":1709340,"name":"On or near Longtown Close"},"longitude":"0.210362"},"context":"","outcome_status":{"category":"Unable to prosecute suspect","date":"2025-07"},"persistent_id":"71762aa48f029972633104a216f5159d8615d9aa93c73c4ee12d9426d96f4333","id":130349297,"location_subtype":"","month":"2025-07"},{"category":"criminal-damage-arson","location_type":"Force","location":{"latitude":"51.604872","street":{"id":1710107,"name":"On or near Leamington Close"},"longitude":"0.237203"},"context":"","outcome_status":{"category":"Investigation complete; no suspect identified","date":"2025-07"},"persistent_id":"ae1d1be7806ad7671ca7b5d943520cc329daf31c3cec1310064785634c593edb","id":130364436,"location_subtype":"","month":"2025-07"},{"category":"drugs","location_type":"Force","location":{"latitude":"51.609272","street":{"id":1709908,"name":"On or near Harkness Close"},"longitude":"0.230010"},"context":"","outcome_status":{"category":"Unable to prosecute suspect","date":"2025-07"},"persistent_id":"a18b3d73e1240f5e5c3879014fa8ed80d52de8a42fc252e35259cd1a60c9c637","id":130322586,"location_subtype":"","month":"2025-07"},{"category":"drugs","location_type":"Force","location":{"latitude":"51.603441","street":{"id":1709424,"name":"On or near Saddleworth Square"},"longitude":"0.212583"},"context":"","outcome_status":{"category":"Unable to prosecute suspect","date":"2025-11"},"persistent_id":"89bfc344a72639841796be42c59cb86197be4cd292feb48b07281ca56f1a58fe","id":130364572,"location_subtype":"","month":"2025-07"},{"category":"drugs","location_type":"Force","location":{"latitude":"51.598242","street":{"id":1709457,"name":"On or near Mimosa Close"},"longitude":"0.212648"},"context":"","outcome_status":{"category":"Status update unavailable","date":"2025-11"},"persistent_id":"da73b02b74d573532c13eedc6da8a0e50350bbf9ef8ad00805faaa85a773c9e1","id":130371207,"location_subtype":"","month":"2025-07"},{"category":"drugs","location_type":"Force","location":{"latitude":"51.598242","street":{"id":1709457,"name":"On or near Mimosa Close"},"longitude":"0.212648"},"context":"","outcome_status":{"category":"Local resolution","date":"2025-09"},"persistent_id":"da73b02b74d573532c13eedc6da8a0e50350bbf9ef8ad00805faaa85a773c9e1","id":130371208,"location_subtype":"","month":"2025-07"},{"category":"drugs","location_type":"Force","location":{"latitude":"51.599377","street":{"id":1709821,"name":"On or near Camborne Avenue"},"longitude":"0.225886"},"context":"","outcome_status":{"category":"Unable to prosecute suspect","date":"2025-07"},"persistent_id":"16186fa00ed470a36e6f9ef19314d90e8756b453a94d4e625f1d67c73bf90732","id":130372973,"location_subtype":"","month":"2025-07"},{"category":"drugs","location_type":"Force","location":{"latitude":"51.593299","street":{"id":1709736,"name":"On or near Sunflower Way"},"longitude":"0.221547"},"context":"","outcome_status":{"category":"Local resolution","date":"2025-08"},"persistent_id":"ceef75d9e24e04a929c75f8bb55ee06d2698c0c2208e4d4d06b2f579f9a1d90e","id":130374430,"location_subtype":"","month":"2025-07"},{"category":"drugs","location_type":"Force","location":{"latitude":"51.610737","street":{"id":1709741,"name":"On or near St Martins Place"},"longitude":"0.221517"},"context":"","outcome_status":{"category":"Unable to prosecute suspect","date":"2025-08"},"persistent_id":"11a95f8038da059c8bb41ec833879d946a2000e332d23e3db1c15b5470bcb181","id":130376169,"location_subtype":"","month":"2025-07"},{"category":"drugs","location_type":"Force","location":{"latitude":"51.606273","street":{"id":1710076,"name":"On or near Redcar Road"},"longitude":"0.235886"},"context":"","outcome_status":{"category":"Unable to prosecute suspect","date":"2025-07"},"persistent_id":"b7b66360c3afeef303ff6b7d2663faf674b8e1257f3fc0c576e208d4b51f67c5","id":130377873,"location_subtype":"","month":"2025-07"},{"category":"drugs","location_type":"Force","location":{"latitude":"51.606273","street":{"id":1710076,"name":"On or near Redcar Road"},"longitude":"0.235886"},"context":"","outcome_status":{"category":"Unable to prosecute suspect","date":"2025-07"},"persistent_id":"0c8c71a96f54e60da812af114e9ed2dadb492c76834f286e69d86e96ab4e23ee","id":130384205,"location_subtype":"","month":"2025-07"},{"category":"drugs","location_type":"Force","location":{"latitude":"51.591588","street":{"id":1709316,"name":"On or near Sports/recreation Area"},"longitude":"0.208703"},"context":"","outcome_status":{"category":"Status update unavailable","date":"2025-11"},"persistent_id":"2ff384b4b8a6566237cd8fee676d484566ee99fecad845077771b29b00b0c6a4","id":130384981,"location_subtype":"","month":"2025-07"},{"category":"drugs","location_type":"Force","location":{"latitude":"51.591588","street":{"id":1709316,"name":"On or near Sports/recreation Area"},"longitude":"0.208703"},"context":"","outcome_status":{"category":"Status update unavailable","date":"2025-11"},"persistent_id":"2ff384b4b8a6566237cd8fee676d484566ee99fecad845077771b29b00b0c6a4","id":130384982,"location_subtype":"","month":"2025-07"},{"category":"drugs","location_type":"Force","location":{"latitude":"51.605417","street":{"id":1709789,"name":"On or near Tansy Close"},"longitude":"0.223683"},"context":"","outcome_status":{"category":"Local resolution","date":"2025-09"},"persistent_id":"1651f94cce4594448dd85b1da478271bb068ec0c517429d8143a5d010870b535","id":130351923,"location_subtype":"","month":"2025-07"},{"category":"drugs","location_type":"Force","location":{"latitude":"51.604799","street":{"id":1709807,"name":"On or near Mirfield Close"},"longitude":"0.224000"},"context":"","outcome_status":{"category":"Local resolution","date":"2025-08"},"persistent_id":"8891230ed9d04a1dfb4cf401b79d9c1c4d5fc6f6ff1e877ec09f20b899634ce6","id":130331197,"location_subtype":"","month":"2025-07"},{"category":"drugs","location_type":"Force","location":{"latitude":"51.600438","street":{"id":1709766,"name":"On or near Leyburn Road"},"longitude":"0.223065"},"context":"","outcome_status":{"category":"Unable to prosecute suspect","date":"2025-07"},"persistent_id":"bb3a051e755d14a9bb9f17a3382e409cb7f3bc34fa04324f43c02ccef361e175","id":130321280,"location_subtype":"","month":"2025-07"},{"category":"drugs","location_type":"Force","location":{"latitude":"51.593602","street":{"id":1710020,"name":"On or near Supermarket"},"longitude":"0.233402"},"context":"","outcome_status":{"category":"Local resolution","date":"2025-09"},"persistent_id":"079073afc19c283ef5b4e82f3314ad313fe5413d7d9f165ba1c5faeefdbd5013","id":130364567,"location_subtype":"","month":"2025-07"},{"category":"drugs","location_type":"Force","location":{"latitude":"51.601506","street":{"id":1709470,"name":"On or near Barberry Close"},"longitude":"0.213167"},"context":"","outcome_status":{"category":"Status update unavailable","date":"2025-11"},"persistent_id":"5080265a8e679acfd7ce80ac387bc9e0dde97279d3468199b4716512848370be","id":130352095,"location_subtype":"","month":"2025-07"},{"category":"drugs","location_type":"Force","location":{"latitude":"51.604111","street":{"id":1709722,"name":"On or near Dewsbury Gardens"},"longitude":"0.222349"},"context":"","outcome_status":{"category":"Unable to prosecute suspect","date":"2025-07"},"persistent_id":"022af26a2815e796a99e784ee55b8dad6c2bb20b1867034fd54ebc9474c09ad3","id":130309553,"location_subtype":"","month":"2025-07"},{"category":"drugs","location_type":"Force","location":{"latitude":"51.599749","street":{"id":1709575,"name":"On or near Briar Road"},"longitude":"0.216215"},"context":"","outcome_status":{"category":"Status update unavailable","date":"2025-11"},"persistent_id":"b971038062a1b6fc576f95e22cdca67bbd2ad9d6154491c4016b635e610ad0fd","id":130352125,"location_subtype":"","month":"2025-07"},{"category":"drugs","location_type":"Force","location":{"latitude":"51.596196","street":{"id":1709609,"name":"On or near Neave Crescent"},"longitude":"0.216721"},"context":"","outcome_status":{"category":"Local resolution","date":"2025-09"},"persistent_id":"f74f2c39f465c5a1874b518750f7fed0dd663080312d9acf5680ad4bf4351d2f","id":130316636,"location_subtype":"","month":"2025-07"},{"category":"drugs","location_type":"Force","location":{"latitude":"51.609793","street":{"id":1709558,"name":"On or near Bridgwater Walk"},"longitude":"0.216271"},"context":"","outcome_status":{"category":"Status update unavailable","date":"2025-11"},"persistent_id":"ac0deffa9cad50ac5c7b8286131e73672d4340a60e8d939aba1778e08aada419","id":130316626,"location_subtype":"","month":"2025-07"},{"category":"drugs","location_type":"Force","location":{"latitude":"51.593885","street":{"id":1709738,"name":"On or near Copperfields Way"},"longitude":"0.221012"},"context":"","outcome_status":{"category":"Unable to prosecute suspect","date":"2025-07"},"persistent_id":"224f1ca16d8502f4233efe4d8e4a806569279cb9fbee3c3bfb124b0810a007d3","id":130335719,"location_subtype":"","month":"2025-07"},{"category":"drugs","location_type":"Force","location":{"latitude":"51.601418","street":{"id":1710063,"name":"On or near St Neot's Road"},"longitude":"0.234867"},"context":"","outcome_status":{"category":"Unable to prosecute suspect","date":"2025-07"},"persistent_id":"b2393230ed19bb2b474d92730436c8430f2df00674baf331f6653f4912f02569","id":130338832,"location_subtype":"","month":"2025-07"},{"category":"drugs","location_type":"Force","location":{"latitude":"51.609793","street":{"id":1709558,"name":"On or near Bridgwater Walk"},"longitude":"0.216271"},"context":"","outcome_status":{"category":"Unable to prosecute suspect","date":"2025-07"},"persistent_id":"4fbe065d0042f9cbbe00d889b8ea0344ddda88b441b6e898e402ecbbb1ae5bba","id":130353440,"location_subtype":"","month":"2025-07"},{"category":"drugs","location_type":"Force","location":{"latitude":"51.609272","street":{"id":1709908,"name":"On or near Harkness Close"},"longitude":"0.230010"},"context":"","outcome_status":{"category":"Local resolution","date":"2025-11"},"persistent_id":"417143cb75a7a61957c3418b4737ea3f2729be6d281617d26214992513c30a5c","id":130355812,"location_subtype":"","month":"2025-07"},{"category":"other-theft","location_type":"Force","location":{"latitude":"51.611156","street":{"id":1709569,"name":"On or near Leigh Drive"},"longitude":"0.215991"},"context":"","outcome_status":{"category":"Investigation complete; no suspect identified","date":"2025-07"},"persistent_id":"9e2a62d6d7f898629220f3e25a513278e330769f27fe001b79cc9bfb6555fc1e","id":130320752,"location_subtype":"","month":"2025-07"},{"category":"other-theft","location_type":"Force","location":{"latitude":"51.601506","street":{"id":1709470,"name":"On or near Barberry Close"},"longitude":"0.213167"},"context":"","outcome_status":{"category":"Investigation complete; no suspect identified","date":"2025-08"},"persistent_id":"ea766d44a898117a8d9abe28d61dc4317b697468326baa9965a5339f43b672ff","id":130370634,"location_subtype":"","month":"2025-07"},{"category":"other-theft","location_type":"Force","location":{"latitude":"51.595814","street":{"id":1709693,"name":"On or near Tangent Link"},"longitude":"0.221236"},"context":"","outcome_status":{"category":"Unable to prosecute suspect","date":"2025-07"},"persistent_id":"7ab20c5c8beb0237909a340fcefbd691e8b0baa56f839f1c6b684ffef2167905","id":130378339,"location_subtype":"","month":"2025-07"},{"category":"other-theft","location_type":"Force","location":{"latitude":"51.597148","street":{"id":1709577,"name":"On or near Petrol Station"},"longitude":"0.216649"},"context":"","outcome_status":{"category":"Investigation complete; no suspect identified","date":"2025-07"},"persistent_id":"89d081402387d443219d41d8a0e46b63ba7ed87bf217bbecdbedccaaffe3f61e","id":130343659,"location_subtype":"","month":"2025-07"},{"category":"other-theft","location_type":"Force","location":{"latitude":"51.601844","street":{"id":1709157,"name":"On or near Archway"},"longitude":"0.205747"},"context":"","outcome_status":{"category":"Investigation complete; no suspect identified","date":"2025-07"},"persistent_id":"7e190ab38f0f2f9fdad2b9a5a7afa5cdd27837fbc4eeb5c930d63bb60d367064","id":130344612,"location_subtype":"","month":"2025-07"},{"category":"other-theft","location_type":"Force","location":{"latitude":"51.600823","street":{"id":1709601,"name":"On or near Harebell Way"},"longitude":"0.217437"},"context":"","outcome_status":{"category":"Investigation complete; no suspect identified","date":"2025-07"},"persistent_id":"c366d6c813a3a7836e93d16c4fdacd9f40af2c5bf1b3cd556c568e2f82c708bc","id":130347672,"location_subtype":"","month":"2025-07"},{"category":"other-theft","location_type":"Force","location":{"latitude":"51.600438","street":{"id":1709766,"name":"On or near Leyburn Road"},"longitude":"0.223065"},"context":"","outcome_status":{"category":"Investigation complete; no suspect identified","date":"2025-08"},"persistent_id":"8a3499db0270655eb7c01b4f88652cde34630040015473fbc8bc9eb75706db6a","id":130309342,"location_subtype":"","month":"2025-07"},{"category":"other-theft","location_type":"Force","location":{"latitude":"51.597151","street":{"id":1709170,"name":"On or near Elliott Gardens"},"longitude":"0.203252"},"context":"","outcome_status":{"category":"Unable to prosecute suspect","date":"2025-07"},"persistent_id":"9cdfa0e8c972f7eb9e1f0195c43e1277d26c2c51b5a49d681f044149fd8276e9","id":130309364,"location_subtype":"","month":"2025-07"},{"category":"other-theft","location_type":"Force","location":{"latitude":"51.606601","street":{"id":1709642,"name":"On or near Supermarket"},"longitude":"0.218252"},"context":"","outcome_status":{"category":"Investigation complete; no suspect identified","date":"2025-07"},"persistent_id":"fef75bd00254ea09b41ec3b0209e1e59a8a61cc599acc093159cb5f413045d53","id":130352997,"location_subtype":"","month":"2025-07"},{"category":"other-theft","location_type":"Force","location":{"latitude":"51.597148","street":{"id":1709577,"name":"On or near Petrol Station"},"longitude":"0.216649"},"context":"","outcome_status":{"category":"Investigation complete; no suspect identified","date":"2025-12"},"persistent_id":"6022e496a93ddb9764fcce93e4187b22d0ad155e37a1bfa01d34ec7baa00b72f","id":130364192,"location_subtype":"","month":"2025-07"},{"category":"other-theft","location_type":"Force","location":{"latitude":"51.593874","street":{"id":1709504,"name":"On or near Launceston Close"},"longitude":"0.214442"},"context":"","outcome_status":{"category":"Investigation complete; no suspect identified","date":"2025-08"},"persistent_id":"7521281b7a9a5be837304b7bba5a0d987dfb8400c569dba439dec3451e3352fd","id":130385036,"location_subtype":"","month":"2025-07"},{"category":"other-theft","location_type":"Force","location":{"latitude":"51.600533","street":{"id":1709474,"name":"On or near Rosehip Close"},"longitude":"0.213235"},"context":"","outcome_status":{"category":"Investigation complete; no suspect identified","date":"2025-07"},"persistent_id":"1ef4d88f83b9c50ad3a9e5c9a4d04b60385cae6a8ecc0db07343a64f6d78413e","id":130333061,"location_subtype":"","month":"2025-07"},{"category":"other-theft","location_type":"Force","location":{"latitude":"51.604343","street":{"id":1709410,"name":"On or near Charlbury Close"},"longitude":"0.211529"},"context":"","outcome_status":{"category":"Investigation complete; no suspect identified","date":"2025-07"},"persistent_id":"9eef50e2d6b55284bcad4095914036edaa08cfda7bc053356bc7e62b070fa256","id":130353538,"location_subtype":"","month":"2025-07"},{"category":"other-theft","location_type":"Force","location":{"latitude":"51.609315","street":{"id":1709522,"name":"On or near Barnstaple Road"},"longitude":"0.215381"},"context":"","outcome_status":{"category":"Unable to prosecute suspect","date":"2025-08"},"persistent_id":"de898b9c541fa516eb062c171cdf0082208d2f50a0f705d95167a62668cba1d9","id":130389832,"location_subtype":"","month":"2025-07"},{"category":"other-theft","location_type":"Force","location":{"latitude":"51.605303","street":{"id":1710067,"name":"On or near Hucknall Close"},"longitude":"0.235809"},"context":"","outcome_status":{"category":"Investigation complete; no suspect identified","date":"2025-07"},"persistent_id":"3a5bdfcdd0ae039ff68868a98c79dbb7e914788bd404e0115df94b01b2e223ac","id":130374660,"location_subtype":"","month":"2025-07"},{"category":"other-theft","location_type":"Force","location":{"latitude":"51.593601","street":{"id":1710038,"name":"On or near Station Road"},"longitude":"0.234079"},"context":"","outcome_status":{"category":"Investigation complete; no suspect identified","date":"2025-07"},"persistent_id":"370de5a6059c2acd73e9c820fb5c98a3c05b7be0537aaa2a018f2cd143aa57d6","id":130335008,"location_subtype":"","month":"2025-07"},{"category":"other-theft","location_type":"Force","location":{"latitude":"51.598999","street":{"id":1709150,"name":"On or near Keats Avenue"},"longitude":"0.202533"},"context":"","outcome_status":{"category":"Investigation complete; no suspect identified","date":"2025-07"},"persistent_id":"b92e61bf3f0df1d0decceaa253d899365da203587000cb85a7f55162a4539b46","id":130313394,"location_subtype":"","month":"2025-07"},{"category":"other-theft","location_type":"Force","location":{"latitude":"51.589648","street":{"id":1709760,"name":"On or near Cavell Crescent"},"longitude":"0.222509"},"context":"","outcome_status":{"category":"Unable to prosecute suspect","date":"2025-11"},"persistent_id":"06dc83ad1c4763a2e6a8d3e0aed1213f36df2ff9a6704292e5847035bf1db01e","id":130355889,"location_subtype":"","month":"2025-07"},{"category":"other-theft","location_type":"Force","location":{"latitude":"51.611928","street":{"id":1709673,"name":"On or near Joyes Close"},"longitude":"0.219408"},"context":"","outcome_status":{"category":"Investigation complete; no suspect identified","date":"2025-07"},"persistent_id":"80d3eaf6e07d7411615bca2a64e7c0bf6abb5e9e9662383e89ad87519c573079","id":130315757,"location_subtype":"","month":"2025-07"},{"category":"other-theft","location_type":"Force","location":{"latitude":"51.602701","street":{"id":1709509,"name":"On or near Honeysuckle Close"},"longitude":"0.215146"},"context":"","outcome_status":{"category":"Investigation complete; no suspect identified","date":"2025-07"},"persistent_id":"bd54b18dc92ad1140f13d3017014690bdfbab01f6d9240cee81e3b9ae3380663","id":130364575,"location_subtype":"","month":"2025-07"},{"category":"other-theft","location_type":"Force","location":{"latitude":"51.597148","street":{"id":1709577,"name":"On or near Petrol Station"},"longitude":"0.216649"},"context":"","outcome_status":{"category":"Investigation complete; no suspect identified","date":"2025-07"},"persistent_id":"4b5b01216bbbfa10e685ed5dc734e91d8d923128eed7b26c43e665b44b6567a1","id":130330508,"location_subtype":"","month":"2025-07"},{"category":"other-theft","location_type":"Force","location":{"latitude":"51.590184","street":{"id":1709483,"name":"On or near Ferguson Court"},"longitude":"0.215086"},"context":"","outcome_status":{"category":"Investigation complete; no suspect identified","date":"2025-07"},"persistent_id":"182859944e446e11b2cf2507403ea1da717be37431c650de7a33e98aaa7db00a","id":130349867,"location_subtype":"","month":"2025-07"},{"category":"other-theft","location_type":"Force","location":{"latitude":"51.610436","street":{"id":1709843,"name":"On or near Broseley Road"},"longitude":"0.226471"},"context":"","outcome_status":{"category":"Unable to prosecute suspect","date":"2025-07"},"persistent_id":"00141ca8df02b8b8fd6ff5744b17dc618033835bac2a375c839352cfa9ecd112","id":130339461,"location_subtype":"","month":"2025-07"},{"category":"other-theft","location_type":"Force","location":{"latitude":"51.600533","street":{"id":1709474,"name":"On or near Rosehip Close"},"longitude":"0.213235"},"context":"","outcome_status":{"category":"Unable to prosecute suspect","date":"2025-10"},"persistent_id":"879c617a2ac69509960b08a1d3d1e866ae17129872efc9dc16336516d1799abf","id":130368372,"location_subtype":"","month":"2025-07"},{"category":"other-theft","location_type":"Force","location":{"latitude":"51.593578","street":{"id":1709632,"name":"On or near Supermarket"},"longitude":"0.218673"},"context":"","outcome_status":{"category":"Investigation complete; no suspect identified","date":"2025-11"},"persistent_id":"b830a248c672e910513938a42ca5adb48f2edcf3041e5b005290266bdfa67083","id":130353126,"location_subtype":"","month":"2025-07"},{"category":"other-theft","location_type":"Force","location":{"latitude":"51.607648","street":{"id":1709742,"name":"On or near Sports/recreation Area"},"longitude":"0.225153"},"context":"","outcome_status":{"category":"Investigation complete; no suspect identified","date":"2025-07"},"persistent_id":"246ad9586d205ab262108a2ab47f20c7979e84fae8d009f45b8bfa9de2231238","id":130379455,"location_subtype":"","month":"2025-07"},{"category":"possession-of-weapons","location_type":"Force","location":{"latitude":"51.599691","street":{"id":1709729,"name":"On or near Faringdon Avenue"},"longitude":"0.221151"},"context":"","outcome_status":{"category":"Awaiting court outcome","date":"2025-09"},"persistent_id":"8a767a7bd742d197fb67b65dd1b82e999da931c29e5d7c5ba9e866861cfbdf98","id":130336798,"location_subtype":"","month":"2025-07"},{"category":"possession-of-weapons","location_type":"Force","location":{"latitude":"51.593306","street":{"id":1709849,"name":"On or near Rose Garden Close"},"longitude":"0.226413"},"context":"","outcome_status":{"category":"Local resolution","date":"2025-07"},"persistent_id":"550b2f834d221ce49594183d5dc30910832d1262bb2f03046f148914df9fd515","id":130363256,"location_subtype":"","month":"2025-07"},{"category":"public-order","location_type":"Force","location":{"latitude":"51.605303","street":{"id":1710067,"name":"On or near Hucknall Close"},"longitude":"0.235809"},"context":"","outcome_status":{"category":"Unable to prosecute suspect","date":"2025-07"},"persistent_id":"056ba844134f34130c6dfe5739fbcf4d2f3311d493f2f0cc3df0dfa75fc29b58","id":130385433,"location_subtype":"","month":"2025-07"},{"category":"public-order","location_type":"Force","location":{"latitude":"51.591344","street":{"id":1709563,"name":"On or near Bryant Avenue"},"longitude":"0.218896"},"context":"","outcome_status":{"category":"Unable to prosecute suspect","date":"2025-07"},"persistent_id":"b41f424f95c9d74a1ca97a00241bf23cc62b3fde5062cdb3ec0f34fe0e6b71ff","id":130355701,"location_subtype":"","month":"2025-07"},{"category":"public-order","location_type":"Force","location":{"latitude":"51.597148","street":{"id":1709577,"name":"On or near Petrol Station"},"longitude":"0.216649"},"context":"","outcome_status":{"category":"Investigation complete; no suspect identified","date":"2025-07"},"persistent_id":"379e6a8fe2d129f8574da2562db2f0ec3c3194e48f32ebb8075429605ec67c23","id":130374893,"location_subtype":"","month":"2025-07"},{"category":"public-order","location_type":"Force","location":{"latitude":"51.601045","street":{"id":1709907,"name":"On or near Halesworth Close"},"longitude":"0.228495"},"context":"","outcome_status":{"category":"Status update unavailable","date":"2025-11"},"persistent_id":"e5060c3123eaeb45a664d3cd0703c321cb6b9c81411c4d2ad419fce9e09a760a","id":130338227,"location_subtype":"","month":"2025-07"},{"category":"public-order","location_type":"Force","location":{"latitude":"51.592296","street":{"id":1709459,"name":"On or near Shopping Area"},"longitude":"0.214468"},"context":"","outcome_status":{"category":"Investigation complete; no suspect identified","date":"2025-07"},"persistent_id":"fbe275133bbbb1fe03ee96ee898dab4d079db53370e59e9bb8fcb7e17c19206f","id":130335280,"location_subtype":"","month":"2025-07"},{"category":"public-order","location_type":"Force","location":{"latitude":"51.605303","street":{"id":1710067,"name":"On or near Hucknall Close"},"longitude":"0.235809"},"context":"","outcome_status":{"category":"Investigation complete; no suspect identified","date":"2025-07"},"persistent_id":"cc188722691c1ce3e11f0cf38f89484691c28b416bc7343afa6e17fddf105c96","id":130337480,"location_subtype":"","month":"2025-07"},{"category":"public-order","location_type":"Force","location":{"latitude":"51.605303","street":{"id":1710067,"name":"On or near Hucknall Close"},"longitude":"0.235809"},"context":"","outcome_status":{"category":"Status update unavailable","date":"2025-11"},"persistent_id":"cc188722691c1ce3e11f0cf38f89484691c28b416bc7343afa6e17fddf105c96","id":130337479,"location_subtype":"","month":"2025-07"},{"category":"public-order","location_type":"Force","location":{"latitude":"51.600515","street":{"id":1710143,"name":"On or near Court Avenue"},"longitude":"0.240729"},"context":"","outcome_status":{"category":"Unable to prosecute suspect","date":"2025-09"},"persistent_id":"3f29e58204a60356dab907814fecd98436c3363624f49b9a655fbe4a7e69fd8c","id":130324998,"location_subtype":"","month":"2025-07"},{"category":"public-order","location_type":"Force","location":{"latitude":"51.593578","street":{"id":1709632,"name":"On or near Supermarket"},"longitude":"0.218673"},"context":"","outcome_status":{"category":"Unable to prosecute suspect","date":"2025-10"},"persistent_id":"3b03e2c7268a8c426c9d5f9e75725c25c5f3f83b2274b5fcc22ff90d9a9c636a","id":130373510,"location_subtype":"","month":"2025-07"},{"category":"public-order","location_type":"Force","location":{"latitude":"51.608372","street":{"id":1709272,"name":"On or near Stanwyck Gardens"},"longitude":"0.207175"},"context":"","outcome_status":{"category":"Investigation complete; no suspect identified","date":"2025-09"},"persistent_id":"29f867a8ebf6ccad0b2d43110e790069eccb7fc05aff6752a77c7d11d9ac1f68","id":130309116,"location_subtype":"","month":"2025-07"},{"category":"public-order","location_type":"Force","location":{"latitude":"51.593671","street":{"id":1709365,"name":"On or near Shenstone Gardens"},"longitude":"0.212310"},"context":"","outcome_status":{"category":"Investigation complete; no suspect identified","date":"2025-07"},"persistent_id":"90befce3a9dc0f853b2dd0e632aeadeab4bce96a654607cd80e8725708d3abbe","id":130363463,"location_subtype":"","month":"2025-07"},{"category":"public-order","location_type":"Force","location":{"latitude":"51.595323","street":{"id":1709559,"name":"On or near Paignton Close"},"longitude":"0.216303"},"context":"","outcome_status":{"category":"Unable to prosecute suspect","date":"2025-08"},"persistent_id":"fe7d12f8ba80fd411a57088438609fd8ac8aa9c1b61325344d6bdd48192fb9bd","id":130310064,"location_subtype":"","month":"2025-07"},{"category":"public-order","location_type":"Force","location":{"latitude":"51.597553","street":{"id":1709028,"name":"On or near Ruskin Gardens"},"longitude":"0.202434"},"context":"","outcome_status":{"category":"Unable to prosecute suspect","date":"2025-09"},"persistent_id":"d5f1ac89ef91e3643d94b1766ae0296fbd0f5bf05c3e4dfda7b28f8336c8bf5f","id":130358777,"location_subtype":"","month":"2025-07"},{"category":"public-order","location_type":"Force","location":{"latitude":"51.604131","street":{"id":1710055,"name":"On or near Colne Drive"},"longitude":"0.234582"},"context":"","outcome_status":{"category":"Court result unavailable","date":"2026-01"},"persistent_id":"d57f192b62cf238363950b017fa87368f0566cd06def654b7ba42b80243c030b","id":130377912,"location_subtype":"","month":"2025-07"},{"category":"public-order","location_type":"Force","location":{"latitude":"51.600438","street":{"id":1709766,"name":"On or near Leyburn Road"},"longitude":"0.223065"},"context":"","outcome_status":{"category":"Investigation complete; no suspect identified","date":"2025-09"},"persistent_id":"be92d0518d524f8dc494818ddb2869ee5fb222b75b057efb64be3e8128335353","id":130362669,"location_subtype":"","month":"2025-07"},{"category":"public-order","location_type":"Force","location":{"latitude":"51.597776","street":{"id":1709289,"name":"On or near Tennyson Road"},"longitude":"0.207831"},"context":"","outcome_status":{"category":"Unable to prosecute suspect","date":"2025-07"},"persistent_id":"12c3887dbafb1b30e4fba1717d0ba1fc8f32631c4873f9e10ee169bfe6b5c468","id":130314230,"location_subtype":"","month":"2025-07"},{"category":"public-order","location_type":"Force","location":{"latitude":"51.609315","street":{"id":1709522,"name":"On or near Barnstaple Road"},"longitude":"0.215381"},"context":"","outcome_status":{"category":"Unable to prosecute suspect","date":"2025-09"},"persistent_id":"335406f068288870ab9aca09e2b701fe482d640a326b2b62ba700dddb6828021","id":130363283,"location_subtype":"","month":"2025-07"},{"category":"public-order","location_type":"Force","location":{"latitude":"51.611290","street":{"id":1709817,"name":"On or near Broseley Gardens"},"longitude":"0.226513"},"context":"","outcome_status":{"category":"Unable to prosecute suspect","date":"2025-10"},"persistent_id":"fe40a11b3f7d91c0c79149e1af8e019362a9055c836bae83f4ae48bf1e7715bd","id":130308672,"location_subtype":"","month":"2025-07"},{"category":"public-order","location_type":"Force","location":{"latitude":"51.607383","street":{"id":1710203,"name":"On or near Sidhu Mews"},"longitude":"0.243248"},"context":"","outcome_status":{"category":"Unable to prosecute suspect","date":"2025-09"},"persistent_id":"609890e9c6937eff289af06e8bef50630faecd120c994311f7de1e8d801298c3","id":130343981,"location_subtype":"","month":"2025-07"},{"category":"public-order","location_type":"Force","location":{"latitude":"51.606616","street":{"id":1709388,"name":"On or near Daventry Gardens"},"longitude":"0.211163"},"context":"","outcome_status":{"category":"Status update unavailable","date":"2025-11"},"persistent_id":"6ef61e4e54516dbad0b452f99919c39c6dbc249609aa54c5ddfc55a6511630db","id":130377124,"location_subtype":"","month":"2025-07"},{"category":"public-order","location_type":"Force","location":{"latitude":"51.611290","street":{"id":1709817,"name":"On or near Broseley Gardens"},"longitude":"0.226513"},"context":"","outcome_status":{"category":"Unable to prosecute suspect","date":"2025-09"},"persistent_id":"0da4b2d07c34ae52f90267f40d9187155bd0c16780950faa116b0e30f910b6be","id":130308701,"location_subtype":"","month":"2025-07"},{"category":"public-order","location_type":"Force","location":{"latitude":"51.607648","street":{"id":1709742,"name":"On or near Sports/recreation Area"},"longitude":"0.225153"},"context":"","outcome_status":{"category":"Investigation complete; no suspect identified","date":"2025-08"},"persistent_id":"0b54a40a0bac951440cd85134a7686b46730e57f3f7290d17d5f03954760a8dd","id":130371881,"location_subtype":"","month":"2025-07"},{"category":"public-order","location_type":"Force","location":{"latitude":"51.596021","street":{"id":1709036,"name":"On or near Bell Avenue"},"longitude":"0.204526"},"context":"","outcome_status":{"category":"Investigation complete; no suspect identified","date":"2025-09"},"persistent_id":"9116ffa8aefe5f4ac9d716c094c994a9a8539e790c8e6207dab656d5586d02fb","id":130347986,"location_subtype":"","month":"2025-07"},{"category":"public-order","location_type":"Force","location":{"latitude":"51.611290","street":{"id":1709817,"name":"On or near Broseley Gardens"},"longitude":"0.226513"},"context":"","outcome_status":{"category":"Unable to prosecute suspect","date":"2025-08"},"persistent_id":"ed83c325d72d833339f700023ceb760957be2bb39eb00439728093c9f13720a8","id":130326071,"location_subtype":"","month":"2025-07"},{"category":"public-order","location_type":"Force","location":{"latitude":"51.606548","street":{"id":1709837,"name":"On or near Sudbury Close"},"longitude":"0.225674"},"context":"","outcome_status":{"category":"Unable to prosecute suspect","date":"2025-08"},"persistent_id":"15853728d137380e1e82a898360936129497eb5d1a370f4b8162620dbec1ee92","id":130345940,"location_subtype":"","month":"2025-07"},{"category":"public-order","location_type":"Force","location":{"latitude":"51.603719","street":{"id":1709274,"name":"On or near Serene Mews"},"longitude":"0.207412"},"context":"","outcome_status":{"category":"Investigation complete; no suspect identified","date":"2025-08"},"persistent_id":"e62954e2b95fc01e525ff2f4d75d52b5865f9219d28b55885d0fc0b93b4340a3","id":130349450,"location_subtype":"","month":"2025-07"},{"category":"robbery","location_type":"Force","location":{"latitude":"51.593602","street":{"id":1710020,"name":"On or near Supermarket"},"longitude":"0.233402"},"context":"","outcome_status":{"category":"Unable to prosecute suspect","date":"2025-07"},"persistent_id":"8eae8fba2a5b7ddcaf50fd99556562fa49beab396909d98fbb5fa0228b7a7805","id":130340331,"location_subtype":"","month":"2025-07"},{"category":"robbery","location_type":"Force","location":{"latitude":"51.604748","street":{"id":1709633,"name":"On or near Dartfields"},"longitude":"0.218625"},"context":"","outcome_status":{"category":"Unable to prosecute suspect","date":"2025-07"},"persistent_id":"1a5c11629fa78c401b9eb4ec93c627a88fbe759606fa70ea9b2d84fb28886c5e","id":130363088,"location_subtype":"","month":"2025-07"},{"category":"robbery","location_type":"Force","location":{"latitude":"51.592220","street":{"id":1710004,"name":"On or near Matthews Close"},"longitude":"0.233391"},"context":"","outcome_status":{"category":"Investigation complete; no suspect identified","date":"2025-08"},"persistent_id":"48ed4c2c6f3501dcb6a303d6514ecc838bb815ef2e3ade993c010dbcc9e3561c","id":130362273,"location_subtype":"","month":"2025-07"},{"category":"robbery","location_type":"Force","location":{"latitude":"51.595814","street":{"id":1709693,"name":"On or near Tangent Link"},"longitude":"0.221236"},"context":"","outcome_status":{"category":"Investigation complete; no suspect identified","date":"2025-08"},"persistent_id":"8f32299b99c9056f44c922cab258a7f1d0f9d9ea8c977e5f966ea955757f2fb1","id":130385789,"location_subtype":"","month":"2025-07"},{"category":"robbery","location_type":"Force","location":{"latitude":"51.592534","street":{"id":1709957,"name":"On or near Wildcary Lane"},"longitude":"0.230605"},"context":"","outcome_status":{"category":"Investigation complete; no suspect identified","date":"2025-09"},"persistent_id":"f53e8046d8abb3a350b97d0f8b454970bcf103693b742340cfa2dbf1e579ba8a","id":130364221,"location_subtype":"","month":"2025-07"},{"category":"robbery","location_type":"Force","location":{"latitude":"51.608777","street":{"id":1709594,"name":"On or near Darlington Gardens"},"longitude":"0.217695"},"context":"","outcome_status":{"category":"Unable to prosecute suspect","date":"2025-09"},"persistent_id":"8297e5d58f815ac74bf64f906fedd54670bad37fcb240806e97dd424773f08ce","id":130359680,"location_subtype":"","month":"2025-07"},{"category":"robbery","location_type":"Force","location":{"latitude":"51.604554","street":{"id":1709464,"name":"On or near Bosworth Crescent"},"longitude":"0.214124"},"context":"","outcome_status":{"category":"Unable to prosecute suspect","date":"2025-08"},"persistent_id":"0be26d6d98502d1220b75129dfd8cabc8fbf0e8f904d1bffcac69f36110194e2","id":130380642,"location_subtype":"","month":"2025-07"},{"category":"robbery","location_type":"Force","location":{"latitude":"51.610555","street":{"id":1709348,"name":"On or near Le Noke Avenue"},"longitude":"0.210184"},"context":"","outcome_status":{"category":"Investigation complete; no suspect identified","date":"2025-09"},"persistent_id":"c583e8b7a8f839e4467b5de5d3a8abf82c43eccc53cd30128dccd198b9502383","id":130363015,"location_subtype":"","month":"2025-07"},{"category":"shoplifting","location_type":"Force","location":{"latitude":"51.595814","street":{"id":1709693,"name":"On or near Tangent Link"},"longitude":"0.221236"},"context":"","outcome_status":{"category":"Investigation complete; no suspect identified","date":"2025-07"},"persistent_id":"db71ce0655b0342191907b7fa61f1d68fc50eb9a4a44d6085b109e02cef3c906","id":130344437,"location_subtype":"","month":"2025-07"},{"category":"shoplifting","location_type":"Force","location":{"latitude":"51.606601","street":{"id":1709642,"name":"On or near Supermarket"},"longitude":"0.218252"},"context":"","outcome_status":{"category":"Unable to prosecute suspect","date":"2025-07"},"persistent_id":"4e097dcc4c972d01b9afec3cc7fb72508c35ca8993fbff7651bf430c24d0c4d5","id":130332081,"location_subtype":"","month":"2025-07"},{"category":"shoplifting","location_type":"Force","location":{"latitude":"51.605731","street":{"id":1709788,"name":"On or near Supermarket"},"longitude":"0.224175"},"context":"","outcome_status":{"category":"Unable to prosecute suspect","date":"2025-11"},"persistent_id":"a9e349c702e2ed202f66db6550d39a83f33e2eb014c104fefb4f3c4600d48afd","id":130310866,"location_subtype":"","month":"2025-07"},{"category":"shoplifting","location_type":"Force","location":{"latitude":"51.605731","street":{"id":1709788,"name":"On or near Supermarket"},"longitude":"0.224175"},"context":"","outcome_status":{"category":"Investigation complete; no suspect identified","date":"2025-08"},"persistent_id":"7b0942ebab1afa3890fad290a806e28eda67a9b9647a855beadee1e37e182b0b","id":130311210,"location_subtype":"","month":"2025-07"},{"category":"shoplifting","location_type":"Force","location":{"latitude":"51.606601","street":{"id":1709642,"name":"On or near Supermarket"},"longitude":"0.218252"},"context":"","outcome_status":{"category":"Local resolution","date":"2025-07"},"persistent_id":"ffb41b5a97d23e8f34d704444478f3267649aac911f8f79f041322957740bc10","id":130386819,"location_subtype":"","month":"2025-07"},{"category":"shoplifting","location_type":"Force","location":{"latitude":"51.599691","street":{"id":1709729,"name":"On or near Faringdon Avenue"},"longitude":"0.221151"},"context":"","outcome_status":{"category":"Court result unavailable","date":"2026-01"},"persistent_id":"3be400dd24b75ec1da366e61fce882e6658ee48367ea8e95e03e372e4769cc1b","id":130310745,"location_subtype":"","month":"2025-07"},{"category":"shoplifting","location_type":"Force","location":{"latitude":"51.593602","street":{"id":1710020,"name":"On or near Supermarket"},"longitude":"0.233402"},"context":"","outcome_status":{"category":"Unable to prosecute suspect","date":"2025-12"},"persistent_id":"5ccc4812980c4a83eb8c8315b3eb50dc66cf1482d292a63f6a8017bcb9e1a700","id":130313056,"location_subtype":"","month":"2025-07"},{"category":"shoplifting","location_type":"Force","location":{"latitude":"51.606306","street":{"id":1709677,"name":"On or near Farnham Road"},"longitude":"0.219019"},"context":"","outcome_status":{"category":"Investigation complete; no suspect identified","date":"2025-09"},"persistent_id":"530c1b7d5259af17744625a93b344fe9fe3e3d199c0a457df36c6c4bc6fdb9d5","id":130313145,"location_subtype":"","month":"2025-07"},{"category":"shoplifting","location_type":"Force","location":{"latitude":"51.599691","street":{"id":1709729,"name":"On or near Faringdon Avenue"},"longitude":"0.221151"},"context":"","outcome_status":{"category":"Investigation complete; no suspect identified","date":"2025-07"},"persistent_id":"d94809b4d83ab0cda824205d38c7944a01f95fe33417c9e9d0231f4fa8bf8f7c","id":130313448,"location_subtype":"","month":"2025-07"},{"category":"shoplifting","location_type":"Force","location":{"latitude":"51.606601","street":{"id":1709642,"name":"On or near Supermarket"},"longitude":"0.218252"},"context":"","outcome_status":{"category":"Offender given penalty notice","date":"2025-09"},"persistent_id":"35b134823580753d98b5457ffd6df9d305a94539231588a6f78fdd1868123643","id":130386201,"location_subtype":"","month":"2025-07"},{"category":"shoplifting","location_type":"Force","location":{"latitude":"51.599691","street":{"id":1709729,"name":"On or near Faringdon Avenue"},"longitude":"0.221151"},"context":"","outcome_status":{"category":"Status update unavailable","date":"2025-11"},"persistent_id":"3a6f0259b7e429a00e7c377072310a300e9f5fedcbe7182a6a8d3399d9ccc593","id":130385983,"location_subtype":"","month":"2025-07"},{"category":"shoplifting","location_type":"Force","location":{"latitude":"51.606601","street":{"id":1709642,"name":"On or near Supermarket"},"longitude":"0.218252"},"context":"","outcome_status":{"category":"Unable to prosecute suspect","date":"2025-08"},"persistent_id":"f39f12d2ff1c0ee82562e6484d333923548b960044daca9cac82d877619e408b","id":130317066,"location_subtype":"","month":"2025-07"},{"category":"shoplifting","location_type":"Force","location":{"latitude":"51.599691","street":{"id":1709729,"name":"On or near Faringdon Avenue"},"longitude":"0.221151"},"context":"","outcome_status":{"category":"Formal action is not in the public interest","date":"2025-10"},"persistent_id":"7ab9297cadffae92179a8f00a85cd69c872e75c173e3ec7c5a1fd96f4df6260c","id":130340871,"location_subtype":"","month":"2025-07"},{"category":"shoplifting","location_type":"Force","location":{"latitude":"51.599691","street":{"id":1709729,"name":"On or near Faringdon Avenue"},"longitude":"0.221151"},"context":"","outcome_status":{"category":"Unable to prosecute suspect","date":"2025-08"},"persistent_id":"6db50168a4f750e2d634db2129dbe05ff12501963e236849f496a81e7fbf5836","id":130341711,"location_subtype":"","month":"2025-07"},{"category":"shoplifting","location_type":"Force","location":{"latitude":"51.599691","street":{"id":1709729,"name":"On or near Faringdon Avenue"},"longitude":"0.221151"},"context":"","outcome_status":{"category":"Unable to prosecute suspect","date":"2025-08"},"persistent_id":"22d2c976505db2c9584d487819f163c1ce3b9183f0a75b4c3ad2d5b4e6e3b722","id":130377545,"location_subtype":"","month":"2025-07"},{"category":"shoplifting","location_type":"Force","location":{"latitude":"51.606601","street":{"id":1709642,"name":"On or near Supermarket"},"longitude":"0.218252"},"context":"","outcome_status":{"category":"Investigation complete; no suspect identified","date":"2025-07"},"persistent_id":"76e5aa1a8b5111e9cc116467d636ea68fbcf22d52434807100224ca743e45352","id":130344966,"location_subtype":"","month":"2025-07"},{"category":"shoplifting","location_type":"Force","location":{"latitude":"51.606601","street":{"id":1709642,"name":"On or near Supermarket"},"longitude":"0.218252"},"context":"","outcome_status":{"category":"Formal action is not in the public interest","date":"2025-07"},"persistent_id":"d2e3158a0b94449062edd08fef35d354be3cf07d9ad9e4cc779c78fafe8568b2","id":130367100,"location_subtype":"","month":"2025-07"},{"category":"shoplifting","location_type":"Force","location":{"latitude":"51.595814","street":{"id":1709693,"name":"On or near Tangent Link"},"longitude":"0.221236"},"context":"","outcome_status":{"category":"Investigation complete; no suspect identified","date":"2025-07"},"persistent_id":"d55d00808675d3ce11df0d1de43767863d129b2bf330f000ccf1874ec37cd61c","id":130348250,"location_subtype":"","month":"2025-07"},{"category":"shoplifting","location_type":"Force","location":{"latitude":"51.593602","street":{"id":1710020,"name":"On or near Supermarket"},"longitude":"0.233402"},"context":"","outcome_status":{"category":"Investigation complete; no suspect identified","date":"2025-11"},"persistent_id":"8fb0b2fa38dae5a744b4f75f0cb610866345ce2c0d40f18a1353e2f54883e579","id":130348559,"location_subtype":"","month":"2025-07"},{"category":"shoplifting","location_type":"Force","location":{"latitude":"51.593578","street":{"id":1709632,"name":"On or near Supermarket"},"longitude":"0.218673"},"context":"","outcome_status":{"category":"Investigation complete; no suspect identified","date":"2025-08"},"persistent_id":"152dd5463753c054f1e0bbe086d1a7d36ad2dbd69e44f783e662cfd2e2016063","id":130321548,"location_subtype":"","month":"2025-07"},{"category":"shoplifting","location_type":"Force","location":{"latitude":"51.599691","street":{"id":1709729,"name":"On or near Faringdon Avenue"},"longitude":"0.221151"},"context":"","outcome_status":{"category":"Investigation complete; no suspect identified","date":"2025-07"},"persistent_id":"64b775f82a52bffd11f18a17ea2431e61645d3244a7dc06e2366714ddd88ff72","id":130349329,"location_subtype":"","month":"2025-07"},{"category":"shoplifting","location_type":"Force","location":{"latitude":"51.599691","street":{"id":1709729,"name":"On or near Faringdon Avenue"},"longitude":"0.221151"},"context":"","outcome_status":{"category":"Awaiting court outcome","date":"2025-11"},"persistent_id":"f8de370ee9c59c5314cc2f3c44533a442bb74ce3c0b5af553381ab17649c3d3d","id":130349407,"location_subtype":"","month":"2025-07"},{"category":"shoplifting","location_type":"Force","location":{"latitude":"51.606601","street":{"id":1709642,"name":"On or near Supermarket"},"longitude":"0.218252"},"context":"","outcome_status":{"category":"Investigation complete; no suspect identified","date":"2025-07"},"persistent_id":"957d266e67f655ef2031c36051fd87fa162b42bb0c03adc7d6125c23abf65c91","id":130351139,"location_subtype":"","month":"2025-07"},{"category":"shoplifting","location_type":"Force","location":{"latitude":"51.606601","street":{"id":1709642,"name":"On or near Supermarket"},"longitude":"0.218252"},"context":"","outcome_status":{"category":"Unable to prosecute suspect","date":"2025-09"},"persistent_id":"0273962ae37aa9112a67a22307b7b7ac2b875bf954756780dfca6aa5277e9566","id":130361714,"location_subtype":"","month":"2025-07"},{"category":"shoplifting","location_type":"Force","location":{"latitude":"51.595814","street":{"id":1709693,"name":"On or near Tangent Link"},"longitude":"0.221236"},"context":"","outcome_status":{"category":"Investigation complete; no suspect identified","date":"2025-07"},"persistent_id":"c875bf1363fbc2fc0de6dd4676c23e709b0cbef9a4a8082df5f14b5fa7ee147e","id":130329595,"location_subtype":"","month":"2025-07"},{"category":"shoplifting","location_type":"Force","location":{"latitude":"51.606601","street":{"id":1709642,"name":"On or near Supermarket"},"longitude":"0.218252"},"context":"","outcome_status":{"category":"Investigation complete; no suspect identified","date":"2025-07"},"persistent_id":"99058aa1c8da73c123f3a8dcd8d7bcea848871405074bc86c8342b2423db6f20","id":130334848,"location_subtype":"","month":"2025-07"},{"category":"theft-from-the-person","location_type":"Force","location":{"latitude":"51.605771","street":{"id":1709743,"name":"On or near Trowbridge Road"},"longitude":"0.223036"},"context":"","outcome_status":{"category":"Status update unavailable","date":"2025-11"},"persistent_id":"4d0685128bd613a7042f3a5d171d4ce3b40e5da3eb7ac9344b24e289f664e43a","id":130340715,"location_subtype":"","month":"2025-07"},{"category":"theft-from-the-person","location_type":"Force","location":{"latitude":"51.608990","street":{"id":1709297,"name":"On or near Hailsham Gardens"},"longitude":"0.210209"},"context":"","outcome_status":{"category":"Investigation complete; no suspect identified","date":"2025-07"},"persistent_id":"ac98a36013971a3884b030bee602c2cac77c0f7880926884bc67953d2a3bc9ee","id":130348242,"location_subtype":"","month":"2025-07"},{"category":"theft-from-the-person","location_type":"Force","location":{"latitude":"51.593578","street":{"id":1709632,"name":"On or near Supermarket"},"longitude":"0.218673"},"context":"","outcome_status":{"category":"Investigation complete; no suspect identified","date":"2025-07"},"persistent_id":"573f3b4d2f36d4929df50e334f19390e3d3dd3a1ad8eacd73eb7c05cf69f7cf0","id":130342927,"location_subtype":"","month":"2025-07"},{"category":"theft-from-the-person","location_type":"Force","location":{"latitude":"51.606306","street":{"id":1709677,"name":"On or near Farnham Road"},"longitude":"0.219019"},"context":"","outcome_status":{"category":"Investigation complete; no suspect identified","date":"2025-07"},"persistent_id":"2c87cccf59208f05d9690557cbf9e2733f89314d27c4cdddbff5528834851316","id":130336714,"location_subtype":"","month":"2025-07"},{"category":"theft-from-the-person","location_type":"Force","location":{"latitude":"51.593578","street":{"id":1709632,"name":"On or near Supermarket"},"longitude":"0.218673"},"context":"","outcome_status":{"category":"Investigation complete; no suspect identified","date":"2025-07"},"persistent_id":"a9ce85b692498557ac632787407c6737ce1f3f82b976f30f2c95da73e14af8c6","id":130381131,"location_subtype":"","month":"2025-07"},{"category":"vehicle-crime","location_type":"Force","location":{"latitude":"51.602393","street":{"id":1709384,"name":"On or near Okehampton Road"},"longitude":"0.211434"},"context":"","outcome_status":{"category":"Investigation complete; no suspect identified","date":"2025-07"},"persistent_id":"c1a047cb55104dc81db926fc2134a3e62ea65d267404401b416091c2bad33bb5","id":130367348,"location_subtype":"","month":"2025-07"},{"category":"vehicle-crime","location_type":"Force","location":{"latitude":"51.612133","street":{"id":1709390,"name":"On or near Hitchin Close"},"longitude":"0.212355"},"context":"","outcome_status":{"category":"Investigation complete; no suspect identified","date":"2025-07"},"persistent_id":"eae0a0c8fb27975cc3eb7fbd1de033ba84c9490b5607404212926617e78aa8de","id":130381612,"location_subtype":"","month":"2025-07"},{"category":"vehicle-crime","location_type":"Force","location":{"latitude":"51.600852","street":{"id":1709834,"name":"On or near Leyburn Crescent"},"longitude":"0.225410"},"context":"","outcome_status":{"category":"Investigation complete; no suspect identified","date":"2025-07"},"persistent_id":"a34adb364db60f0c4d3ccf6aaa9fc052ea93bfdea6e260ea869995b02f221fa0","id":130366916,"location_subtype":"","month":"2025-07"},{"category":"vehicle-crime","location_type":"Force","location":{"latitude":"51.610629","street":{"id":1710014,"name":"On or near Sedgefield Crescent"},"longitude":"0.233818"},"context":"","outcome_status":{"category":"Investigation complete; no suspect identified","date":"2025-07"},"persistent_id":"b35434f312890e2e3b643708887a8cd796b90b56fdc9bd342f57b74cbc0ddc37","id":130366690,"location_subtype":"","month":"2025-07"},{"category":"vehicle-crime","location_type":"Force","location":{"latitude":"51.606156","street":{"id":1709949,"name":"On or near Sports/recreation Area"},"longitude":"0.231091"},"context":"","outcome_status":{"category":"Investigation complete; no suspect identified","date":"2025-07"},"persistent_id":"6701d20cec9679d6fd4d15ceb38a0a97043acbb75ba56babe839da63826fac8f","id":130365650,"location_subtype":"","month":"2025-07"},{"category":"vehicle-crime","location_type":"Force","location":{"latitude":"51.594852","street":{"id":1709854,"name":"On or near Arlington Gardens"},"longitude":"0.225983"},"context":"","outcome_status":{"category":"Investigation complete; no suspect identified","date":"2025-07"},"persistent_id":"194a762835fa2807c56d8e1748cb8cfcbf71108379518541dea5236a5fef1613","id":130350559,"location_subtype":"","month":"2025-07"},{"category":"vehicle-crime","location_type":"Force","location":{"latitude":"51.597151","street":{"id":1709170,"name":"On or near Elliott Gardens"},"longitude":"0.203252"},"context":"","outcome_status":{"category":"Investigation complete; no suspect identified","date":"2025-08"},"persistent_id":"a18b2b7f34de22635aa20715455427d53d3c2f9de3ab52208d2ca68878db1d69","id":130316239,"location_subtype":"","month":"2025-07"},{"category":"vehicle-crime","location_type":"Force","location":{"latitude":"51.595323","street":{"id":1709559,"name":"On or near Paignton Close"},"longitude":"0.216303"},"context":"","outcome_status":{"category":"Investigation complete; no suspect identified","date":"2025-07"},"persistent_id":"55412baf82f864f777b65c600ae29ab82f354053acb3982f15b41bf74a65c5e2","id":130345551,"location_subtype":"","month":"2025-07"},{"category":"vehicle-crime","location_type":"Force","location":{"latitude":"51.600936","street":{"id":1710237,"name":"On or near Elgin Avenue"},"longitude":"0.246959"},"context":"","outcome_status":{"category":"Investigation complete; no suspect identified","date":"2025-07"},"persistent_id":"5be8fb5f4bc082d0528c6e024c173bbd05993b408d425d2266e5eea990ad64f1","id":130315005,"location_subtype":"","month":"2025-07"},{"category":"vehicle-crime","location_type":"Force","location":{"latitude":"51.592219","street":{"id":1709776,"name":"On or near Whitmore Avenue"},"longitude":"0.223010"},"context":"","outcome_status":{"category":"Investigation complete; no suspect identified","date":"2025-07"},"persistent_id":"6d0b47b2557d2287b41fa53c2fbc891bd1bc205b68cc19981e6f5dbca7976db8","id":130352326,"location_subtype":"","month":"2025-07"},{"category":"vehicle-crime","location_type":"Force","location":{"latitude":"51.607194","street":{"id":1710037,"name":"On or near Swindon Close"},"longitude":"0.234284"},"context":"","outcome_status":{"category":"Unable to prosecute suspect","date":"2025-10"},"persistent_id":"174b81334fcb831f7e40843e9db5359aba90ac153682db959ed0269b4ee06b31","id":130311696,"location_subtype":"","month":"2025-07"},{"category":"vehicle-crime","location_type":"Force","location":{"latitude":"51.599749","street":{"id":1709575,"name":"On or near Briar Road"},"longitude":"0.216215"},"context":"","outcome_status":{"category":"Investigation complete; no suspect identified","date":"2025-07"},"persistent_id":"9694e6f40c140650e734a50aa5fad8fc46146af5d444895eab5c010ac56e1374","id":130356833,"location_subtype":"","month":"2025-07"},{"category":"vehicle-crime","location_type":"Force","location":{"latitude":"51.612198","street":{"id":1709769,"name":"On or near Ingrebourne Avenue"},"longitude":"0.222253"},"context":"","outcome_status":{"category":"Investigation complete; no suspect identified","date":"2025-07"},"persistent_id":"79d7a00b39aeb291c7ab471d538f5f1257a5a1b30c7639e22c4f50c15698683c","id":130324804,"location_subtype":"","month":"2025-07"},{"category":"vehicle-crime","location_type":"Force","location":{"latitude":"51.601505","street":{"id":1709597,"name":"On or near Coltsfoot Path"},"longitude":"0.216575"},"context":"","outcome_status":{"category":"Investigation complete; no suspect identified","date":"2025-07"},"persistent_id":"5de9fb3c20feac600ee43e43af490a2591165fe86003df710a923f20effb2b69","id":130309136,"location_subtype":"","month":"2025-07"},{"category":"vehicle-crime","location_type":"Force","location":{"latitude":"51.595964","street":{"id":1709441,"name":"On or near Appledore Close"},"longitude":"0.213302"},"context":"","outcome_status":{"category":"Investigation complete; no suspect identified","date":"2025-07"},"persistent_id":"d112b489a3e2b6c3d6ee814df9f43f909bf138a155fac15ccc0c2cc3d3b49750","id":130355796,"location_subtype":"","month":"2025-07"},{"category":"vehicle-crime","location_type":"Force","location":{"latitude":"51.598999","street":{"id":1709150,"name":"On or near Keats Avenue"},"longitude":"0.202533"},"context":"","outcome_status":{"category":"Investigation complete; no suspect identified","date":"2025-07"},"persistent_id":"fdd1aed12b55eee6c4ac5f1012a12834f22455828eab51dbf5f2a201345e8175","id":130336318,"location_subtype":"","month":"2025-07"},{"category":"vehicle-crime","location_type":"Force","location":{"latitude":"51.605731","street":{"id":1709788,"name":"On or near Supermarket"},"longitude":"0.224175"},"context":"","outcome_status":{"category":"Investigation complete; no suspect identified","date":"2025-07"},"persistent_id":"bd70edd9026c69fc3a3df68f57f9893aee7ec009e61dce998c52abb4a74454ce","id":130307796,"location_subtype":"","month":"2025-07"},{"category":"vehicle-crime","location_type":"Force","location":{"latitude":"51.602524","street":{"id":1709858,"name":"On or near Kingsbridge Road"},"longitude":"0.226401"},"context":"","outcome_status":{"category":"Investigation complete; no suspect identified","date":"2025-07"},"persistent_id":"54a419d1c3a9d0f2f52f91f090c48e440a031b05e9790acf8a27325402280525","id":130346717,"location_subtype":"","month":"2025-07"},{"category":"vehicle-crime","location_type":"Force","location":{"latitude":"51.607279","street":{"id":1709394,"name":"On or near Longtown Road"},"longitude":"0.210791"},"context":"","outcome_status":{"category":"Investigation complete; no suspect identified","date":"2025-10"},"persistent_id":"0c99d441e91b0b2f9ca88a2c9d4735ea7d41e1cdbf24869c8a702f8b14855703","id":130374182,"location_subtype":"","month":"2025-07"},