[{"category":"anti-social-behaviour","location_type":"Force","location":{"latitude":"51.575890","street":{"id":1707718,"name":"On or near Jubilee Avenue"},"longitude":"0.164209"},"context":"","outcome_status":null,"persistent_id":"","id":130292300,"location_subtype":"","month":"2025-07"},{"category":"anti-social-behaviour","location_type":"Force","location":{"latitude":"51.582175","street":{"id":1708076,"name":"On or near Medora Road"},"longitude":"0.173038"},"context":"","outcome_status":null,"persistent_id":"","id":130295153,"location_subtype":"","month":"2025-07"},{"category":"anti-social-behaviour","location_type":"Force","location":{"latitude":"51.569564","street":{"id":1708187,"name":"On or near Sports/recreation Area"},"longitude":"0.176337"},"context":"","outcome_status":null,"persistent_id":"","id":130295121,"location_subtype":"","month":"2025-07"},{"category":"anti-social-behaviour","location_type":"Force","location":{"latitude":"51.578200","street":{"id":1708424,"name":"On or near Shopping Area"},"longitude":"0.181306"},"context":"","outcome_status":null,"persistent_id":"","id":130295104,"location_subtype":"","month":"2025-07"},{"category":"anti-social-behaviour","location_type":"Force","location":{"latitude":"51.574236","street":{"id":1708062,"name":"On or near Old Mill Place"},"longitude":"0.172457"},"context":"","outcome_status":null,"persistent_id":"","id":130295083,"location_subtype":"","month":"2025-07"},{"category":"anti-social-behaviour","location_type":"Force","location":{"latitude":"51.579928","street":{"id":1708426,"name":"On or near Ducking Stool Court"},"longitude":"0.181201"},"context":"","outcome_status":null,"persistent_id":"","id":130294919,"location_subtype":"","month":"2025-07"},{"category":"anti-social-behaviour","location_type":"Force","location":{"latitude":"51.580801","street":{"id":1708429,"name":"On or near Bus/coach Station"},"longitude":"0.181282"},"context":"","outcome_status":null,"persistent_id":"","id":130294767,"location_subtype":"","month":"2025-07"},{"category":"anti-social-behaviour","location_type":"Force","location":{"latitude":"51.571808","street":{"id":1708317,"name":"On or near Maxwell Road"},"longitude":"0.178749"},"context":"","outcome_status":null,"persistent_id":"","id":130294706,"location_subtype":"","month":"2025-07"},{"category":"anti-social-behaviour","location_type":"Force","location":{"latitude":"51.573124","street":{"id":1708428,"name":"On or near Regarth Avenue"},"longitude":"0.182968"},"context":"","outcome_status":null,"persistent_id":"","id":130294638,"location_subtype":"","month":"2025-07"},{"category":"anti-social-behaviour","location_type":"Force","location":{"latitude":"51.574865","street":{"id":1707586,"name":"On or near Lowland Gardens"},"longitude":"0.160783"},"context":"","outcome_status":null,"persistent_id":"","id":130294571,"location_subtype":"","month":"2025-07"},{"category":"anti-social-behaviour","location_type":"Force","location":{"latitude":"51.580801","street":{"id":1708429,"name":"On or near Bus/coach Station"},"longitude":"0.181282"},"context":"","outcome_status":null,"persistent_id":"","id":130294324,"location_subtype":"","month":"2025-07"},{"category":"anti-social-behaviour","location_type":"Force","location":{"latitude":"51.575217","street":{"id":1708346,"name":"On or near Supermarket"},"longitude":"0.180153"},"context":"","outcome_status":null,"persistent_id":"","id":130294182,"location_subtype":"","month":"2025-07"},{"category":"anti-social-behaviour","location_type":"Force","location":{"latitude":"51.580080","street":{"id":1708356,"name":"On or near St Edwards Way"},"longitude":"0.179318"},"context":"","outcome_status":null,"persistent_id":"","id":130294097,"location_subtype":"","month":"2025-07"},{"category":"anti-social-behaviour","location_type":"Force","location":{"latitude":"51.578200","street":{"id":1708424,"name":"On or near Shopping Area"},"longitude":"0.181306"},"context":"","outcome_status":null,"persistent_id":"","id":130293957,"location_subtype":"","month":"2025-07"},{"category":"anti-social-behaviour","location_type":"Force","location":{"latitude":"51.576909","street":{"id":1708161,"name":"On or near Pettley Gardens"},"longitude":"0.175240"},"context":"","outcome_status":null,"persistent_id":"","id":130293805,"location_subtype":"","month":"2025-07"},{"category":"anti-social-behaviour","location_type":"Force","location":{"latitude":"51.580047","street":{"id":1708440,"name":"On or near Shopping Area"},"longitude":"0.182323"},"context":"","outcome_status":null,"persistent_id":"","id":130293030,"location_subtype":"","month":"2025-07"},{"category":"anti-social-behaviour","location_type":"Force","location":{"latitude":"51.585644","street":{"id":1707836,"name":"On or near King George Close"},"longitude":"0.167314"},"context":"","outcome_status":null,"persistent_id":"","id":130292944,"location_subtype":"","month":"2025-07"},{"category":"anti-social-behaviour","location_type":"Force","location":{"latitude":"51.568086","street":{"id":1708151,"name":"On or near East Road"},"longitude":"0.174819"},"context":"","outcome_status":null,"persistent_id":"","id":130292899,"location_subtype":"","month":"2025-07"},{"category":"anti-social-behaviour","location_type":"Force","location":{"latitude":"51.575946","street":{"id":1708497,"name":"On or near Chandlers Way"},"longitude":"0.183508"},"context":"","outcome_status":null,"persistent_id":"","id":130292876,"location_subtype":"","month":"2025-07"},{"category":"anti-social-behaviour","location_type":"Force","location":{"latitude":"51.580047","street":{"id":1708440,"name":"On or near Shopping Area"},"longitude":"0.182323"},"context":"","outcome_status":null,"persistent_id":"","id":130292653,"location_subtype":"","month":"2025-07"},{"category":"anti-social-behaviour","location_type":"Force","location":{"latitude":"51.580801","street":{"id":1708429,"name":"On or near Bus/coach Station"},"longitude":"0.181282"},"context":"","outcome_status":null,"persistent_id":"","id":130292453,"location_subtype":"","month":"2025-07"},{"category":"anti-social-behaviour","location_type":"Force","location":{"latitude":"51.580080","street":{"id":1708356,"name":"On or near St Edwards Way"},"longitude":"0.179318"},"context":"","outcome_status":null,"persistent_id":"","id":130292302,"location_subtype":"","month":"2025-07"},{"category":"anti-social-behaviour","location_type":"Force","location":{"latitude":"51.576909","street":{"id":1708161,"name":"On or near Pettley Gardens"},"longitude":"0.175240"},"context":"","outcome_status":null,"persistent_id":"","id":130291658,"location_subtype":"","month":"2025-07"},{"category":"anti-social-behaviour","location_type":"Force","location":{"latitude":"51.568651","street":{"id":1708338,"name":"On or near Hospital"},"longitude":"0.179027"},"context":"","outcome_status":null,"persistent_id":"","id":130285980,"location_subtype":"","month":"2025-07"},{"category":"anti-social-behaviour","location_type":"Force","location":{"latitude":"51.580801","street":{"id":1708429,"name":"On or near Bus/coach Station"},"longitude":"0.181282"},"context":"","outcome_status":null,"persistent_id":"","id":130286101,"location_subtype":"","month":"2025-07"},{"category":"anti-social-behaviour","location_type":"Force","location":{"latitude":"51.575187","street":{"id":1708479,"name":"On or near Nightclub"},"longitude":"0.182581"},"context":"","outcome_status":null,"persistent_id":"","id":130286218,"location_subtype":"","month":"2025-07"},{"category":"anti-social-behaviour","location_type":"Force","location":{"latitude":"51.574060","street":{"id":1708111,"name":"On or near Honiton Road"},"longitude":"0.174700"},"context":"","outcome_status":null,"persistent_id":"","id":130286357,"location_subtype":"","month":"2025-07"},{"category":"anti-social-behaviour","location_type":"Force","location":{"latitude":"51.569564","street":{"id":1708187,"name":"On or near Sports/recreation Area"},"longitude":"0.176337"},"context":"","outcome_status":null,"persistent_id":"","id":130286714,"location_subtype":"","month":"2025-07"},{"category":"anti-social-behaviour","location_type":"Force","location":{"latitude":"51.575875","street":{"id":1708155,"name":"On or near Knightsbridge Gardens"},"longitude":"0.175754"},"context":"","outcome_status":null,"persistent_id":"","id":130296167,"location_subtype":"","month":"2025-07"},{"category":"anti-social-behaviour","location_type":"Force","location":{"latitude":"51.573778","street":{"id":1708598,"name":"On or near Alexandra Road"},"longitude":"0.186001"},"context":"","outcome_status":null,"persistent_id":"","id":130297750,"location_subtype":"","month":"2025-07"},{"category":"anti-social-behaviour","location_type":"Force","location":{"latitude":"51.569787","street":{"id":1707811,"name":"On or near Beechfield Gardens"},"longitude":"0.168464"},"context":"","outcome_status":null,"persistent_id":"","id":130298025,"location_subtype":"","month":"2025-07"},{"category":"anti-social-behaviour","location_type":"Force","location":{"latitude":"51.582175","street":{"id":1708076,"name":"On or near Medora Road"},"longitude":"0.173038"},"context":"","outcome_status":null,"persistent_id":"","id":130298028,"location_subtype":"","month":"2025-07"},{"category":"anti-social-behaviour","location_type":"Force","location":{"latitude":"51.571808","street":{"id":1708317,"name":"On or near Maxwell Road"},"longitude":"0.178749"},"context":"","outcome_status":null,"persistent_id":"","id":130298270,"location_subtype":"","month":"2025-07"},{"category":"anti-social-behaviour","location_type":"Force","location":{"latitude":"51.569446","street":{"id":1707788,"name":"On or near Bernard Road"},"longitude":"0.165980"},"context":"","outcome_status":null,"persistent_id":"","id":130297761,"location_subtype":"","month":"2025-07"},{"category":"anti-social-behaviour","location_type":"Force","location":{"latitude":"51.564831","street":{"id":1707827,"name":"On or near Rush Green Gardens"},"longitude":"0.169455"},"context":"","outcome_status":null,"persistent_id":"","id":130298506,"location_subtype":"","month":"2025-07"},{"category":"anti-social-behaviour","location_type":"Force","location":{"latitude":"51.572011","street":{"id":1707514,"name":"On or near Jutsums Avenue"},"longitude":"0.160503"},"context":"","outcome_status":null,"persistent_id":"","id":130298732,"location_subtype":"","month":"2025-07"},{"category":"anti-social-behaviour","location_type":"Force","location":{"latitude":"51.585207","street":{"id":1708366,"name":"On or near The Chase"},"longitude":"0.180227"},"context":"","outcome_status":null,"persistent_id":"","id":130298766,"location_subtype":"","month":"2025-07"},{"category":"anti-social-behaviour","location_type":"Force","location":{"latitude":"51.562419","street":{"id":1707529,"name":"On or near Wisdons Close"},"longitude":"0.159846"},"context":"","outcome_status":null,"persistent_id":"","id":130299184,"location_subtype":"","month":"2025-07"},{"category":"anti-social-behaviour","location_type":"Force","location":{"latitude":"51.568760","street":{"id":1708373,"name":"On or near Hospital"},"longitude":"0.179700"},"context":"","outcome_status":null,"persistent_id":"","id":130299357,"location_subtype":"","month":"2025-07"},{"category":"anti-social-behaviour","location_type":"Force","location":{"latitude":"51.571847","street":{"id":1706908,"name":"On or near Salcombe Drive"},"longitude":"0.146887"},"context":"","outcome_status":null,"persistent_id":"","id":130301997,"location_subtype":"","month":"2025-07"},{"category":"anti-social-behaviour","location_type":"Force","location":{"latitude":"51.580080","street":{"id":1708356,"name":"On or near St Edwards Way"},"longitude":"0.179318"},"context":"","outcome_status":null,"persistent_id":"","id":130305161,"location_subtype":"","month":"2025-07"},{"category":"anti-social-behaviour","location_type":"Force","location":{"latitude":"51.574014","street":{"id":1708287,"name":"On or near Waterloo Road"},"longitude":"0.178623"},"context":"","outcome_status":null,"persistent_id":"","id":130305185,"location_subtype":"","month":"2025-07"},{"category":"anti-social-behaviour","location_type":"Force","location":{"latitude":"51.573558","street":{"id":1708550,"name":"On or near Marden Road"},"longitude":"0.184778"},"context":"","outcome_status":null,"persistent_id":"","id":130305538,"location_subtype":"","month":"2025-07"},{"category":"anti-social-behaviour","location_type":"Force","location":{"latitude":"51.569787","street":{"id":1707811,"name":"On or near Beechfield Gardens"},"longitude":"0.168464"},"context":"","outcome_status":null,"persistent_id":"","id":130305918,"location_subtype":"","month":"2025-07"},{"category":"anti-social-behaviour","location_type":"Force","location":{"latitude":"51.577759","street":{"id":1708599,"name":"On or near Mercury Gardens"},"longitude":"0.186135"},"context":"","outcome_status":null,"persistent_id":"","id":130306512,"location_subtype":"","month":"2025-07"},{"category":"anti-social-behaviour","location_type":"Force","location":{"latitude":"51.578200","street":{"id":1708424,"name":"On or near Shopping Area"},"longitude":"0.181306"},"context":"","outcome_status":null,"persistent_id":"","id":130306294,"location_subtype":"","month":"2025-07"},{"category":"anti-social-behaviour","location_type":"Force","location":{"latitude":"51.572212","street":{"id":1708239,"name":"On or near Union Road"},"longitude":"0.177368"},"context":"","outcome_status":null,"persistent_id":"","id":130285804,"location_subtype":"","month":"2025-07"},{"category":"anti-social-behaviour","location_type":"Force","location":{"latitude":"51.571090","street":{"id":1708235,"name":"On or near Bournebrook Grove"},"longitude":"0.176766"},"context":"","outcome_status":null,"persistent_id":"","id":130307654,"location_subtype":"","month":"2025-07"},{"category":"anti-social-behaviour","location_type":"Force","location":{"latitude":"51.568651","street":{"id":1708338,"name":"On or near Hospital"},"longitude":"0.179027"},"context":"","outcome_status":null,"persistent_id":"","id":130307198,"location_subtype":"","month":"2025-07"},{"category":"anti-social-behaviour","location_type":"Force","location":{"latitude":"51.566629","street":{"id":1708432,"name":"On or near Hornford Way"},"longitude":"0.183580"},"context":"","outcome_status":null,"persistent_id":"","id":130293171,"location_subtype":"","month":"2025-07"},{"category":"anti-social-behaviour","location_type":"Force","location":{"latitude":"51.571434","street":{"id":1707558,"name":"On or near Jutsums Lane"},"longitude":"0.160577"},"context":"","outcome_status":null,"persistent_id":"","id":130291393,"location_subtype":"","month":"2025-07"},{"category":"anti-social-behaviour","location_type":"Force","location":{"latitude":"51.573455","street":{"id":1707987,"name":"On or near Eastbury Road"},"longitude":"0.171900"},"context":"","outcome_status":null,"persistent_id":"","id":130288403,"location_subtype":"","month":"2025-07"},{"category":"anti-social-behaviour","location_type":"Force","location":{"latitude":"51.586305","street":{"id":1708298,"name":"On or near Mcintosh Close"},"longitude":"0.180179"},"context":"","outcome_status":null,"persistent_id":"","id":130307288,"location_subtype":"","month":"2025-07"},{"category":"anti-social-behaviour","location_type":"Force","location":{"latitude":"51.588837","street":{"id":1708103,"name":"On or near Petrol Station"},"longitude":"0.175178"},"context":"","outcome_status":null,"persistent_id":"","id":130307140,"location_subtype":"","month":"2025-07"},{"category":"anti-social-behaviour","location_type":"Force","location":{"latitude":"51.580047","street":{"id":1708440,"name":"On or near Shopping Area"},"longitude":"0.182323"},"context":"","outcome_status":null,"persistent_id":"","id":130307106,"location_subtype":"","month":"2025-07"},{"category":"anti-social-behaviour","location_type":"Force","location":{"latitude":"51.569666","street":{"id":1707976,"name":"On or near Bay Close"},"longitude":"0.169642"},"context":"","outcome_status":null,"persistent_id":"","id":130304330,"location_subtype":"","month":"2025-07"},{"category":"anti-social-behaviour","location_type":"Force","location":{"latitude":"51.574236","street":{"id":1708062,"name":"On or near Old Mill Place"},"longitude":"0.172457"},"context":"","outcome_status":null,"persistent_id":"","id":130304127,"location_subtype":"","month":"2025-07"},{"category":"anti-social-behaviour","location_type":"Force","location":{"latitude":"51.573778","street":{"id":1708598,"name":"On or near Alexandra Road"},"longitude":"0.186001"},"context":"","outcome_status":null,"persistent_id":"","id":130304097,"location_subtype":"","month":"2025-07"},{"category":"anti-social-behaviour","location_type":"Force","location":{"latitude":"51.579698","street":{"id":1708133,"name":"On or near Olive Street"},"longitude":"0.174724"},"context":"","outcome_status":null,"persistent_id":"","id":130303789,"location_subtype":"","month":"2025-07"},{"category":"anti-social-behaviour","location_type":"Force","location":{"latitude":"51.569564","street":{"id":1708187,"name":"On or near Sports/recreation Area"},"longitude":"0.176337"},"context":"","outcome_status":null,"persistent_id":"","id":130303722,"location_subtype":"","month":"2025-07"},{"category":"anti-social-behaviour","location_type":"Force","location":{"latitude":"51.576862","street":{"id":1708299,"name":"On or near Logan Mews"},"longitude":"0.178269"},"context":"","outcome_status":null,"persistent_id":"","id":130303610,"location_subtype":"","month":"2025-07"},{"category":"anti-social-behaviour","location_type":"Force","location":{"latitude":"51.577759","street":{"id":1708599,"name":"On or near Mercury Gardens"},"longitude":"0.186135"},"context":"","outcome_status":null,"persistent_id":"","id":130303255,"location_subtype":"","month":"2025-07"},{"category":"anti-social-behaviour","location_type":"Force","location":{"latitude":"51.567249","street":{"id":1708077,"name":"On or near Wolseley Road"},"longitude":"0.173870"},"context":"","outcome_status":null,"persistent_id":"","id":130303140,"location_subtype":"","month":"2025-07"},{"category":"anti-social-behaviour","location_type":"Force","location":{"latitude":"51.573112","street":{"id":1708577,"name":"On or near Kingsmead Avenue"},"longitude":"0.185522"},"context":"","outcome_status":null,"persistent_id":"","id":130303083,"location_subtype":"","month":"2025-07"},{"category":"anti-social-behaviour","location_type":"Force","location":{"latitude":"51.576909","street":{"id":1708161,"name":"On or near Pettley Gardens"},"longitude":"0.175240"},"context":"","outcome_status":null,"persistent_id":"","id":130291618,"location_subtype":"","month":"2025-07"},{"category":"anti-social-behaviour","location_type":"Force","location":{"latitude":"51.575187","street":{"id":1708479,"name":"On or near Nightclub"},"longitude":"0.182581"},"context":"","outcome_status":null,"persistent_id":"","id":130302823,"location_subtype":"","month":"2025-07"},{"category":"anti-social-behaviour","location_type":"Force","location":{"latitude":"51.578200","street":{"id":1708424,"name":"On or near Shopping Area"},"longitude":"0.181306"},"context":"","outcome_status":null,"persistent_id":"","id":130302779,"location_subtype":"","month":"2025-07"},{"category":"anti-social-behaviour","location_type":"Force","location":{"latitude":"51.573762","street":{"id":1708494,"name":"On or near Supermarket"},"longitude":"0.183081"},"context":"","outcome_status":null,"persistent_id":"","id":130302754,"location_subtype":"","month":"2025-07"},{"category":"anti-social-behaviour","location_type":"Force","location":{"latitude":"51.574977","street":{"id":1708098,"name":"On or near Larkspur Mews"},"longitude":"0.173257"},"context":"","outcome_status":null,"persistent_id":"","id":130302641,"location_subtype":"","month":"2025-07"},{"category":"anti-social-behaviour","location_type":"Force","location":{"latitude":"51.575946","street":{"id":1708497,"name":"On or near Chandlers Way"},"longitude":"0.183508"},"context":"","outcome_status":null,"persistent_id":"","id":130302413,"location_subtype":"","month":"2025-07"},{"category":"anti-social-behaviour","location_type":"Force","location":{"latitude":"51.572011","street":{"id":1707514,"name":"On or near Jutsums Avenue"},"longitude":"0.160503"},"context":"","outcome_status":null,"persistent_id":"","id":130301549,"location_subtype":"","month":"2025-07"},{"category":"anti-social-behaviour","location_type":"Force","location":{"latitude":"51.580801","street":{"id":1708429,"name":"On or near Bus/coach Station"},"longitude":"0.181282"},"context":"","outcome_status":null,"persistent_id":"","id":130301507,"location_subtype":"","month":"2025-07"},{"category":"anti-social-behaviour","location_type":"Force","location":{"latitude":"51.573177","street":{"id":1707665,"name":"On or near Burlington Avenue"},"longitude":"0.162608"},"context":"","outcome_status":null,"persistent_id":"","id":130301384,"location_subtype":"","month":"2025-07"},{"category":"anti-social-behaviour","location_type":"Force","location":{"latitude":"51.578200","street":{"id":1708424,"name":"On or near Shopping Area"},"longitude":"0.181306"},"context":"","outcome_status":null,"persistent_id":"","id":130301099,"location_subtype":"","month":"2025-07"},{"category":"anti-social-behaviour","location_type":"Force","location":{"latitude":"51.576069","street":{"id":1708647,"name":"On or near A1251"},"longitude":"0.187093"},"context":"","outcome_status":null,"persistent_id":"","id":130301068,"location_subtype":"","month":"2025-07"},{"category":"anti-social-behaviour","location_type":"Force","location":{"latitude":"51.574544","street":{"id":1708474,"name":"On or near Romford"},"longitude":"0.182055"},"context":"","outcome_status":null,"persistent_id":"","id":130291466,"location_subtype":"","month":"2025-07"},{"category":"anti-social-behaviour","location_type":"Force","location":{"latitude":"51.573762","street":{"id":1708494,"name":"On or near Supermarket"},"longitude":"0.183081"},"context":"","outcome_status":null,"persistent_id":"","id":130291705,"location_subtype":"","month":"2025-07"},{"category":"anti-social-behaviour","location_type":"Force","location":{"latitude":"51.578200","street":{"id":1708424,"name":"On or near Shopping Area"},"longitude":"0.181306"},"context":"","outcome_status":null,"persistent_id":"","id":130292026,"location_subtype":"","month":"2025-07"},{"category":"anti-social-behaviour","location_type":"Force","location":{"latitude":"51.575943","street":{"id":1708659,"name":"On or near Corbridge Mews"},"longitude":"0.188501"},"context":"","outcome_status":null,"persistent_id":"","id":130292031,"location_subtype":"","month":"2025-07"},{"category":"anti-social-behaviour","location_type":"Force","location":{"latitude":"51.580080","street":{"id":1708356,"name":"On or near St Edwards Way"},"longitude":"0.179318"},"context":"","outcome_status":null,"persistent_id":"","id":130300908,"location_subtype":"","month":"2025-07"},{"category":"anti-social-behaviour","location_type":"Force","location":{"latitude":"51.578200","street":{"id":1708424,"name":"On or near Shopping Area"},"longitude":"0.181306"},"context":"","outcome_status":null,"persistent_id":"","id":130300785,"location_subtype":"","month":"2025-07"},{"category":"anti-social-behaviour","location_type":"Force","location":{"latitude":"51.562892","street":{"id":1707833,"name":"On or near Legon Avenue"},"longitude":"0.169276"},"context":"","outcome_status":null,"persistent_id":"","id":130283844,"location_subtype":"","month":"2025-07"},{"category":"anti-social-behaviour","location_type":"Force","location":{"latitude":"51.574269","street":{"id":1708229,"name":"On or near St Andrews Road"},"longitude":"0.176500"},"context":"","outcome_status":null,"persistent_id":"","id":130284089,"location_subtype":"","month":"2025-07"},{"category":"anti-social-behaviour","location_type":"Force","location":{"latitude":"51.568427","street":{"id":1707550,"name":"On or near Crow Lane"},"longitude":"0.160780"},"context":"","outcome_status":null,"persistent_id":"","id":130284569,"location_subtype":"","month":"2025-07"},{"category":"anti-social-behaviour","location_type":"Force","location":{"latitude":"51.574544","street":{"id":1708474,"name":"On or near Romford"},"longitude":"0.182055"},"context":"","outcome_status":null,"persistent_id":"","id":130284630,"location_subtype":"","month":"2025-07"},{"category":"anti-social-behaviour","location_type":"Force","location":{"latitude":"51.580801","street":{"id":1708429,"name":"On or near Bus/coach Station"},"longitude":"0.181282"},"context":"","outcome_status":null,"persistent_id":"","id":130284743,"location_subtype":"","month":"2025-07"},{"category":"anti-social-behaviour","location_type":"Force","location":{"latitude":"51.567249","street":{"id":1708077,"name":"On or near Wolseley Road"},"longitude":"0.173870"},"context":"","outcome_status":null,"persistent_id":"","id":130284819,"location_subtype":"","month":"2025-07"},{"category":"anti-social-behaviour","location_type":"Force","location":{"latitude":"51.576862","street":{"id":1708299,"name":"On or near Logan Mews"},"longitude":"0.178269"},"context":"","outcome_status":null,"persistent_id":"","id":130284941,"location_subtype":"","month":"2025-07"},{"category":"anti-social-behaviour","location_type":"Force","location":{"latitude":"51.572830","street":{"id":1708376,"name":"On or near Bridge Close"},"longitude":"0.180847"},"context":"","outcome_status":null,"persistent_id":"","id":130285330,"location_subtype":"","month":"2025-07"},{"category":"anti-social-behaviour","location_type":"Force","location":{"latitude":"51.568651","street":{"id":1708338,"name":"On or near Hospital"},"longitude":"0.179027"},"context":"","outcome_status":null,"persistent_id":"","id":130285366,"location_subtype":"","month":"2025-07"},{"category":"anti-social-behaviour","location_type":"Force","location":{"latitude":"51.574977","street":{"id":1708098,"name":"On or near Larkspur Mews"},"longitude":"0.173257"},"context":"","outcome_status":null,"persistent_id":"","id":130285518,"location_subtype":"","month":"2025-07"},{"category":"anti-social-behaviour","location_type":"Force","location":{"latitude":"51.568651","street":{"id":1708338,"name":"On or near Hospital"},"longitude":"0.179027"},"context":"","outcome_status":null,"persistent_id":"","id":130285561,"location_subtype":"","month":"2025-07"},{"category":"anti-social-behaviour","location_type":"Force","location":{"latitude":"51.580080","street":{"id":1708356,"name":"On or near St Edwards Way"},"longitude":"0.179318"},"context":"","outcome_status":null,"persistent_id":"","id":130286765,"location_subtype":"","month":"2025-07"},{"category":"anti-social-behaviour","location_type":"Force","location":{"latitude":"51.574357","street":{"id":1707952,"name":"On or near Ryan Court"},"longitude":"0.169808"},"context":"","outcome_status":null,"persistent_id":"","id":130286822,"location_subtype":"","month":"2025-07"},{"category":"anti-social-behaviour","location_type":"Force","location":{"latitude":"51.575217","street":{"id":1708346,"name":"On or near Supermarket"},"longitude":"0.180153"},"context":"","outcome_status":null,"persistent_id":"","id":130286823,"location_subtype":"","month":"2025-07"},{"category":"anti-social-behaviour","location_type":"Force","location":{"latitude":"51.574544","street":{"id":1708474,"name":"On or near Romford"},"longitude":"0.182055"},"context":"","outcome_status":null,"persistent_id":"","id":130286953,"location_subtype":"","month":"2025-07"},{"category":"anti-social-behaviour","location_type":"Force","location":{"latitude":"51.577759","street":{"id":1708599,"name":"On or near Mercury Gardens"},"longitude":"0.186135"},"context":"","outcome_status":null,"persistent_id":"","id":130287298,"location_subtype":"","month":"2025-07"},{"category":"anti-social-behaviour","location_type":"Force","location":{"latitude":"51.584580","street":{"id":1707279,"name":"On or near Field View Close"},"longitude":"0.155268"},"context":"","outcome_status":null,"persistent_id":"","id":130287470,"location_subtype":"","month":"2025-07"},{"category":"anti-social-behaviour","location_type":"Force","location":{"latitude":"51.580934","street":{"id":1707990,"name":"On or near Willow Street"},"longitude":"0.170597"},"context":"","outcome_status":null,"persistent_id":"","id":130287542,"location_subtype":"","month":"2025-07"},{"category":"anti-social-behaviour","location_type":"Force","location":{"latitude":"51.575890","street":{"id":1707718,"name":"On or near Jubilee Avenue"},"longitude":"0.164209"},"context":"","outcome_status":null,"persistent_id":"","id":130287947,"location_subtype":"","month":"2025-07"},{"category":"anti-social-behaviour","location_type":"Force","location":{"latitude":"51.568086","street":{"id":1708151,"name":"On or near East Road"},"longitude":"0.174819"},"context":"","outcome_status":null,"persistent_id":"","id":130287968,"location_subtype":"","month":"2025-07"},{"category":"anti-social-behaviour","location_type":"Force","location":{"latitude":"51.577759","street":{"id":1708599,"name":"On or near Mercury Gardens"},"longitude":"0.186135"},"context":"","outcome_status":null,"persistent_id":"","id":130288072,"location_subtype":"","month":"2025-07"},{"category":"anti-social-behaviour","location_type":"Force","location":{"latitude":"51.568086","street":{"id":1708151,"name":"On or near East Road"},"longitude":"0.174819"},"context":"","outcome_status":null,"persistent_id":"","id":130288108,"location_subtype":"","month":"2025-07"},{"category":"anti-social-behaviour","location_type":"Force","location":{"latitude":"51.580047","street":{"id":1708440,"name":"On or near Shopping Area"},"longitude":"0.182323"},"context":"","outcome_status":null,"persistent_id":"","id":130288109,"location_subtype":"","month":"2025-07"},{"category":"anti-social-behaviour","location_type":"Force","location":{"latitude":"51.568651","street":{"id":1708338,"name":"On or near Hospital"},"longitude":"0.179027"},"context":"","outcome_status":null,"persistent_id":"","id":130288354,"location_subtype":"","month":"2025-07"},{"category":"anti-social-behaviour","location_type":"Force","location":{"latitude":"51.574269","street":{"id":1708229,"name":"On or near St Andrews Road"},"longitude":"0.176500"},"context":"","outcome_status":null,"persistent_id":"","id":130288370,"location_subtype":"","month":"2025-07"},{"category":"anti-social-behaviour","location_type":"Force","location":{"latitude":"51.577736","street":{"id":1707940,"name":"On or near Barkwood Close"},"longitude":"0.168973"},"context":"","outcome_status":null,"persistent_id":"","id":130288414,"location_subtype":"","month":"2025-07"},{"category":"anti-social-behaviour","location_type":"Force","location":{"latitude":"51.568086","street":{"id":1708151,"name":"On or near East Road"},"longitude":"0.174819"},"context":"","outcome_status":null,"persistent_id":"","id":130288624,"location_subtype":"","month":"2025-07"},{"category":"anti-social-behaviour","location_type":"Force","location":{"latitude":"51.567471","street":{"id":1708559,"name":"On or near Frazer Close"},"longitude":"0.186132"},"context":"","outcome_status":null,"persistent_id":"","id":130288637,"location_subtype":"","month":"2025-07"},{"category":"anti-social-behaviour","location_type":"Force","location":{"latitude":"51.577759","street":{"id":1708599,"name":"On or near Mercury Gardens"},"longitude":"0.186135"},"context":"","outcome_status":null,"persistent_id":"","id":130288679,"location_subtype":"","month":"2025-07"},{"category":"anti-social-behaviour","location_type":"Force","location":{"latitude":"51.568086","street":{"id":1708151,"name":"On or near East Road"},"longitude":"0.174819"},"context":"","outcome_status":null,"persistent_id":"","id":130288794,"location_subtype":"","month":"2025-07"},{"category":"anti-social-behaviour","location_type":"Force","location":{"latitude":"51.569605","street":{"id":1708513,"name":"On or near Shopping Area"},"longitude":"0.183528"},"context":"","outcome_status":null,"persistent_id":"","id":130288855,"location_subtype":"","month":"2025-07"},{"category":"anti-social-behaviour","location_type":"Force","location":{"latitude":"51.575043","street":{"id":1708804,"name":"On or near Juliette Mews"},"longitude":"0.190940"},"context":"","outcome_status":null,"persistent_id":"","id":130289230,"location_subtype":"","month":"2025-07"},{"category":"anti-social-behaviour","location_type":"Force","location":{"latitude":"51.564669","street":{"id":1708176,"name":"On or near Supermarket"},"longitude":"0.175782"},"context":"","outcome_status":null,"persistent_id":"","id":130289441,"location_subtype":"","month":"2025-07"},{"category":"anti-social-behaviour","location_type":"Force","location":{"latitude":"51.578200","street":{"id":1708424,"name":"On or near Shopping Area"},"longitude":"0.181306"},"context":"","outcome_status":null,"persistent_id":"","id":130289475,"location_subtype":"","month":"2025-07"},{"category":"anti-social-behaviour","location_type":"Force","location":{"latitude":"51.568427","street":{"id":1707550,"name":"On or near Crow Lane"},"longitude":"0.160780"},"context":"","outcome_status":null,"persistent_id":"","id":130289584,"location_subtype":"","month":"2025-07"},{"category":"anti-social-behaviour","location_type":"Force","location":{"latitude":"51.568427","street":{"id":1707550,"name":"On or near Crow Lane"},"longitude":"0.160780"},"context":"","outcome_status":null,"persistent_id":"","id":130289671,"location_subtype":"","month":"2025-07"},{"category":"anti-social-behaviour","location_type":"Force","location":{"latitude":"51.565301","street":{"id":1708078,"name":"On or near Rush Green Road"},"longitude":"0.172738"},"context":"","outcome_status":null,"persistent_id":"","id":130289848,"location_subtype":"","month":"2025-07"},{"category":"anti-social-behaviour","location_type":"Force","location":{"latitude":"51.582175","street":{"id":1708076,"name":"On or near Medora Road"},"longitude":"0.173038"},"context":"","outcome_status":null,"persistent_id":"","id":130289873,"location_subtype":"","month":"2025-07"},{"category":"anti-social-behaviour","location_type":"Force","location":{"latitude":"51.588837","street":{"id":1708103,"name":"On or near Petrol Station"},"longitude":"0.175178"},"context":"","outcome_status":null,"persistent_id":"","id":130289907,"location_subtype":"","month":"2025-07"},{"category":"anti-social-behaviour","location_type":"Force","location":{"latitude":"51.588837","street":{"id":1708103,"name":"On or near Petrol Station"},"longitude":"0.175178"},"context":"","outcome_status":null,"persistent_id":"","id":130289951,"location_subtype":"","month":"2025-07"},{"category":"anti-social-behaviour","location_type":"Force","location":{"latitude":"51.573953","street":{"id":1708167,"name":"On or near Cotleigh Road"},"longitude":"0.175114"},"context":"","outcome_status":null,"persistent_id":"","id":130290594,"location_subtype":"","month":"2025-07"},{"category":"anti-social-behaviour","location_type":"Force","location":{"latitude":"51.582175","street":{"id":1708076,"name":"On or near Medora Road"},"longitude":"0.173038"},"context":"","outcome_status":null,"persistent_id":"","id":130293292,"location_subtype":"","month":"2025-07"},{"category":"anti-social-behaviour","location_type":"Force","location":{"latitude":"51.575946","street":{"id":1708497,"name":"On or near Chandlers Way"},"longitude":"0.183508"},"context":"","outcome_status":null,"persistent_id":"","id":130290758,"location_subtype":"","month":"2025-07"},{"category":"anti-social-behaviour","location_type":"Force","location":{"latitude":"51.588837","street":{"id":1708103,"name":"On or near Petrol Station"},"longitude":"0.175178"},"context":"","outcome_status":null,"persistent_id":"","id":130290784,"location_subtype":"","month":"2025-07"},{"category":"anti-social-behaviour","location_type":"Force","location":{"latitude":"51.578197","street":{"id":1707932,"name":"On or near Mildmay Road"},"longitude":"0.168850"},"context":"","outcome_status":null,"persistent_id":"","id":130290892,"location_subtype":"","month":"2025-07"},{"category":"anti-social-behaviour","location_type":"Force","location":{"latitude":"51.575644","street":{"id":1707890,"name":"On or near Recreation Avenue"},"longitude":"0.168310"},"context":"","outcome_status":null,"persistent_id":"","id":130290992,"location_subtype":"","month":"2025-07"},{"category":"anti-social-behaviour","location_type":"Force","location":{"latitude":"51.582175","street":{"id":1708076,"name":"On or near Medora Road"},"longitude":"0.173038"},"context":"","outcome_status":null,"persistent_id":"","id":130291079,"location_subtype":"","month":"2025-07"},{"category":"anti-social-behaviour","location_type":"Force","location":{"latitude":"51.565535","street":{"id":1707770,"name":"On or near Meadow Road"},"longitude":"0.165448"},"context":"","outcome_status":null,"persistent_id":"","id":130300765,"location_subtype":"","month":"2025-07"},{"category":"anti-social-behaviour","location_type":"Force","location":{"latitude":"51.574977","street":{"id":1708098,"name":"On or near Larkspur Mews"},"longitude":"0.173257"},"context":"","outcome_status":null,"persistent_id":"","id":130300532,"location_subtype":"","month":"2025-07"},{"category":"anti-social-behaviour","location_type":"Force","location":{"latitude":"51.580047","street":{"id":1708440,"name":"On or near Shopping Area"},"longitude":"0.182323"},"context":"","outcome_status":null,"persistent_id":"","id":130299926,"location_subtype":"","month":"2025-07"},{"category":"anti-social-behaviour","location_type":"Force","location":{"latitude":"51.582175","street":{"id":1708076,"name":"On or near Medora Road"},"longitude":"0.173038"},"context":"","outcome_status":null,"persistent_id":"","id":130295930,"location_subtype":"","month":"2025-07"},{"category":"anti-social-behaviour","location_type":"Force","location":{"latitude":"51.574544","street":{"id":1708474,"name":"On or near Romford"},"longitude":"0.182055"},"context":"","outcome_status":null,"persistent_id":"","id":130295927,"location_subtype":"","month":"2025-07"},{"category":"anti-social-behaviour","location_type":"Force","location":{"latitude":"51.569605","street":{"id":1708513,"name":"On or near Shopping Area"},"longitude":"0.183528"},"context":"","outcome_status":null,"persistent_id":"","id":130295899,"location_subtype":"","month":"2025-07"},{"category":"anti-social-behaviour","location_type":"Force","location":{"latitude":"51.580047","street":{"id":1708440,"name":"On or near Shopping Area"},"longitude":"0.182323"},"context":"","outcome_status":null,"persistent_id":"","id":130295852,"location_subtype":"","month":"2025-07"},{"category":"anti-social-behaviour","location_type":"Force","location":{"latitude":"51.578197","street":{"id":1707932,"name":"On or near Mildmay Road"},"longitude":"0.168850"},"context":"","outcome_status":null,"persistent_id":"","id":130295720,"location_subtype":"","month":"2025-07"},{"category":"anti-social-behaviour","location_type":"Force","location":{"latitude":"51.581801","street":{"id":1707757,"name":"On or near Denbar Parade"},"longitude":"0.164547"},"context":"","outcome_status":null,"persistent_id":"","id":130295581,"location_subtype":"","month":"2025-07"},{"category":"anti-social-behaviour","location_type":"Force","location":{"latitude":"51.571808","street":{"id":1708317,"name":"On or near Maxwell Road"},"longitude":"0.178749"},"context":"","outcome_status":null,"persistent_id":"","id":130295375,"location_subtype":"","month":"2025-07"},{"category":"anti-social-behaviour","location_type":"Force","location":{"latitude":"51.569564","street":{"id":1708187,"name":"On or near Sports/recreation Area"},"longitude":"0.176337"},"context":"","outcome_status":null,"persistent_id":"","id":130295279,"location_subtype":"","month":"2025-07"},{"category":"anti-social-behaviour","location_type":"Force","location":{"latitude":"51.577759","street":{"id":1708599,"name":"On or near Mercury Gardens"},"longitude":"0.186135"},"context":"","outcome_status":null,"persistent_id":"","id":130295191,"location_subtype":"","month":"2025-07"},{"category":"anti-social-behaviour","location_type":"Force","location":{"latitude":"51.574977","street":{"id":1708098,"name":"On or near Larkspur Mews"},"longitude":"0.173257"},"context":"","outcome_status":null,"persistent_id":"","id":130295184,"location_subtype":"","month":"2025-07"},{"category":"anti-social-behaviour","location_type":"Force","location":{"latitude":"51.568086","street":{"id":1708151,"name":"On or near East Road"},"longitude":"0.174819"},"context":"","outcome_status":null,"persistent_id":"","id":130291577,"location_subtype":"","month":"2025-07"},{"category":"bicycle-theft","location_type":"Force","location":{"latitude":"51.568651","street":{"id":1708338,"name":"On or near Hospital"},"longitude":"0.179027"},"context":"","outcome_status":{"category":"Investigation complete; no suspect identified","date":"2025-07"},"persistent_id":"714c2da29c2e2dd74e5ca3150f07a58baa818325fbeda9b563d9b4112592ea16","id":130314196,"location_subtype":"","month":"2025-07"},{"category":"bicycle-theft","location_type":"Force","location":{"latitude":"51.576990","street":{"id":1708555,"name":"On or near Grimshaw Way"},"longitude":"0.184943"},"context":"","outcome_status":{"category":"Investigation complete; no suspect identified","date":"2025-07"},"persistent_id":"bacfc727baad1f9e48383e0a673b30059eca7595cd73851909650b3140d1fdd0","id":130388592,"location_subtype":"","month":"2025-07"},{"category":"bicycle-theft","location_type":"Force","location":{"latitude":"51.570928","street":{"id":1708175,"name":"On or near Crown Drive"},"longitude":"0.175777"},"context":"","outcome_status":{"category":"Investigation complete; no suspect identified","date":"2025-07"},"persistent_id":"1dffdfb09383cfbca56e25deee9ec964189c61950138bec9ae0c42f485726dd8","id":130334899,"location_subtype":"","month":"2025-07"},{"category":"bicycle-theft","location_type":"Force","location":{"latitude":"51.576990","street":{"id":1708555,"name":"On or near Grimshaw Way"},"longitude":"0.184943"},"context":"","outcome_status":{"category":"Investigation complete; no suspect identified","date":"2025-09"},"persistent_id":"e7ac2dc7ed1671f8143e539a03758d291c03291a628f5927da59902479ca6e44","id":130353732,"location_subtype":"","month":"2025-07"},{"category":"bicycle-theft","location_type":"Force","location":{"latitude":"51.573558","street":{"id":1708550,"name":"On or near Marden Road"},"longitude":"0.184778"},"context":"","outcome_status":{"category":"Investigation complete; no suspect identified","date":"2025-07"},"persistent_id":"fce1ef6d3e7a62494571536913a6ebdbf2eb3afc2b06de7125d5ddef4563b873","id":130320061,"location_subtype":"","month":"2025-07"},{"category":"bicycle-theft","location_type":"Force","location":{"latitude":"51.577636","street":{"id":1708311,"name":"On or near High Street"},"longitude":"0.178739"},"context":"","outcome_status":{"category":"Investigation complete; no suspect identified","date":"2025-10"},"persistent_id":"874d15aa8fa1b633aac75ac07661ff76cc381e04583d663a22f65a8b5d525bb5","id":130388911,"location_subtype":"","month":"2025-07"},{"category":"burglary","location_type":"Force","location":{"latitude":"51.566226","street":{"id":1708606,"name":"On or near Rom Valley Way"},"longitude":"0.185899"},"context":"","outcome_status":{"category":"Investigation complete; no suspect identified","date":"2025-07"},"persistent_id":"ca3ddc69c954571bc6531d3119b1f1778a63949bbe3acec8a5abaa23fa1f46aa","id":130308096,"location_subtype":"","month":"2025-07"},{"category":"burglary","location_type":"Force","location":{"latitude":"51.575946","street":{"id":1708497,"name":"On or near Chandlers Way"},"longitude":"0.183508"},"context":"","outcome_status":{"category":"Investigation complete; no suspect identified","date":"2025-07"},"persistent_id":"3c8a9174c2f7d41a4671e1e6774d889831df67668f23dd62a4a35be81cd9f0e5","id":130312153,"location_subtype":"","month":"2025-07"},{"category":"burglary","location_type":"Force","location":{"latitude":"51.581423","street":{"id":1708279,"name":"On or near Ingrave Road"},"longitude":"0.178213"},"context":"","outcome_status":{"category":"Unable to prosecute suspect","date":"2025-07"},"persistent_id":"5771917b9c6098d6c507c18c0f88a07de0ef4c1f55a1a6a938e6fdae85b633e5","id":130362421,"location_subtype":"","month":"2025-07"},{"category":"burglary","location_type":"Force","location":{"latitude":"51.571090","street":{"id":1708235,"name":"On or near Bournebrook Grove"},"longitude":"0.176766"},"context":"","outcome_status":{"category":"Investigation complete; no suspect identified","date":"2025-07"},"persistent_id":"39189d591b6356df0ce054058c7df7ca018c66e5685e2fe38438afa30bd0713b","id":130326614,"location_subtype":"","month":"2025-07"},{"category":"burglary","location_type":"Force","location":{"latitude":"51.568086","street":{"id":1708151,"name":"On or near East Road"},"longitude":"0.174819"},"context":"","outcome_status":{"category":"Investigation complete; no suspect identified","date":"2025-07"},"persistent_id":"c33879b399a004e8fdd8947326a6e70f86bcc93fb11c58772c911eed98924be0","id":130358391,"location_subtype":"","month":"2025-07"},{"category":"burglary","location_type":"Force","location":{"latitude":"51.571808","street":{"id":1708317,"name":"On or near Maxwell Road"},"longitude":"0.178749"},"context":"","outcome_status":{"category":"Investigation complete; no suspect identified","date":"2025-07"},"persistent_id":"c996979e76c4b78f4ad029b52b869200f96b063a3b01adeb3b5add082c1698b4","id":130389203,"location_subtype":"","month":"2025-07"},{"category":"burglary","location_type":"Force","location":{"latitude":"51.573762","street":{"id":1708494,"name":"On or near Supermarket"},"longitude":"0.183081"},"context":"","outcome_status":{"category":"Investigation complete; no suspect identified","date":"2025-08"},"persistent_id":"19596ec85769f672a3493aa9a1f8e288131a36f908ed8356874e60c083d32026","id":130379987,"location_subtype":"","month":"2025-07"},{"category":"burglary","location_type":"Force","location":{"latitude":"51.581801","street":{"id":1707757,"name":"On or near Denbar Parade"},"longitude":"0.164547"},"context":"","outcome_status":{"category":"Investigation complete; no suspect identified","date":"2025-08"},"persistent_id":"68de7d2e40aa11d6733e2b359a32b865132ac12b7e7050d8e2271a4887cac696","id":130363415,"location_subtype":"","month":"2025-07"},{"category":"burglary","location_type":"Force","location":{"latitude":"51.572830","street":{"id":1708376,"name":"On or near Bridge Close"},"longitude":"0.180847"},"context":"","outcome_status":{"category":"Unable to prosecute suspect","date":"2025-07"},"persistent_id":"9ce8a7aa565339da9e4fe46834225c4b348f8abf0601b5e83312bc4ec7d6f638","id":130361206,"location_subtype":"","month":"2025-07"},{"category":"burglary","location_type":"Force","location":{"latitude":"51.574977","street":{"id":1708098,"name":"On or near Larkspur Mews"},"longitude":"0.173257"},"context":"","outcome_status":{"category":"Investigation complete; no suspect identified","date":"2025-07"},"persistent_id":"af5a4b143a7fe8fe078ddf13556d05b73476be06d5b161e2b4be105c22c63974","id":130354500,"location_subtype":"","month":"2025-07"},{"category":"burglary","location_type":"Force","location":{"latitude":"51.564433","street":{"id":1708131,"name":"On or near Parking Area"},"longitude":"0.175438"},"context":"","outcome_status":{"category":"Investigation complete; no suspect identified","date":"2025-07"},"persistent_id":"ae4a60fa78c8ef023d6191b466ba3102ef4c43260c3e97e84cc10b593441d108","id":130330679,"location_subtype":"","month":"2025-07"},{"category":"burglary","location_type":"Force","location":{"latitude":"51.578389","street":{"id":1708340,"name":"On or near Shopping Area"},"longitude":"0.180957"},"context":"","outcome_status":{"category":"Local resolution","date":"2025-10"},"persistent_id":"90bf333392d7624acd11ee1fc0db2c8fcf53a1950fd55e6368dc6b2748909ba5","id":130350122,"location_subtype":"","month":"2025-07"},{"category":"burglary","location_type":"Force","location":{"latitude":"51.587930","street":{"id":1708283,"name":"On or near Fir Tree Close"},"longitude":"0.177932"},"context":"","outcome_status":{"category":"Investigation complete; no suspect identified","date":"2025-07"},"persistent_id":"2e6e4bcb7fbe0c49c682fdf988a52eb53dc94562cf46c6a17440e7e90dcd5511","id":130344427,"location_subtype":"","month":"2025-07"},{"category":"burglary","location_type":"Force","location":{"latitude":"51.577486","street":{"id":1708460,"name":"On or near Shopping Area"},"longitude":"0.182214"},"context":"","outcome_status":{"category":"Investigation complete; no suspect identified","date":"2025-11"},"persistent_id":"bb4eb72acd6ef93a22e3279cec1c8507f64ec314612f5132d0f845eb9107af18","id":130325800,"location_subtype":"","month":"2025-07"},{"category":"burglary","location_type":"Force","location":{"latitude":"51.569564","street":{"id":1708187,"name":"On or near Sports/recreation Area"},"longitude":"0.176337"},"context":"","outcome_status":{"category":"Unable to prosecute suspect","date":"2025-07"},"persistent_id":"570bbd9064198ff304ba03f2210deb452809bf33dfcd6ccb09d8689073b8c74b","id":130311293,"location_subtype":"","month":"2025-07"},{"category":"burglary","location_type":"Force","location":{"latitude":"51.579496","street":{"id":1708365,"name":"On or near Nightclub"},"longitude":"0.179534"},"context":"","outcome_status":{"category":"Investigation complete; no suspect identified","date":"2025-07"},"persistent_id":"998623bfac76bf258ad42c33182e54aa2bf69b9283add42185a47470ea99ee6d","id":130309465,"location_subtype":"","month":"2025-07"},{"category":"burglary","location_type":"Force","location":{"latitude":"51.575217","street":{"id":1708346,"name":"On or near Supermarket"},"longitude":"0.180153"},"context":"","outcome_status":{"category":"Investigation complete; no suspect identified","date":"2025-09"},"persistent_id":"58c0a4703cdf3c0cc4b48682b5488ce85079a425038a3b3f586f561bf4840679","id":130389931,"location_subtype":"","month":"2025-07"},{"category":"criminal-damage-arson","location_type":"Force","location":{"latitude":"51.566629","street":{"id":1708432,"name":"On or near Hornford Way"},"longitude":"0.183580"},"context":"","outcome_status":{"category":"Unable to prosecute suspect","date":"2025-07"},"persistent_id":"f511345b92340e8aa2ea868b807b7b1ca828722001348ef2ae6a006755fdae53","id":130325451,"location_subtype":"","month":"2025-07"},{"category":"criminal-damage-arson","location_type":"Force","location":{"latitude":"51.568651","street":{"id":1708338,"name":"On or near Hospital"},"longitude":"0.179027"},"context":"","outcome_status":{"category":"Unable to prosecute suspect","date":"2025-07"},"persistent_id":"f5e266d8c53fa6711597042793226960894c2729df9cd27bb5e9c9c8385733a1","id":130327290,"location_subtype":"","month":"2025-07"},{"category":"criminal-damage-arson","location_type":"Force","location":{"latitude":"51.574977","street":{"id":1708098,"name":"On or near Larkspur Mews"},"longitude":"0.173257"},"context":"","outcome_status":{"category":"Investigation complete; no suspect identified","date":"2025-07"},"persistent_id":"445f9a32b5e791d3f4f8cca1ad23120bbfc2bb28457cb3fe093315d1a315f97c","id":130350255,"location_subtype":"","month":"2025-07"},{"category":"criminal-damage-arson","location_type":"Force","location":{"latitude":"51.566226","street":{"id":1708606,"name":"On or near Rom Valley Way"},"longitude":"0.185899"},"context":"","outcome_status":{"category":"Investigation complete; no suspect identified","date":"2025-07"},"persistent_id":"d7d47db71cd4c4e518cad8267b072649571801009a3bdcc4cf24245db60e4936","id":130386353,"location_subtype":"","month":"2025-07"},{"category":"criminal-damage-arson","location_type":"Force","location":{"latitude":"51.575851","street":{"id":1708410,"name":"On or near Parking Area"},"longitude":"0.180905"},"context":"","outcome_status":{"category":"Investigation complete; no suspect identified","date":"2025-10"},"persistent_id":"b3c31908b53c862f21c369e468c3af2a1c1d13917812dba199f2c1cc4be6ddfa","id":130343858,"location_subtype":"","month":"2025-07"},{"category":"criminal-damage-arson","location_type":"Force","location":{"latitude":"51.584611","street":{"id":1707901,"name":"On or near Parking Area"},"longitude":"0.168246"},"context":"","outcome_status":{"category":"Investigation complete; no suspect identified","date":"2025-07"},"persistent_id":"c27d4d2b24fe111146726d188272ce5ae25dd05db45914d604ae167489282b23","id":130325229,"location_subtype":"","month":"2025-07"},{"category":"criminal-damage-arson","location_type":"Force","location":{"latitude":"51.588837","street":{"id":1708103,"name":"On or near Petrol Station"},"longitude":"0.175178"},"context":"","outcome_status":{"category":"Investigation complete; no suspect identified","date":"2025-07"},"persistent_id":"973fbe544ee8d2b2e49e2bf3b51e30527e4ff464e0bef719b3841cb6abccd8db","id":130331614,"location_subtype":"","month":"2025-07"},{"category":"criminal-damage-arson","location_type":"Force","location":{"latitude":"51.568974","street":{"id":1708423,"name":"On or near Parking Area"},"longitude":"0.182192"},"context":"","outcome_status":{"category":"Investigation complete; no suspect identified","date":"2025-08"},"persistent_id":"19ab688a47b919cceda4785a31a4e1d6c8f6040deb410ed9b50b2297bb05aca5","id":130332309,"location_subtype":"","month":"2025-07"},{"category":"criminal-damage-arson","location_type":"Force","location":{"latitude":"51.568651","street":{"id":1708338,"name":"On or near Hospital"},"longitude":"0.179027"},"context":"","outcome_status":{"category":"Investigation complete; no suspect identified","date":"2025-10"},"persistent_id":"1c43b9078229d1fd68b9a51493d57e77a532151be435eb218eba08754ddaa13f","id":130310238,"location_subtype":"","month":"2025-07"},{"category":"criminal-damage-arson","location_type":"Force","location":{"latitude":"51.579711","street":{"id":1708374,"name":"On or near Market Link"},"longitude":"0.180772"},"context":"","outcome_status":{"category":"Local resolution","date":"2025-09"},"persistent_id":"e1f46ccc963d04b01ed94af0ba127dae7a694cb90cbf21aa65f1ea5b34d2d225","id":130311932,"location_subtype":"","month":"2025-07"},{"category":"criminal-damage-arson","location_type":"Force","location":{"latitude":"51.575644","street":{"id":1707890,"name":"On or near Recreation Avenue"},"longitude":"0.168310"},"context":"","outcome_status":{"category":"Investigation complete; no suspect identified","date":"2025-07"},"persistent_id":"21701aa0dc341012120fc9cef62148303306a81e12dab810927fe45c72479e2f","id":130350646,"location_subtype":"","month":"2025-07"},{"category":"criminal-damage-arson","location_type":"Force","location":{"latitude":"51.568086","street":{"id":1708151,"name":"On or near East Road"},"longitude":"0.174819"},"context":"","outcome_status":{"category":"Investigation complete; no suspect identified","date":"2025-09"},"persistent_id":"4680af6cb5d623d0ddb2197d5eb3dd0136ce99b0fc58d966500a2f92fe684e38","id":130353591,"location_subtype":"","month":"2025-07"},{"category":"criminal-damage-arson","location_type":"Force","location":{"latitude":"51.574357","street":{"id":1707952,"name":"On or near Ryan Court"},"longitude":"0.169808"},"context":"","outcome_status":{"category":"Status update unavailable","date":"2025-11"},"persistent_id":"927c03a63370a1e5cbc189ed28016446dde866b8b07b40eb3e88e396a6c8ffa9","id":130369565,"location_subtype":"","month":"2025-07"},{"category":"criminal-damage-arson","location_type":"Force","location":{"latitude":"51.581423","street":{"id":1708279,"name":"On or near Ingrave Road"},"longitude":"0.178213"},"context":"","outcome_status":{"category":"Investigation complete; no suspect identified","date":"2025-08"},"persistent_id":"d11939e064bbe1dd6e815666ef14cb18838cabe6b13956ae8fd504fad3fc93ca","id":130369863,"location_subtype":"","month":"2025-07"},{"category":"criminal-damage-arson","location_type":"Force","location":{"latitude":"51.568457","street":{"id":1707412,"name":"On or near Crow Lane"},"longitude":"0.159151"},"context":"","outcome_status":{"category":"Investigation complete; no suspect identified","date":"2025-08"},"persistent_id":"45b0469b1709cb8d5ec16315a47ae7bee16ead616336ec555d4107785e133146","id":130373773,"location_subtype":"","month":"2025-07"},{"category":"criminal-damage-arson","location_type":"Force","location":{"latitude":"51.575851","street":{"id":1708410,"name":"On or near Parking Area"},"longitude":"0.180905"},"context":"","outcome_status":{"category":"Investigation complete; no suspect identified","date":"2025-12"},"persistent_id":"5d01eff01adb123747da05ce23b21743c33c3b44c655d5146b3ddbc6b2a8a188","id":130378628,"location_subtype":"","month":"2025-07"},{"category":"criminal-damage-arson","location_type":"Force","location":{"latitude":"51.575726","street":{"id":1708310,"name":"On or near Bus/coach Station"},"longitude":"0.178513"},"context":"","outcome_status":{"category":"Local resolution","date":"2025-09"},"persistent_id":"3d85145bb76db0a1ba4ee141f44d46e0913d7e0177b8d61f61d5dd193826f09c","id":130379213,"location_subtype":"","month":"2025-07"},{"category":"criminal-damage-arson","location_type":"Force","location":{"latitude":"51.572011","street":{"id":1707514,"name":"On or near Jutsums Avenue"},"longitude":"0.160503"},"context":"","outcome_status":{"category":"Offender given penalty notice","date":"2026-01"},"persistent_id":"c4d8eef25420fff87c47da887ae487c8ed7f35836c148bab033a846452c5155f","id":130381489,"location_subtype":"","month":"2025-07"},{"category":"criminal-damage-arson","location_type":"Force","location":{"latitude":"51.577151","street":{"id":1708236,"name":"On or near Hedley Close"},"longitude":"0.177706"},"context":"","outcome_status":{"category":"Investigation complete; no suspect identified","date":"2025-12"},"persistent_id":"abcb452ac9a54ea5847e9168b54f46a0ebb51f7e040f5d76a908b17fabbbac0b","id":130383474,"location_subtype":"","month":"2025-07"},{"category":"criminal-damage-arson","location_type":"Force","location":{"latitude":"51.577736","street":{"id":1707940,"name":"On or near Barkwood Close"},"longitude":"0.168973"},"context":"","outcome_status":{"category":"Unable to prosecute suspect","date":"2025-09"},"persistent_id":"b3d2574c4aeb9a40403741199ba6ff42bd9bb542a2ef856999dd7e79cbe9a6f0","id":130386053,"location_subtype":"","month":"2025-07"},{"category":"criminal-damage-arson","location_type":"Force","location":{"latitude":"51.577736","street":{"id":1707940,"name":"On or near Barkwood Close"},"longitude":"0.168973"},"context":"","outcome_status":{"category":"Unable to prosecute suspect","date":"2025-09"},"persistent_id":"f7a981606b14d4cdf24ce850d41003b4fa0de10d81ebbfd7c75a5972235d752f","id":130386636,"location_subtype":"","month":"2025-07"},{"category":"criminal-damage-arson","location_type":"Force","location":{"latitude":"51.568974","street":{"id":1708423,"name":"On or near Parking Area"},"longitude":"0.182192"},"context":"","outcome_status":{"category":"Unable to prosecute suspect","date":"2025-07"},"persistent_id":"8170e6c82bde05aa275310b6d60693876f2df143a5435221ad9febcaf5608b6f","id":130328915,"location_subtype":"","month":"2025-07"},{"category":"criminal-damage-arson","location_type":"Force","location":{"latitude":"51.564651","street":{"id":1707782,"name":"On or near Bell House Road"},"longitude":"0.165565"},"context":"","outcome_status":{"category":"Investigation complete; no suspect identified","date":"2025-07"},"persistent_id":"981cfa4ac0bf89e4f2001bbe1d1b23d16cf7ade513b9cbcca8eb79192cb03036","id":130341284,"location_subtype":"","month":"2025-07"},{"category":"criminal-damage-arson","location_type":"Force","location":{"latitude":"51.574014","street":{"id":1708287,"name":"On or near Waterloo Road"},"longitude":"0.178623"},"context":"","outcome_status":{"category":"Investigation complete; no suspect identified","date":"2025-07"},"persistent_id":"72a1fddc6c0455e90c08812f79b877a9d5fa925218f005ae47643c7c1078dd49","id":130352983,"location_subtype":"","month":"2025-07"},{"category":"criminal-damage-arson","location_type":"Force","location":{"latitude":"51.574236","street":{"id":1708062,"name":"On or near Old Mill Place"},"longitude":"0.172457"},"context":"","outcome_status":{"category":"Investigation complete; no suspect identified","date":"2025-07"},"persistent_id":"1f7478d642c4dba6279e2747be6461e9d1f5764d5c9acd1bb0fdee345aae26ad","id":130319571,"location_subtype":"","month":"2025-07"},{"category":"criminal-damage-arson","location_type":"Force","location":{"latitude":"51.571808","street":{"id":1708317,"name":"On or near Maxwell Road"},"longitude":"0.178749"},"context":"","outcome_status":{"category":"Investigation complete; no suspect identified","date":"2025-07"},"persistent_id":"1bbe008254bc6629c28a527aacedbb575477e1a887b0ae94f734db429c812b7e","id":130370744,"location_subtype":"","month":"2025-07"},{"category":"drugs","location_type":"Force","location":{"latitude":"51.576144","street":{"id":1708568,"name":"On or near Theatre/concert Hall"},"longitude":"0.185213"},"context":"","outcome_status":{"category":"Local resolution","date":"2025-07"},"persistent_id":"ffaf26c78d0d5aa35816b1de84ab8ac035d799dd41a156c4f2de7ef58dcd013f","id":130325279,"location_subtype":"","month":"2025-07"},{"category":"drugs","location_type":"Force","location":{"latitude":"51.573762","street":{"id":1708494,"name":"On or near Supermarket"},"longitude":"0.183081"},"context":"","outcome_status":{"category":"Awaiting court outcome","date":"2025-09"},"persistent_id":"ee83320f1760441831985972155810ec0db1c5434d9844030d121eada1b01acf","id":130353957,"location_subtype":"","month":"2025-07"},{"category":"drugs","location_type":"Force","location":{"latitude":"51.575285","street":{"id":1708670,"name":"On or near Hannover Place"},"longitude":"0.188614"},"context":"","outcome_status":{"category":"Unable to prosecute suspect","date":"2025-07"},"persistent_id":"95b6ec0cb79dbda975ea6a011d13e6b48afdbda48dbf9d7894cc114ff59bbfae","id":130325773,"location_subtype":"","month":"2025-07"},{"category":"drugs","location_type":"Force","location":{"latitude":"51.566226","street":{"id":1708606,"name":"On or near Rom Valley Way"},"longitude":"0.185899"},"context":"","outcome_status":{"category":"Unable to prosecute suspect","date":"2025-07"},"persistent_id":"09fc264ecf355425b52554aa0fcaa67c3ebc65ff38bdd1b5c949df991814a4ca","id":130313575,"location_subtype":"","month":"2025-07"},{"category":"drugs","location_type":"Force","location":{"latitude":"51.587108","street":{"id":1707395,"name":"On or near Cross Road"},"longitude":"0.157177"},"context":"","outcome_status":{"category":"Unable to prosecute suspect","date":"2025-07"},"persistent_id":"dc0193c542efb89dfa0b84bc2c1b7dcd2a70d314e0a0f9e7897657f613042a64","id":130359086,"location_subtype":"","month":"2025-07"},{"category":"drugs","location_type":"Force","location":{"latitude":"51.578085","street":{"id":1708730,"name":"On or near Carlton Road"},"longitude":"0.190841"},"context":"","outcome_status":{"category":"Local resolution","date":"2025-09"},"persistent_id":"09007a0e8cb88fb403f5b1b8714eaa29f0dd9a3608c61503777c12ae493b605c","id":130384820,"location_subtype":"","month":"2025-07"},{"category":"drugs","location_type":"Force","location":{"latitude":"51.562419","street":{"id":1707529,"name":"On or near Wisdons Close"},"longitude":"0.159846"},"context":"","outcome_status":{"category":"Offender given penalty notice","date":"2025-11"},"persistent_id":"9e3fd04e6ffb8e2d8b00050339d37183c590ba6d2acdacab1eee5a9d64829a58","id":130342723,"location_subtype":"","month":"2025-07"},{"category":"drugs","location_type":"Force","location":{"latitude":"51.580047","street":{"id":1708440,"name":"On or near Shopping Area"},"longitude":"0.182323"},"context":"","outcome_status":{"category":"Offender given a caution","date":"2025-12"},"persistent_id":"9dd038078c660d12cd4a282576cbb9167d15f9d13ce252c15f7285048b4425ce","id":130325502,"location_subtype":"","month":"2025-07"},{"category":"drugs","location_type":"Force","location":{"latitude":"51.584446","street":{"id":1707585,"name":"On or near Epping Close"},"longitude":"0.161107"},"context":"","outcome_status":{"category":"Unable to prosecute suspect","date":"2025-07"},"persistent_id":"f71baae8282edbb934769062aaed2ea26d8a3d5f6b95cbfcaf844e4e29b3613f","id":130389345,"location_subtype":"","month":"2025-07"},{"category":"drugs","location_type":"Force","location":{"latitude":"51.571090","street":{"id":1708235,"name":"On or near Bournebrook Grove"},"longitude":"0.176766"},"context":"","outcome_status":{"category":"Local resolution","date":"2025-07"},"persistent_id":"7455915c8c67ac1bef5ee2f4733906a2a49efbeca48f93d290f4f6aba15c521e","id":130376113,"location_subtype":"","month":"2025-07"},{"category":"drugs","location_type":"Force","location":{"latitude":"51.583256","street":{"id":1707600,"name":"On or near Amberley Way"},"longitude":"0.162220"},"context":"","outcome_status":{"category":"Awaiting court outcome","date":"2025-11"},"persistent_id":"9fd265069d8060edd5f39ef467036264afe27742405bbf339c62d5b05b1a311d","id":130375819,"location_subtype":"","month":"2025-07"},{"category":"drugs","location_type":"Force","location":{"latitude":"51.578085","street":{"id":1708730,"name":"On or near Carlton Road"},"longitude":"0.190841"},"context":"","outcome_status":{"category":"Awaiting court outcome","date":"2025-12"},"persistent_id":"2fdf63bf13909b449f40b971b10987584be3a088775b1254a4c86347bd7a9672","id":130384971,"location_subtype":"","month":"2025-07"},{"category":"drugs","location_type":"Force","location":{"latitude":"51.571090","street":{"id":1708235,"name":"On or near Bournebrook Grove"},"longitude":"0.176766"},"context":"","outcome_status":{"category":"Unable to prosecute suspect","date":"2025-07"},"persistent_id":"ac0a1dc3e307762e779f5f5d77fcfb15ecb9bca5628483909d4793385b9706c8","id":130336590,"location_subtype":"","month":"2025-07"},{"category":"drugs","location_type":"Force","location":{"latitude":"51.583991","street":{"id":1707616,"name":"On or near Mawney Road"},"longitude":"0.163800"},"context":"","outcome_status":{"category":"Unable to prosecute suspect","date":"2025-07"},"persistent_id":"d24917923f43181fab2e120d9e42b0659e5d8eddc81873abaae240e6d3468507","id":130336494,"location_subtype":"","month":"2025-07"},{"category":"drugs","location_type":"Force","location":{"latitude":"51.582625","street":{"id":1707374,"name":"On or near Blandford Close"},"longitude":"0.157412"},"context":"","outcome_status":{"category":"Unable to prosecute suspect","date":"2025-07"},"persistent_id":"87b5b6c5720aa85598d9962592e87f61d4a8328a9708dbe889a8d7e9eece2008","id":130383120,"location_subtype":"","month":"2025-07"},{"category":"drugs","location_type":"Force","location":{"latitude":"51.581801","street":{"id":1707757,"name":"On or near Denbar Parade"},"longitude":"0.164547"},"context":"","outcome_status":{"category":"Awaiting court outcome","date":"2025-08"},"persistent_id":"a8d5d5de560b85a42b02f93a336c3da7e22b1abc6239c9fbdf0f4b648f612ac3","id":130356585,"location_subtype":"","month":"2025-07"},{"category":"drugs","location_type":"Force","location":{"latitude":"51.572824","street":{"id":1708781,"name":"On or near Moss Lane"},"longitude":"0.190848"},"context":"","outcome_status":{"category":"Unable to prosecute suspect","date":"2025-07"},"persistent_id":"4ddf848c846a8a1939fe28f5f35450ed98306d5cd3a1cf1d6c5c4fac4986cc80","id":130366644,"location_subtype":"","month":"2025-07"},{"category":"drugs","location_type":"Force","location":{"latitude":"51.577949","street":{"id":1708270,"name":"On or near Shopping Area"},"longitude":"0.178768"},"context":"","outcome_status":{"category":"Status update unavailable","date":"2025-11"},"persistent_id":"0505111df749dc2e045156b9aa9f9183149dd51723d8e933e187d30b192f4a5a","id":130341965,"location_subtype":"","month":"2025-07"},{"category":"drugs","location_type":"Force","location":{"latitude":"51.579435","street":{"id":1708597,"name":"On or near Shopping Area"},"longitude":"0.185659"},"context":"","outcome_status":{"category":"Court result unavailable","date":"2026-01"},"persistent_id":"41499d6ecdaaab06801e902b37e1587df2eecca198e3652811e695aba7351f01","id":130345563,"location_subtype":"","month":"2025-07"},{"category":"drugs","location_type":"Force","location":{"latitude":"51.577486","street":{"id":1708460,"name":"On or near Shopping Area"},"longitude":"0.182214"},"context":"","outcome_status":{"category":"Status update unavailable","date":"2025-11"},"persistent_id":"375b4977cbfbc38522ad6c88675b80e9e46f24db6038bac16d0cc7588a6d5a4c","id":130325144,"location_subtype":"","month":"2025-07"},{"category":"drugs","location_type":"Force","location":{"latitude":"51.571090","street":{"id":1708235,"name":"On or near Bournebrook Grove"},"longitude":"0.176766"},"context":"","outcome_status":{"category":"Status update unavailable","date":"2025-11"},"persistent_id":"1ce4839420ef896b30ad32f886d341722ac5d422eadf83b9ba81a1f74f1bec1b","id":130309801,"location_subtype":"","month":"2025-07"},{"category":"drugs","location_type":"Force","location":{"latitude":"51.576028","street":{"id":1708438,"name":"On or near Exchange Street"},"longitude":"0.181563"},"context":"","outcome_status":{"category":"Local resolution","date":"2025-08"},"persistent_id":"5ba3778c76828907939b35d5eae7295fa9bc90a3a23b3a65eba209e71371e42f","id":130372277,"location_subtype":"","month":"2025-07"},{"category":"drugs","location_type":"Force","location":{"latitude":"51.587108","street":{"id":1707395,"name":"On or near Cross Road"},"longitude":"0.157177"},"context":"","outcome_status":{"category":"Unable to prosecute suspect","date":"2025-07"},"persistent_id":"6ca1463c1ad3a143dd14cc2dcb508d3b7e2f1dcec7364fa4c1fc553d30bdf6d5","id":130330447,"location_subtype":"","month":"2025-07"},{"category":"drugs","location_type":"Force","location":{"latitude":"51.575946","street":{"id":1708497,"name":"On or near Chandlers Way"},"longitude":"0.183508"},"context":"","outcome_status":{"category":"Local resolution","date":"2025-09"},"persistent_id":"20fa697cda8467f5490c0da0fe1e0fc9f0ca39d05d8b01ddcc92392f77e16736","id":130373228,"location_subtype":"","month":"2025-07"},{"category":"drugs","location_type":"Force","location":{"latitude":"51.584381","street":{"id":1707537,"name":"On or near Swan Mews"},"longitude":"0.159719"},"context":"","outcome_status":{"category":"Unable to prosecute suspect","date":"2025-07"},"persistent_id":"53058715275c678dee1ecbfef9b56320510d48686a16da1f67f26693d0244ff6","id":130355452,"location_subtype":"","month":"2025-07"},{"category":"drugs","location_type":"Force","location":{"latitude":"51.575946","street":{"id":1708497,"name":"On or near Chandlers Way"},"longitude":"0.183508"},"context":"","outcome_status":{"category":"Formal action is not in the public interest","date":"2025-07"},"persistent_id":"5faee478d5647761b78933066024e9693354061d29c869b981687aa92d75fb48","id":130339218,"location_subtype":"","month":"2025-07"},{"category":"drugs","location_type":"Force","location":{"latitude":"51.584381","street":{"id":1707537,"name":"On or near Swan Mews"},"longitude":"0.159719"},"context":"","outcome_status":{"category":"Unable to prosecute suspect","date":"2025-07"},"persistent_id":"b23fdd303a7900bc7155ac88d879739d6c1d35e45d9194f7b7f98cf82dcd75e3","id":130389871,"location_subtype":"","month":"2025-07"},{"category":"drugs","location_type":"Force","location":{"latitude":"51.579571","street":{"id":1708434,"name":"On or near Shopping Area"},"longitude":"0.181293"},"context":"","outcome_status":{"category":"Local resolution","date":"2025-10"},"persistent_id":"480c71ca1b419ebb0e0b59c81fb3e8a2ba3072c7f3af4d4f262cbf993c1aabcc","id":130308700,"location_subtype":"","month":"2025-07"},{"category":"drugs","location_type":"Force","location":{"latitude":"51.575726","street":{"id":1708294,"name":"On or near Romford Brewery Bus Station"},"longitude":"0.178417"},"context":"","outcome_status":{"category":"Status update unavailable","date":"2025-11"},"persistent_id":"3f83ddfbdeab018d54be5eb3731a4b77d9955c0b3e68c547fee64f044d023805","id":130339048,"location_subtype":"","month":"2025-07"},{"category":"drugs","location_type":"Force","location":{"latitude":"51.576028","street":{"id":1708438,"name":"On or near Exchange Street"},"longitude":"0.181563"},"context":"","outcome_status":{"category":"Local resolution","date":"2025-08"},"persistent_id":"0f5085c3a414dc0d58ad748a8721ec86861790ba0be4ceef7d5f500b562770e0","id":130363669,"location_subtype":"","month":"2025-07"},{"category":"drugs","location_type":"Force","location":{"latitude":"51.575586","street":{"id":1708720,"name":"On or near Victoria Road"},"longitude":"0.188830"},"context":"","outcome_status":{"category":"Unable to prosecute suspect","date":"2025-11"},"persistent_id":"29a58c27c125ec941b0f3e38081799aa977f01b0ceb09e7d542eefb682112a9f","id":130363695,"location_subtype":"","month":"2025-07"},{"category":"drugs","location_type":"Force","location":{"latitude":"51.573558","street":{"id":1708550,"name":"On or near Marden Road"},"longitude":"0.184778"},"context":"","outcome_status":{"category":"Local resolution","date":"2025-12"},"persistent_id":"b24a89f6a5c1a60d67f25f501f9718eb78843a44b841fc9102bba127e2b8b1f9","id":130312375,"location_subtype":"","month":"2025-07"},{"category":"drugs","location_type":"Force","location":{"latitude":"51.583849","street":{"id":1707321,"name":"On or near Burleigh Close"},"longitude":"0.156893"},"context":"","outcome_status":{"category":"Unable to prosecute suspect","date":"2025-07"},"persistent_id":"ccf5568afdf4ef86a0c6527e67d1162e667307d3d362f128330db38fc90689f7","id":130324100,"location_subtype":"","month":"2025-07"},{"category":"drugs","location_type":"Force","location":{"latitude":"51.572405","street":{"id":1708517,"name":"On or near South Street"},"longitude":"0.183901"},"context":"","outcome_status":{"category":"Unable to prosecute suspect","date":"2025-12"},"persistent_id":"13f55a549b11b3e68f9a1ec0feaba0572e001f1fad5fbbb5b5d84af2c208ea54","id":130307901,"location_subtype":"","month":"2025-07"},{"category":"drugs","location_type":"Force","location":{"latitude":"51.577486","street":{"id":1708460,"name":"On or near Shopping Area"},"longitude":"0.182214"},"context":"","outcome_status":{"category":"Offender given penalty notice","date":"2026-01"},"persistent_id":"39125352659eae94ce98b72fd7a151cd42b32416117a73464509e6505068fc21","id":130332393,"location_subtype":"","month":"2025-07"},{"category":"drugs","location_type":"Force","location":{"latitude":"51.586715","street":{"id":1707323,"name":"On or near Kings Oak"},"longitude":"0.156538"},"context":"","outcome_status":{"category":"Unable to prosecute suspect","date":"2025-07"},"persistent_id":"727634805ef7dbf9377d0111786c0e7d9e1f7a9554afed369366e2879c54ff7b","id":130346816,"location_subtype":"","month":"2025-07"},{"category":"drugs","location_type":"Force","location":{"latitude":"51.584381","street":{"id":1707537,"name":"On or near Swan Mews"},"longitude":"0.159719"},"context":"","outcome_status":{"category":"Unable to prosecute suspect","date":"2025-07"},"persistent_id":"4dc1a728998a00712a301f74619f97ef1549c46b66ec7797c9ae0081552a40ea","id":130337916,"location_subtype":"","month":"2025-07"},{"category":"drugs","location_type":"Force","location":{"latitude":"51.574519","street":{"id":1708210,"name":"On or near Queen Street"},"longitude":"0.176122"},"context":"","outcome_status":{"category":"Local resolution","date":"2025-07"},"persistent_id":"eb126c6e98a40c11d6000af376e7abb0cc3c98fedc9473fdcbba200d181d9a27","id":130310986,"location_subtype":"","month":"2025-07"},{"category":"drugs","location_type":"Force","location":{"latitude":"51.566226","street":{"id":1708606,"name":"On or near Rom Valley Way"},"longitude":"0.185899"},"context":"","outcome_status":{"category":"Unable to prosecute suspect","date":"2025-07"},"persistent_id":"cec2db4a79346f1b2592963e6af4b6374cebe2f4055f45877624035b83ced6f7","id":130313069,"location_subtype":"","month":"2025-07"},{"category":"drugs","location_type":"Force","location":{"latitude":"51.574116","street":{"id":1708654,"name":"On or near King Edward Road"},"longitude":"0.187158"},"context":"","outcome_status":{"category":"Awaiting court outcome","date":"2025-10"},"persistent_id":"f137e07a6fe4d25543fbec124b302346273d870137fa816f9c16143cc175559b","id":130324617,"location_subtype":"","month":"2025-07"},{"category":"drugs","location_type":"Force","location":{"latitude":"51.578640","street":{"id":1708300,"name":"On or near Angel Way"},"longitude":"0.178917"},"context":"","outcome_status":{"category":"Local resolution","date":"2025-07"},"persistent_id":"1fda32d1d980ff72b070cbe8b0f15afbc6c102a19572f5bac3b6e9d78e7668c1","id":130345216,"location_subtype":"","month":"2025-07"},{"category":"drugs","location_type":"Force","location":{"latitude":"51.583234","street":{"id":1708291,"name":"On or near Park Drive"},"longitude":"0.178025"},"context":"","outcome_status":{"category":"Unable to prosecute suspect","date":"2025-07"},"persistent_id":"fece3d8ca6359e7ae97c166fcf9623581da7ee185bbc3dfc140d5d81cbb67267","id":130339943,"location_subtype":"","month":"2025-07"},{"category":"drugs","location_type":"Force","location":{"latitude":"51.577080","street":{"id":1708200,"name":"On or near Yew Tree Gardens"},"longitude":"0.176216"},"context":"","outcome_status":{"category":"Offender given penalty notice","date":"2025-12"},"persistent_id":"311af9acfbd445f1010f2f9d2eb58fa00deeb9aa0e904cce5d165ccf775efd2f","id":130331724,"location_subtype":"","month":"2025-07"},{"category":"drugs","location_type":"Force","location":{"latitude":"51.587958","street":{"id":1707752,"name":"On or near Linley Crescent"},"longitude":"0.165692"},"context":"","outcome_status":{"category":"Unable to prosecute suspect","date":"2025-07"},"persistent_id":"61a6d2bbcfb2d8e81107d9c55295f87c976963469c9eed3be3e5207d81514810","id":130321883,"location_subtype":"","month":"2025-07"},{"category":"drugs","location_type":"Force","location":{"latitude":"51.578640","street":{"id":1708300,"name":"On or near Angel Way"},"longitude":"0.178917"},"context":"","outcome_status":{"category":"Status update unavailable","date":"2025-11"},"persistent_id":"1fda32d1d980ff72b070cbe8b0f15afbc6c102a19572f5bac3b6e9d78e7668c1","id":130345215,"location_subtype":"","month":"2025-07"},{"category":"drugs","location_type":"Force","location":{"latitude":"51.569564","street":{"id":1708187,"name":"On or near Sports/recreation Area"},"longitude":"0.176337"},"context":"","outcome_status":{"category":"Local resolution","date":"2025-07"},"persistent_id":"df31a1c5b5612330763e24fde1285b20299fc089ba8f7e8b520320de017033ed","id":130310108,"location_subtype":"","month":"2025-07"},{"category":"drugs","location_type":"Force","location":{"latitude":"51.581423","street":{"id":1708279,"name":"On or near Ingrave Road"},"longitude":"0.178213"},"context":"","outcome_status":{"category":"Unable to prosecute suspect","date":"2025-10"},"persistent_id":"1e49570967ceff00a3fbf01568f6edc806147fac03d308d0697a322d5206b1ff","id":130367466,"location_subtype":"","month":"2025-07"},{"category":"drugs","location_type":"Force","location":{"latitude":"51.587108","street":{"id":1707395,"name":"On or near Cross Road"},"longitude":"0.157177"},"context":"","outcome_status":{"category":"Unable to prosecute suspect","date":"2025-07"},"persistent_id":"839df05f2d8ca0ea195edb1378461ac40402ed9614d35d7ec6b9f2b3ea6375cb","id":130330405,"location_subtype":"","month":"2025-07"},{"category":"drugs","location_type":"Force","location":{"latitude":"51.579437","street":{"id":1708664,"name":"On or near Junction Road"},"longitude":"0.188727"},"context":"","outcome_status":{"category":"Unable to prosecute suspect","date":"2025-08"},"persistent_id":"95552deed17cd8a12456f98b51939a193295f516c91a44d864f1d2205e41126c","id":130338800,"location_subtype":"","month":"2025-07"},{"category":"drugs","location_type":"Force","location":{"latitude":"51.575187","street":{"id":1708479,"name":"On or near Nightclub"},"longitude":"0.182581"},"context":"","outcome_status":{"category":"Unable to prosecute suspect","date":"2025-07"},"persistent_id":"d60e3afb8d613247d301e7ebc29f908964752fce66cc5b8655279d05712a1016","id":130389016,"location_subtype":"","month":"2025-07"},{"category":"other-theft","location_type":"Force","location":{"latitude":"51.581801","street":{"id":1707757,"name":"On or near Denbar Parade"},"longitude":"0.164547"},"context":"","outcome_status":{"category":"Investigation complete; no suspect identified","date":"2025-07"},"persistent_id":"29b33a7a3c67c667672572524a0f8b2777bd8bb7bfffd034e6c916e159b3319c","id":130334870,"location_subtype":"","month":"2025-07"},{"category":"other-theft","location_type":"Force","location":{"latitude":"51.577616","street":{"id":1707816,"name":"On or near Amanda Mews"},"longitude":"0.167177"},"context":"","outcome_status":{"category":"Investigation complete; no suspect identified","date":"2025-07"},"persistent_id":"436fc344b2e48b4a92b9c2f519a951f14942de57a306f866bef2f95cd4f94c50","id":130336602,"location_subtype":"","month":"2025-07"},{"category":"other-theft","location_type":"Force","location":{"latitude":"51.579435","street":{"id":1708597,"name":"On or near Shopping Area"},"longitude":"0.185659"},"context":"","outcome_status":{"category":"Investigation complete; no suspect identified","date":"2025-07"},"persistent_id":"b14f8f00136e3a3d605ce971b9181e6a9a73d3c6848e3d92dfe352e606bf8b58","id":130331048,"location_subtype":"","month":"2025-07"},{"category":"other-theft","location_type":"Force","location":{"latitude":"51.575410","street":{"id":1708422,"name":"On or near Parking Area"},"longitude":"0.181865"},"context":"","outcome_status":{"category":"Unable to prosecute suspect","date":"2025-08"},"persistent_id":"6a3d088e3cd1b75ec4738ec2e346254ce456f4d1b66956f7c33ae61ddda96715","id":130318527,"location_subtype":"","month":"2025-07"},{"category":"other-theft","location_type":"Force","location":{"latitude":"51.574544","street":{"id":1708474,"name":"On or near Romford"},"longitude":"0.182055"},"context":"","outcome_status":{"category":"Unable to prosecute suspect","date":"2025-10"},"persistent_id":"bdd686b217d87aaf6278b7eab80f595730eebab2f3731a0c242697e4c707f8a3","id":130355096,"location_subtype":"","month":"2025-07"},{"category":"other-theft","location_type":"Force","location":{"latitude":"51.574544","street":{"id":1708474,"name":"On or near Romford"},"longitude":"0.182055"},"context":"","outcome_status":{"category":"Investigation complete; no suspect identified","date":"2025-07"},"persistent_id":"bca93804a6105162caa01b3e399e2c05fc14f449e27f8927c0149adbdf6e9a1f","id":130351844,"location_subtype":"","month":"2025-07"},{"category":"other-theft","location_type":"Force","location":{"latitude":"51.575217","street":{"id":1708346,"name":"On or near Supermarket"},"longitude":"0.180153"},"context":"","outcome_status":{"category":"Investigation complete; no suspect identified","date":"2025-07"},"persistent_id":"9939f90e13107589d13364e012be187345d47a7c8b328a8da0fe0ebca7180dd8","id":130362236,"location_subtype":"","month":"2025-07"},{"category":"other-theft","location_type":"Force","location":{"latitude":"51.571066","street":{"id":1708713,"name":"On or near Kyme Road"},"longitude":"0.189147"},"context":"","outcome_status":{"category":"Status update unavailable","date":"2025-11"},"persistent_id":"ee77105db2d4ca817570520f64711622e284b0578a0066924e0dce973306a510","id":130337706,"location_subtype":"","month":"2025-07"},{"category":"other-theft","location_type":"Force","location":{"latitude":"51.565761","street":{"id":1708579,"name":"On or near Rush Green Road"},"longitude":"0.185718"},"context":"","outcome_status":{"category":"Investigation complete; no suspect identified","date":"2025-07"},"persistent_id":"6bc18d7b1a21e35376eb44adbded936667dcff1422adcdd85ed164167e005a2b","id":130354193,"location_subtype":"","month":"2025-07"},{"category":"other-theft","location_type":"Force","location":{"latitude":"51.575946","street":{"id":1708497,"name":"On or near Chandlers Way"},"longitude":"0.183508"},"context":"","outcome_status":{"category":"Awaiting court outcome","date":"2026-01"},"persistent_id":"03a27d8625d133a2b5b2e5b6b0ece0303b76f3463b04ca2250c078d9bfe3f251","id":130380952,"location_subtype":"","month":"2025-07"},{"category":"other-theft","location_type":"Force","location":{"latitude":"51.570419","street":{"id":1708772,"name":"On or near Craigdale Road"},"longitude":"0.190097"},"context":"","outcome_status":{"category":"Investigation complete; no suspect identified","date":"2025-07"},"persistent_id":"2aef2cf37062ba6d71d08114decad35e74de591587252811d93cc49877d4f426","id":130353959,"location_subtype":"","month":"2025-07"},{"category":"other-theft","location_type":"Force","location":{"latitude":"51.578640","street":{"id":1708300,"name":"On or near Angel Way"},"longitude":"0.178917"},"context":"","outcome_status":{"category":"Investigation complete; no suspect identified","date":"2025-07"},"persistent_id":"bade6f98f4aa8c02f325e9f757a74f3d8a1f59ba82f499bafae9a0f162e2b22a","id":130310104,"location_subtype":"","month":"2025-07"},{"category":"other-theft","location_type":"Force","location":{"latitude":"51.573762","street":{"id":1708494,"name":"On or near Supermarket"},"longitude":"0.183081"},"context":"","outcome_status":{"category":"Investigation complete; no suspect identified","date":"2025-07"},"persistent_id":"7e12ce441c2c3011912b99efacb6c810b181801684866117805c065926eb6da1","id":130322610,"location_subtype":"","month":"2025-07"},{"category":"other-theft","location_type":"Force","location":{"latitude":"51.582197","street":{"id":1708528,"name":"On or near Brunel Close"},"longitude":"0.184933"},"context":"","outcome_status":{"category":"Investigation complete; no suspect identified","date":"2025-07"},"persistent_id":"a1425fb4d5a070d9f5f59f412a2e3abb8a001829f4ea4f57c659fddb6ef74d41","id":130322756,"location_subtype":"","month":"2025-07"},{"category":"other-theft","location_type":"Force","location":{"latitude":"51.574544","street":{"id":1708474,"name":"On or near Romford"},"longitude":"0.182055"},"context":"","outcome_status":{"category":"Investigation complete; no suspect identified","date":"2025-07"},"persistent_id":"4dc48532ae27d5a85cb3fb65c9ee29941e63ebf8f713c188461aee4d867a4a58","id":130310352,"location_subtype":"","month":"2025-07"},{"category":"other-theft","location_type":"Force","location":{"latitude":"51.578200","street":{"id":1708424,"name":"On or near Shopping Area"},"longitude":"0.181306"},"context":"","outcome_status":{"category":"Unable to prosecute suspect","date":"2025-11"},"persistent_id":"a7897c36f72d4c7291898b4ca73c4e4d7f3d37d6d23e7b694b0f69448eb62a01","id":130312049,"location_subtype":"","month":"2025-07"},{"category":"other-theft","location_type":"Force","location":{"latitude":"51.567726","street":{"id":1708390,"name":"On or near Parking Area"},"longitude":"0.181122"},"context":"","outcome_status":{"category":"Investigation complete; no suspect identified","date":"2025-07"},"persistent_id":"63719b3741647da5a80e73e7db8787b24fdc531be3e6540d0bdb4a594e8d16af","id":130324508,"location_subtype":"","month":"2025-07"},{"category":"other-theft","location_type":"Force","location":{"latitude":"51.580047","street":{"id":1708440,"name":"On or near Shopping Area"},"longitude":"0.182323"},"context":"","outcome_status":{"category":"Investigation complete; no suspect identified","date":"2025-09"},"persistent_id":"1ef4c0aa8e62242d1df54686527f3aadd0952add29eff72e0b7630b14a86cbfa","id":130359940,"location_subtype":"","month":"2025-07"},{"category":"other-theft","location_type":"Force","location":{"latitude":"51.577486","street":{"id":1708460,"name":"On or near Shopping Area"},"longitude":"0.182214"},"context":"","outcome_status":{"category":"Investigation complete; no suspect identified","date":"2025-07"},"persistent_id":"4fca026c0c36beb862357bc3567f70f949a0cd6d0d8a7ec9b41862e6d9c037e2","id":130313365,"location_subtype":"","month":"2025-07"},{"category":"other-theft","location_type":"Force","location":{"latitude":"51.578111","street":{"id":1708484,"name":"On or near Parking Area"},"longitude":"0.185098"},"context":"","outcome_status":{"category":"Investigation complete; no suspect identified","date":"2025-07"},"persistent_id":"3cd3ff5e3f791b3630e24c1c68e9d8cc4d6c0c86c968234ab8372d031a1c40e9","id":130345097,"location_subtype":"","month":"2025-07"},{"category":"other-theft","location_type":"Force","location":{"latitude":"51.579435","street":{"id":1708597,"name":"On or near Shopping Area"},"longitude":"0.185659"},"context":"","outcome_status":{"category":"Status update unavailable","date":"2025-11"},"persistent_id":"e169b36a9243ee004a75188c843d6fd35c04c2fd13839f6529b13245e0597eec","id":130345087,"location_subtype":"","month":"2025-07"},{"category":"other-theft","location_type":"Force","location":{"latitude":"51.579711","street":{"id":1708374,"name":"On or near Market Link"},"longitude":"0.180772"},"context":"","outcome_status":{"category":"Investigation complete; no suspect identified","date":"2025-08"},"persistent_id":"7b78866d2e2fd0b686750f4a1ce7196b7dc0df87c77b550db1c3ddc13ae3c946","id":130325349,"location_subtype":"","month":"2025-07"},{"category":"other-theft","location_type":"Force","location":{"latitude":"51.577486","street":{"id":1708460,"name":"On or near Shopping Area"},"longitude":"0.182214"},"context":"","outcome_status":{"category":"Investigation complete; no suspect identified","date":"2025-07"},"persistent_id":"f6e11a888dea9a5e18c0b571530d5926551596b28c41013f1642c22bb53cb55b","id":130358241,"location_subtype":"","month":"2025-07"},{"category":"other-theft","location_type":"Force","location":{"latitude":"51.573558","street":{"id":1708550,"name":"On or near Marden Road"},"longitude":"0.184778"},"context":"","outcome_status":{"category":"Investigation complete; no suspect identified","date":"2025-07"},"persistent_id":"527ca55d3d406f88162f3887484719a4099c738ff546d04fd93dd1db2d8d7864","id":130313617,"location_subtype":"","month":"2025-07"},{"category":"other-theft","location_type":"Force","location":{"latitude":"51.567471","street":{"id":1708559,"name":"On or near Frazer Close"},"longitude":"0.186132"},"context":"","outcome_status":{"category":"Investigation complete; no suspect identified","date":"2025-09"},"persistent_id":"68026d5ae82fdf185b334ff5afd9fa930b342f881ff362cfef78194b2c11bed1","id":130313730,"location_subtype":"","month":"2025-07"},{"category":"other-theft","location_type":"Force","location":{"latitude":"51.564651","street":{"id":1707782,"name":"On or near Bell House Road"},"longitude":"0.165565"},"context":"","outcome_status":{"category":"Investigation complete; no suspect identified","date":"2025-09"},"persistent_id":"152f80f92c64a0aeaf0e53bb0daed6975b9dc1724f9095ce415d907d5de4faba","id":130355705,"location_subtype":"","month":"2025-07"},{"category":"other-theft","location_type":"Force","location":{"latitude":"51.585207","street":{"id":1708366,"name":"On or near The Chase"},"longitude":"0.180227"},"context":"","outcome_status":{"category":"Investigation complete; no suspect identified","date":"2025-09"},"persistent_id":"c79c24c4f1f609523f7c12514340226abc1c6462b171b91e1cd385bcbf844769","id":130372047,"location_subtype":"","month":"2025-07"},{"category":"other-theft","location_type":"Force","location":{"latitude":"51.580047","street":{"id":1708440,"name":"On or near Shopping Area"},"longitude":"0.182323"},"context":"","outcome_status":{"category":"Investigation complete; no suspect identified","date":"2025-07"},"persistent_id":"84f2b2f36e0e5219d5ff0854130926893f7f155f25a4fe8e49d889942a5e9546","id":130390236,"location_subtype":"","month":"2025-07"},{"category":"other-theft","location_type":"Force","location":{"latitude":"51.582245","street":{"id":1707462,"name":"On or near Crownmead Way"},"longitude":"0.160483"},"context":"","outcome_status":{"category":"Investigation complete; no suspect identified","date":"2025-07"},"persistent_id":"2f739d82232dc7066e72733e09d7f665a8be3eb2040fddab465de42fc35ad469","id":130331378,"location_subtype":"","month":"2025-07"},{"category":"other-theft","location_type":"Force","location":{"latitude":"51.566226","street":{"id":1708606,"name":"On or near Rom Valley Way"},"longitude":"0.185899"},"context":"","outcome_status":{"category":"Investigation complete; no suspect identified","date":"2025-07"},"persistent_id":"6620dc44089718b15d2ecad843d645d92b950d5c57cc3c0e67a2bd76e4860152","id":130358129,"location_subtype":"","month":"2025-07"},{"category":"other-theft","location_type":"Force","location":{"latitude":"51.576990","street":{"id":1708555,"name":"On or near Grimshaw Way"},"longitude":"0.184943"},"context":"","outcome_status":{"category":"Investigation complete; no suspect identified","date":"2025-10"},"persistent_id":"7a60cec7be7687541a10a2f229cf53ca77757033bf48c269bab8c5ea51dfa85a","id":130342592,"location_subtype":"","month":"2025-07"},{"category":"other-theft","location_type":"Force","location":{"latitude":"51.582625","street":{"id":1708221,"name":"On or near The Avenue"},"longitude":"0.177404"},"context":"","outcome_status":{"category":"Investigation complete; no suspect identified","date":"2025-07"},"persistent_id":"d680a775fbf12696da238360aa583a09e7ff2de98f39a99813e7909ef2c8eaa1","id":130388717,"location_subtype":"","month":"2025-07"},{"category":"other-theft","location_type":"Force","location":{"latitude":"51.568651","street":{"id":1708338,"name":"On or near Hospital"},"longitude":"0.179027"},"context":"","outcome_status":{"category":"Investigation complete; no suspect identified","date":"2025-07"},"persistent_id":"646597804c8c77cf8f6332eb99fb6d7638a1dbac99c26e625f1c3d109aa1f5cd","id":130387803,"location_subtype":"","month":"2025-07"},{"category":"other-theft","location_type":"Force","location":{"latitude":"51.587849","street":{"id":1707995,"name":"On or near Rosedale Road"},"longitude":"0.170624"},"context":"","outcome_status":{"category":"Investigation complete; no suspect identified","date":"2025-07"},"persistent_id":"0ccd675f9fc4f318c8b25cb0ff558b2a32fc3088b980f4567858f1a135c1d967","id":130386470,"location_subtype":"","month":"2025-07"},{"category":"other-theft","location_type":"Force","location":{"latitude":"51.565845","street":{"id":1708201,"name":"On or near Petrol Station"},"longitude":"0.176986"},"context":"","outcome_status":{"category":"Investigation complete; no suspect identified","date":"2025-07"},"persistent_id":"ec674faa16750bf360651fda1261f9dfef2a658bfbd0b8b01f2f4e1b5988da0c","id":130316263,"location_subtype":"","month":"2025-07"},{"category":"other-theft","location_type":"Force","location":{"latitude":"51.564191","street":{"id":1708032,"name":"On or near Horace Avenue"},"longitude":"0.171473"},"context":"","outcome_status":{"category":"Unable to prosecute suspect","date":"2025-07"},"persistent_id":"c1b043073cfcde46bae0e22d64fc3ed246ea4190c92af77ef73a95dcc3ad40ad","id":130377327,"location_subtype":"","month":"2025-07"},{"category":"other-theft","location_type":"Force","location":{"latitude":"51.577486","street":{"id":1708460,"name":"On or near Shopping Area"},"longitude":"0.182214"},"context":"","outcome_status":{"category":"Local resolution","date":"2025-09"},"persistent_id":"3c24ca8da648b3b20ed5e5708e0fa0d8639e09d6c3d1bc0af950902fad653bb3","id":130377541,"location_subtype":"","month":"2025-07"},{"category":"other-theft","location_type":"Force","location":{"latitude":"51.566226","street":{"id":1708606,"name":"On or near Rom Valley Way"},"longitude":"0.185899"},"context":"","outcome_status":{"category":"Investigation complete; no suspect identified","date":"2025-09"},"persistent_id":"96800dfc73fb15ae7c58e991d1c3d9729912314fda9dbfe7b99d1d25e1f4c026","id":130358341,"location_subtype":"","month":"2025-07"},{"category":"other-theft","location_type":"Force","location":{"latitude":"51.568651","street":{"id":1708338,"name":"On or near Hospital"},"longitude":"0.179027"},"context":"","outcome_status":{"category":"Investigation complete; no suspect identified","date":"2025-07"},"persistent_id":"7be47aad663b7057c0ea99f8550dbe5cde6c7b12aa76b1442a6b5b62c174d281","id":130318982,"location_subtype":"","month":"2025-07"},{"category":"other-theft","location_type":"Force","location":{"latitude":"51.577636","street":{"id":1708311,"name":"On or near High Street"},"longitude":"0.178739"},"context":"","outcome_status":{"category":"Investigation complete; no suspect identified","date":"2025-07"},"persistent_id":"1111f27e90ef2c1de39dd1e2d3c9d644af5ccd4a4eb2d1a8e9dcfe7ddc4f3a49","id":130387503,"location_subtype":"","month":"2025-07"},{"category":"other-theft","location_type":"Force","location":{"latitude":"51.580047","street":{"id":1708440,"name":"On or near Shopping Area"},"longitude":"0.182323"},"context":"","outcome_status":{"category":"Investigation complete; no suspect identified","date":"2025-07"},"persistent_id":"91206c5cfb2adaf271cdd6cf0f5db8a7e861a7d0c623194ec4f5cfe3ceccab5d","id":130315807,"location_subtype":"","month":"2025-07"},{"category":"other-theft","location_type":"Force","location":{"latitude":"51.570863","street":{"id":1708348,"name":"On or near Oldchurch Road"},"longitude":"0.179267"},"context":"","outcome_status":{"category":"Investigation complete; no suspect identified","date":"2025-07"},"persistent_id":"b61a3b5cd29471ead37141b3205cabb2131cca500e06ab8997ba4634ec406c9b","id":130356329,"location_subtype":"","month":"2025-07"},{"category":"possession-of-weapons","location_type":"Force","location":{"latitude":"51.573762","street":{"id":1708494,"name":"On or near Supermarket"},"longitude":"0.183081"},"context":"","outcome_status":{"category":"Awaiting court outcome","date":"2025-09"},"persistent_id":"2e15a7d443e40dcd12258921daadac72f7d7440fde1ec27c7707d5eef3b63c52","id":130360143,"location_subtype":"","month":"2025-07"},{"category":"possession-of-weapons","location_type":"Force","location":{"latitude":"51.576028","street":{"id":1708438,"name":"On or near Exchange Street"},"longitude":"0.181563"},"context":"","outcome_status":{"category":"Status update unavailable","date":"2025-11"},"persistent_id":"41b7bae7d99fc0033e88fad80d8c2cf32f6839de01caa580030afa99868a86f7","id":130371419,"location_subtype":"","month":"2025-07"},{"category":"possession-of-weapons","location_type":"Force","location":{"latitude":"51.577151","street":{"id":1708236,"name":"On or near Hedley Close"},"longitude":"0.177706"},"context":"","outcome_status":{"category":"Status update unavailable","date":"2025-11"},"persistent_id":"f87035d7b59d89dd43837ed26b80a8c7f155e711b668a1735e64b1415a6dc0eb","id":130383483,"location_subtype":"","month":"2025-07"},{"category":"possession-of-weapons","location_type":"Force","location":{"latitude":"51.569446","street":{"id":1707788,"name":"On or near Bernard Road"},"longitude":"0.165980"},"context":"","outcome_status":{"category":"Awaiting court outcome","date":"2025-08"},"persistent_id":"41695d85f2df7123ab3603aacbfdda64169e1007bbce5a381442c7ad9a390095","id":130380935,"location_subtype":"","month":"2025-07"},{"category":"possession-of-weapons","location_type":"Force","location":{"latitude":"51.573762","street":{"id":1708494,"name":"On or near Supermarket"},"longitude":"0.183081"},"context":"","outcome_status":{"category":"Awaiting court outcome","date":"2025-09"},"persistent_id":"a901d8f4d331a188ef25fa2f5187414a138b7c8e4560d316fdb50a32432c58ae","id":130360144,"location_subtype":"","month":"2025-07"},{"category":"public-order","location_type":"Force","location":{"latitude":"51.568651","street":{"id":1708338,"name":"On or near Hospital"},"longitude":"0.179027"},"context":"","outcome_status":{"category":"Investigation complete; no suspect identified","date":"2025-07"},"persistent_id":"5feaff55169fc62b2f05f80814d288b6ed102c6dc9ac2673b1897e62b3ed2277","id":130339671,"location_subtype":"","month":"2025-07"},