[{"category":"anti-social-behaviour","location_type":"Force","location":{"latitude":"51.484547","street":{"id":1704009,"name":"On or near Saunders Road"},"longitude":"0.096563"},"context":"","outcome_status":null,"persistent_id":"","id":126359372,"location_subtype":"","month":"2025-02"},{"category":"anti-social-behaviour","location_type":"Force","location":{"latitude":"51.491690","street":{"id":1705697,"name":"On or near Chantry Close"},"longitude":"0.120415"},"context":"","outcome_status":null,"persistent_id":"","id":126348919,"location_subtype":"","month":"2025-02"},{"category":"anti-social-behaviour","location_type":"Force","location":{"latitude":"51.491690","street":{"id":1705697,"name":"On or near Chantry Close"},"longitude":"0.120415"},"context":"","outcome_status":null,"persistent_id":"","id":126348404,"location_subtype":"","month":"2025-02"},{"category":"anti-social-behaviour","location_type":"Force","location":{"latitude":"51.485106","street":{"id":1705308,"name":"On or near Suffolk Place"},"longitude":"0.116019"},"context":"","outcome_status":null,"persistent_id":"","id":126348543,"location_subtype":"","month":"2025-02"},{"category":"anti-social-behaviour","location_type":"Force","location":{"latitude":"51.497548","street":{"id":1705886,"name":"On or near Mere Road"},"longitude":"0.123669"},"context":"","outcome_status":null,"persistent_id":"","id":126349283,"location_subtype":"","month":"2025-02"},{"category":"anti-social-behaviour","location_type":"Force","location":{"latitude":"51.494519","street":{"id":1704551,"name":"On or near Manister Road"},"longitude":"0.106673"},"context":"","outcome_status":null,"persistent_id":"","id":126349430,"location_subtype":"","month":"2025-02"},{"category":"anti-social-behaviour","location_type":"Force","location":{"latitude":"51.481171","street":{"id":1704554,"name":"On or near Rutherglen Road"},"longitude":"0.103767"},"context":"","outcome_status":null,"persistent_id":"","id":126349840,"location_subtype":"","month":"2025-02"},{"category":"anti-social-behaviour","location_type":"Force","location":{"latitude":"51.494493","street":{"id":1705393,"name":"On or near Throwley Close"},"longitude":"0.117606"},"context":"","outcome_status":null,"persistent_id":"","id":126349887,"location_subtype":"","month":"2025-02"},{"category":"anti-social-behaviour","location_type":"Force","location":{"latitude":"51.488347","street":{"id":1703875,"name":"On or near Bannockburn Road"},"longitude":"0.094288"},"context":"","outcome_status":null,"persistent_id":"","id":126351030,"location_subtype":"","month":"2025-02"},{"category":"anti-social-behaviour","location_type":"Force","location":{"latitude":"51.489391","street":{"id":1705801,"name":"On or near Manorside Close"},"longitude":"0.122728"},"context":"","outcome_status":null,"persistent_id":"","id":126351569,"location_subtype":"","month":"2025-02"},{"category":"anti-social-behaviour","location_type":"Force","location":{"latitude":"51.494519","street":{"id":1704551,"name":"On or near Manister Road"},"longitude":"0.106673"},"context":"","outcome_status":null,"persistent_id":"","id":126351891,"location_subtype":"","month":"2025-02"},{"category":"anti-social-behaviour","location_type":"Force","location":{"latitude":"51.481171","street":{"id":1704554,"name":"On or near Rutherglen Road"},"longitude":"0.103767"},"context":"","outcome_status":null,"persistent_id":"","id":126352506,"location_subtype":"","month":"2025-02"},{"category":"anti-social-behaviour","location_type":"Force","location":{"latitude":"51.481171","street":{"id":1704554,"name":"On or near Rutherglen Road"},"longitude":"0.103767"},"context":"","outcome_status":null,"persistent_id":"","id":126352507,"location_subtype":"","month":"2025-02"},{"category":"anti-social-behaviour","location_type":"Force","location":{"latitude":"51.501624","street":{"id":1705034,"name":"On or near Celandine Drive"},"longitude":"0.110602"},"context":"","outcome_status":null,"persistent_id":"","id":126352927,"location_subtype":"","month":"2025-02"},{"category":"anti-social-behaviour","location_type":"Force","location":{"latitude":"51.484366","street":{"id":1704317,"name":"On or near Rockmount Road"},"longitude":"0.101120"},"context":"","outcome_status":null,"persistent_id":"","id":126353087,"location_subtype":"","month":"2025-02"},{"category":"anti-social-behaviour","location_type":"Force","location":{"latitude":"51.497058","street":{"id":1705524,"name":"On or near Godstow Road"},"longitude":"0.118445"},"context":"","outcome_status":null,"persistent_id":"","id":126353499,"location_subtype":"","month":"2025-02"},{"category":"anti-social-behaviour","location_type":"Force","location":{"latitude":"51.486992","street":{"id":1703816,"name":"On or near Plumstead High Street"},"longitude":"0.094586"},"context":"","outcome_status":null,"persistent_id":"","id":126353538,"location_subtype":"","month":"2025-02"},{"category":"anti-social-behaviour","location_type":"Force","location":{"latitude":"51.481171","street":{"id":1704554,"name":"On or near Rutherglen Road"},"longitude":"0.103767"},"context":"","outcome_status":null,"persistent_id":"","id":126353923,"location_subtype":"","month":"2025-02"},{"category":"anti-social-behaviour","location_type":"Force","location":{"latitude":"51.497548","street":{"id":1705886,"name":"On or near Mere Road"},"longitude":"0.123669"},"context":"","outcome_status":null,"persistent_id":"","id":126354094,"location_subtype":"","month":"2025-02"},{"category":"anti-social-behaviour","location_type":"Force","location":{"latitude":"51.485022","street":{"id":1704997,"name":"On or near Carnation Street"},"longitude":"0.110167"},"context":"","outcome_status":null,"persistent_id":"","id":126354458,"location_subtype":"","month":"2025-02"},{"category":"anti-social-behaviour","location_type":"Force","location":{"latitude":"51.478320","street":{"id":1704813,"name":"On or near Streamdale"},"longitude":"0.108331"},"context":"","outcome_status":null,"persistent_id":"","id":126354799,"location_subtype":"","month":"2025-02"},{"category":"anti-social-behaviour","location_type":"Force","location":{"latitude":"51.495877","street":{"id":1705970,"name":"On or near Wolvercote Road"},"longitude":"0.126069"},"context":"","outcome_status":null,"persistent_id":"","id":126354836,"location_subtype":"","month":"2025-02"},{"category":"anti-social-behaviour","location_type":"Force","location":{"latitude":"51.496459","street":{"id":1704171,"name":"On or near Purland Road"},"longitude":"0.100293"},"context":"","outcome_status":null,"persistent_id":"","id":126354864,"location_subtype":"","month":"2025-02"},{"category":"anti-social-behaviour","location_type":"Force","location":{"latitude":"51.478320","street":{"id":1704813,"name":"On or near Streamdale"},"longitude":"0.108331"},"context":"","outcome_status":null,"persistent_id":"","id":126355844,"location_subtype":"","month":"2025-02"},{"category":"anti-social-behaviour","location_type":"Force","location":{"latitude":"51.478320","street":{"id":1704813,"name":"On or near Streamdale"},"longitude":"0.108331"},"context":"","outcome_status":null,"persistent_id":"","id":126355334,"location_subtype":"","month":"2025-02"},{"category":"anti-social-behaviour","location_type":"Force","location":{"latitude":"51.487411","street":{"id":1704198,"name":"On or near Amar Court"},"longitude":"0.098811"},"context":"","outcome_status":null,"persistent_id":"","id":126356128,"location_subtype":"","month":"2025-02"},{"category":"anti-social-behaviour","location_type":"Force","location":{"latitude":"51.485135","street":{"id":1704251,"name":"On or near Granite Street"},"longitude":"0.099874"},"context":"","outcome_status":null,"persistent_id":"","id":126356147,"location_subtype":"","month":"2025-02"},{"category":"anti-social-behaviour","location_type":"Force","location":{"latitude":"51.485135","street":{"id":1704251,"name":"On or near Granite Street"},"longitude":"0.099874"},"context":"","outcome_status":null,"persistent_id":"","id":126355488,"location_subtype":"","month":"2025-02"},{"category":"anti-social-behaviour","location_type":"Force","location":{"latitude":"51.493101","street":{"id":1705095,"name":"On or near Chalcombe Road"},"longitude":"0.112499"},"context":"","outcome_status":null,"persistent_id":"","id":126355495,"location_subtype":"","month":"2025-02"},{"category":"anti-social-behaviour","location_type":"Force","location":{"latitude":"51.497974","street":{"id":1706073,"name":"On or near St Edmunds Close"},"longitude":"0.128962"},"context":"","outcome_status":null,"persistent_id":"","id":126356432,"location_subtype":"","month":"2025-02"},{"category":"anti-social-behaviour","location_type":"Force","location":{"latitude":"51.496851","street":{"id":1705725,"name":"On or near Tavy Bridge"},"longitude":"0.122960"},"context":"","outcome_status":null,"persistent_id":"","id":126356216,"location_subtype":"","month":"2025-02"},{"category":"anti-social-behaviour","location_type":"Force","location":{"latitude":"51.494453","street":{"id":1705933,"name":"On or near Lensbury Way"},"longitude":"0.124260"},"context":"","outcome_status":null,"persistent_id":"","id":126357132,"location_subtype":"","month":"2025-02"},{"category":"anti-social-behaviour","location_type":"Force","location":{"latitude":"51.496459","street":{"id":1704171,"name":"On or near Purland Road"},"longitude":"0.100293"},"context":"","outcome_status":null,"persistent_id":"","id":126356916,"location_subtype":"","month":"2025-02"},{"category":"anti-social-behaviour","location_type":"Force","location":{"latitude":"51.487886","street":{"id":1704113,"name":"On or near Benares Road"},"longitude":"0.097926"},"context":"","outcome_status":null,"persistent_id":"","id":126357286,"location_subtype":"","month":"2025-02"},{"category":"anti-social-behaviour","location_type":"Force","location":{"latitude":"51.494296","street":{"id":1704982,"name":"On or near Rosedale Close"},"longitude":"0.111028"},"context":"","outcome_status":null,"persistent_id":"","id":126357308,"location_subtype":"","month":"2025-02"},{"category":"anti-social-behaviour","location_type":"Force","location":{"latitude":"51.491690","street":{"id":1705697,"name":"On or near Chantry Close"},"longitude":"0.120415"},"context":"","outcome_status":null,"persistent_id":"","id":126357318,"location_subtype":"","month":"2025-02"},{"category":"anti-social-behaviour","location_type":"Force","location":{"latitude":"51.497548","street":{"id":1705886,"name":"On or near Mere Road"},"longitude":"0.123669"},"context":"","outcome_status":null,"persistent_id":"","id":126357868,"location_subtype":"","month":"2025-02"},{"category":"anti-social-behaviour","location_type":"Force","location":{"latitude":"51.497003","street":{"id":1706115,"name":"On or near St Martins Close"},"longitude":"0.128975"},"context":"","outcome_status":null,"persistent_id":"","id":126357403,"location_subtype":"","month":"2025-02"},{"category":"anti-social-behaviour","location_type":"Force","location":{"latitude":"51.503242","street":{"id":1704987,"name":"On or near Waterfield Close"},"longitude":"0.110648"},"context":"","outcome_status":null,"persistent_id":"","id":126357650,"location_subtype":"","month":"2025-02"},{"category":"anti-social-behaviour","location_type":"Force","location":{"latitude":"51.491974","street":{"id":1705394,"name":"On or near Felixstowe Road"},"longitude":"0.116668"},"context":"","outcome_status":null,"persistent_id":"","id":126357896,"location_subtype":"","month":"2025-02"},{"category":"anti-social-behaviour","location_type":"Force","location":{"latitude":"51.499321","street":{"id":1705201,"name":"On or near A2041"},"longitude":"0.114646"},"context":"","outcome_status":null,"persistent_id":"","id":126358451,"location_subtype":"","month":"2025-02"},{"category":"anti-social-behaviour","location_type":"Force","location":{"latitude":"51.497058","street":{"id":1705524,"name":"On or near Godstow Road"},"longitude":"0.118445"},"context":"","outcome_status":null,"persistent_id":"","id":126359540,"location_subtype":"","month":"2025-02"},{"category":"anti-social-behaviour","location_type":"Force","location":{"latitude":"51.484547","street":{"id":1704009,"name":"On or near Saunders Road"},"longitude":"0.096563"},"context":"","outcome_status":null,"persistent_id":"","id":126358906,"location_subtype":"","month":"2025-02"},{"category":"anti-social-behaviour","location_type":"Force","location":{"latitude":"51.478320","street":{"id":1704813,"name":"On or near Streamdale"},"longitude":"0.108331"},"context":"","outcome_status":null,"persistent_id":"","id":126358927,"location_subtype":"","month":"2025-02"},{"category":"anti-social-behaviour","location_type":"Force","location":{"latitude":"51.486992","street":{"id":1703816,"name":"On or near Plumstead High Street"},"longitude":"0.094586"},"context":"","outcome_status":null,"persistent_id":"","id":126353193,"location_subtype":"","month":"2025-02"},{"category":"anti-social-behaviour","location_type":"Force","location":{"latitude":"51.484547","street":{"id":1704009,"name":"On or near Saunders Road"},"longitude":"0.096563"},"context":"","outcome_status":null,"persistent_id":"","id":126353570,"location_subtype":"","month":"2025-02"},{"category":"anti-social-behaviour","location_type":"Force","location":{"latitude":"51.477162","street":{"id":1706060,"name":"On or near Lessness Avenue"},"longitude":"0.126639"},"context":"","outcome_status":null,"persistent_id":"","id":126351384,"location_subtype":"","month":"2025-02"},{"category":"anti-social-behaviour","location_type":"Force","location":{"latitude":"51.483328","street":{"id":1704343,"name":"On or near Glendown Road"},"longitude":"0.102844"},"context":"","outcome_status":null,"persistent_id":"","id":126345477,"location_subtype":"","month":"2025-02"},{"category":"anti-social-behaviour","location_type":"Force","location":{"latitude":"51.487886","street":{"id":1704113,"name":"On or near Benares Road"},"longitude":"0.097926"},"context":"","outcome_status":null,"persistent_id":"","id":126359382,"location_subtype":"","month":"2025-02"},{"category":"anti-social-behaviour","location_type":"Force","location":{"latitude":"51.484547","street":{"id":1704009,"name":"On or near Saunders Road"},"longitude":"0.096563"},"context":"","outcome_status":null,"persistent_id":"","id":126359415,"location_subtype":"","month":"2025-02"},{"category":"anti-social-behaviour","location_type":"Force","location":{"latitude":"51.496851","street":{"id":1705725,"name":"On or near Tavy Bridge"},"longitude":"0.122960"},"context":"","outcome_status":null,"persistent_id":"","id":126359029,"location_subtype":"","month":"2025-02"},{"category":"anti-social-behaviour","location_type":"Force","location":{"latitude":"51.494296","street":{"id":1704982,"name":"On or near Rosedale Close"},"longitude":"0.111028"},"context":"","outcome_status":null,"persistent_id":"","id":126359144,"location_subtype":"","month":"2025-02"},{"category":"anti-social-behaviour","location_type":"Force","location":{"latitude":"51.486992","street":{"id":1703816,"name":"On or near Plumstead High Street"},"longitude":"0.094586"},"context":"","outcome_status":null,"persistent_id":"","id":126359280,"location_subtype":"","month":"2025-02"},{"category":"anti-social-behaviour","location_type":"Force","location":{"latitude":"51.486445","street":{"id":1705051,"name":"On or near Viola Avenue"},"longitude":"0.111039"},"context":"","outcome_status":null,"persistent_id":"","id":126360294,"location_subtype":"","month":"2025-02"},{"category":"anti-social-behaviour","location_type":"Force","location":{"latitude":"51.480279","street":{"id":1704514,"name":"On or near Sandycroft"},"longitude":"0.103366"},"context":"","outcome_status":null,"persistent_id":"","id":126346279,"location_subtype":"","month":"2025-02"},{"category":"anti-social-behaviour","location_type":"Force","location":{"latitude":"51.479058","street":{"id":1704387,"name":"On or near Black Prince Street"},"longitude":"0.101769"},"context":"","outcome_status":null,"persistent_id":"","id":126346355,"location_subtype":"","month":"2025-02"},{"category":"anti-social-behaviour","location_type":"Force","location":{"latitude":"51.480279","street":{"id":1704514,"name":"On or near Sandycroft"},"longitude":"0.103366"},"context":"","outcome_status":null,"persistent_id":"","id":126346394,"location_subtype":"","month":"2025-02"},{"category":"anti-social-behaviour","location_type":"Force","location":{"latitude":"51.478320","street":{"id":1704813,"name":"On or near Streamdale"},"longitude":"0.108331"},"context":"","outcome_status":null,"persistent_id":"","id":126358405,"location_subtype":"","month":"2025-02"},{"category":"anti-social-behaviour","location_type":"Force","location":{"latitude":"51.490510","street":{"id":1706255,"name":"On or near Abbey Road"},"longitude":"0.132936"},"context":"","outcome_status":null,"persistent_id":"","id":126348195,"location_subtype":"","month":"2025-02"},{"category":"anti-social-behaviour","location_type":"Force","location":{"latitude":"51.484325","street":{"id":1704097,"name":"On or near Purrett Road"},"longitude":"0.097935"},"context":"","outcome_status":null,"persistent_id":"","id":126348531,"location_subtype":"","month":"2025-02"},{"category":"anti-social-behaviour","location_type":"Force","location":{"latitude":"51.484547","street":{"id":1704009,"name":"On or near Saunders Road"},"longitude":"0.096563"},"context":"","outcome_status":null,"persistent_id":"","id":126348078,"location_subtype":"","month":"2025-02"},{"category":"anti-social-behaviour","location_type":"Force","location":{"latitude":"51.486384","street":{"id":1705175,"name":"On or near Bostall Lane"},"longitude":"0.113946"},"context":"","outcome_status":null,"persistent_id":"","id":126347753,"location_subtype":"","month":"2025-02"},{"category":"anti-social-behaviour","location_type":"Force","location":{"latitude":"51.491595","street":{"id":1706233,"name":"On or near Alsike Road"},"longitude":"0.130134"},"context":"","outcome_status":null,"persistent_id":"","id":126347481,"location_subtype":"","month":"2025-02"},{"category":"anti-social-behaviour","location_type":"Force","location":{"latitude":"51.486992","street":{"id":1703816,"name":"On or near Plumstead High Street"},"longitude":"0.094586"},"context":"","outcome_status":null,"persistent_id":"","id":126347248,"location_subtype":"","month":"2025-02"},{"category":"anti-social-behaviour","location_type":"Force","location":{"latitude":"51.485135","street":{"id":1704251,"name":"On or near Granite Street"},"longitude":"0.099874"},"context":"","outcome_status":null,"persistent_id":"","id":126347146,"location_subtype":"","month":"2025-02"},{"category":"anti-social-behaviour","location_type":"Force","location":{"latitude":"51.486992","street":{"id":1703816,"name":"On or near Plumstead High Street"},"longitude":"0.094586"},"context":"","outcome_status":null,"persistent_id":"","id":126348910,"location_subtype":"","month":"2025-02"},{"category":"bicycle-theft","location_type":"Force","location":{"latitude":"51.485106","street":{"id":1705308,"name":"On or near Suffolk Place"},"longitude":"0.116019"},"context":"","outcome_status":{"category":"Investigation complete; no suspect identified","date":"2025-03"},"persistent_id":"52bfee899a15425b1eeb9c10221522466948211e4e5ab77be80c111fe15b6982","id":126394432,"location_subtype":"","month":"2025-02"},{"category":"bicycle-theft","location_type":"Force","location":{"latitude":"51.477047","street":{"id":1705449,"name":"On or near Downe Close"},"longitude":"0.117575"},"context":"","outcome_status":{"category":"Investigation complete; no suspect identified","date":"2025-02"},"persistent_id":"802d67bb41a81cfb1921ffbb8de2d0b593c0d42d66abb44f90c3f48b06e272e3","id":126394993,"location_subtype":"","month":"2025-02"},{"category":"bicycle-theft","location_type":"Force","location":{"latitude":"51.490828","street":{"id":1705786,"name":"On or near Gayton Road"},"longitude":"0.121859"},"context":"","outcome_status":{"category":"Investigation complete; no suspect identified","date":"2025-03"},"persistent_id":"9ecbea47dd0c09defecb8c1e5f9af310d94cb7da125a91177f03ef217bc0534a","id":126395047,"location_subtype":"","month":"2025-02"},{"category":"bicycle-theft","location_type":"Force","location":{"latitude":"51.477593","street":{"id":1705552,"name":"On or near Langley Road"},"longitude":"0.118738"},"context":"","outcome_status":{"category":"Investigation complete; no suspect identified","date":"2025-02"},"persistent_id":"0e2826291ed2e86615bdb1d7aad165442d65ec5ec9e015b4254e69cbc63e7b55","id":126394830,"location_subtype":"","month":"2025-02"},{"category":"burglary","location_type":"Force","location":{"latitude":"51.489498","street":{"id":1704623,"name":"On or near Birkdale Road"},"longitude":"0.104842"},"context":"","outcome_status":{"category":"Investigation complete; no suspect identified","date":"2025-02"},"persistent_id":"8c4bf6ddf23268d1dbbb4d63a5c1016d378460308499e7b048638a1d4a20af97","id":126378366,"location_subtype":"","month":"2025-02"},{"category":"burglary","location_type":"Force","location":{"latitude":"51.483328","street":{"id":1704343,"name":"On or near Glendown Road"},"longitude":"0.102844"},"context":"","outcome_status":{"category":"Investigation complete; no suspect identified","date":"2025-03"},"persistent_id":"dccd9c97b910543f0bc08cc84b4706f12ca6dc0b336493245d58a76894b48c56","id":126377675,"location_subtype":"","month":"2025-02"},{"category":"burglary","location_type":"Force","location":{"latitude":"51.485022","street":{"id":1704997,"name":"On or near Carnation Street"},"longitude":"0.110167"},"context":"","outcome_status":{"category":"Investigation complete; no suspect identified","date":"2025-02"},"persistent_id":"3b11d697c0f07364718aa6aaa877a6a82471c150e0e27adf8fe1bb48c18b2019","id":126379314,"location_subtype":"","month":"2025-02"},{"category":"burglary","location_type":"Force","location":{"latitude":"51.484366","street":{"id":1704317,"name":"On or near Rockmount Road"},"longitude":"0.101120"},"context":"","outcome_status":{"category":"Investigation complete; no suspect identified","date":"2025-03"},"persistent_id":"ee355e35c2921f61ec8736d2f93dac960b54a4621da35030c0966bcdc5180263","id":126380175,"location_subtype":"","month":"2025-02"},{"category":"burglary","location_type":"Force","location":{"latitude":"51.502961","street":{"id":1705600,"name":"On or near Byron Close"},"longitude":"0.119252"},"context":"","outcome_status":{"category":"Unable to prosecute suspect","date":"2025-12"},"persistent_id":"00fea9502587aab039c9eb2b647fda4459822327731e5195e23236908aea0a33","id":126380295,"location_subtype":"","month":"2025-02"},{"category":"burglary","location_type":"Force","location":{"latitude":"51.477105","street":{"id":1705729,"name":"On or near First Avenue"},"longitude":"0.121827"},"context":"","outcome_status":{"category":"Investigation complete; no suspect identified","date":"2025-06"},"persistent_id":"b96be13fe76a05417663b322470f1ca2b6cbc2215cb50d6df16ab97818e4b217","id":126381261,"location_subtype":"","month":"2025-02"},{"category":"burglary","location_type":"Force","location":{"latitude":"51.490331","street":{"id":1705355,"name":"On or near Abbey Grove"},"longitude":"0.115973"},"context":"","outcome_status":{"category":"Investigation complete; no suspect identified","date":"2025-02"},"persistent_id":"ae02d9b2db0fc8296bac2952f50f7bafe1bbb1aa7b104ba41cad5c301e723cf2","id":126378927,"location_subtype":"","month":"2025-02"},{"category":"burglary","location_type":"Force","location":{"latitude":"51.492853","street":{"id":1706273,"name":"On or near Glimpsing Green"},"longitude":"0.135595"},"context":"","outcome_status":{"category":"Investigation complete; no suspect identified","date":"2025-03"},"persistent_id":"5f78df73a03a3dd8b06b78a57ed435d3fda3d54fdd05244104ff55a58813ccb7","id":126381304,"location_subtype":"","month":"2025-02"},{"category":"burglary","location_type":"Force","location":{"latitude":"51.491690","street":{"id":1705697,"name":"On or near Chantry Close"},"longitude":"0.120415"},"context":"","outcome_status":{"category":"Investigation complete; no suspect identified","date":"2025-03"},"persistent_id":"f2bc821f6e3709175b66984a3eeee854b392571cefed4a98c6d4fb048caccc84","id":126381883,"location_subtype":"","month":"2025-02"},{"category":"burglary","location_type":"Force","location":{"latitude":"51.477047","street":{"id":1705449,"name":"On or near Downe Close"},"longitude":"0.117575"},"context":"","outcome_status":{"category":"Investigation complete; no suspect identified","date":"2025-06"},"persistent_id":"33ea48c14a6755b253812876d9538b2a6bcdc2cae5bbf9ff207c9c464c1c81a1","id":126377914,"location_subtype":"","month":"2025-02"},{"category":"burglary","location_type":"Force","location":{"latitude":"51.483328","street":{"id":1704343,"name":"On or near Glendown Road"},"longitude":"0.102844"},"context":"","outcome_status":{"category":"Investigation complete; no suspect identified","date":"2025-02"},"persistent_id":"1932b22f56c8ff34edb789a9ab299f349d1891a7015e5bc58fe0a0a0d2cc2d1d","id":126379708,"location_subtype":"","month":"2025-02"},{"category":"burglary","location_type":"Force","location":{"latitude":"51.495877","street":{"id":1705970,"name":"On or near Wolvercote Road"},"longitude":"0.126069"},"context":"","outcome_status":{"category":"Investigation complete; no suspect identified","date":"2025-02"},"persistent_id":"f64527521c7295df3a84ead8e53dd265361b8438a90a0b7a6aadbcecb2f3bf71","id":126379845,"location_subtype":"","month":"2025-02"},{"category":"burglary","location_type":"Force","location":{"latitude":"51.480279","street":{"id":1704514,"name":"On or near Sandycroft"},"longitude":"0.103366"},"context":"","outcome_status":{"category":"Investigation complete; no suspect identified","date":"2025-02"},"persistent_id":"bf08499791cbf659c880f0fdd4eb7bcdb1c41ec50fa32564490fb95e1207d852","id":126379909,"location_subtype":"","month":"2025-02"},{"category":"burglary","location_type":"Force","location":{"latitude":"51.475920","street":{"id":1705607,"name":"On or near Hartley Road"},"longitude":"0.119251"},"context":"","outcome_status":{"category":"Investigation complete; no suspect identified","date":"2025-02"},"persistent_id":"69041e94d559fb62aad8789b14d76baf18093ae5f4725625b9bb02eb258a356c","id":126378480,"location_subtype":"","month":"2025-02"},{"category":"burglary","location_type":"Force","location":{"latitude":"51.487743","street":{"id":1705236,"name":"On or near Mcleod Road"},"longitude":"0.114412"},"context":"","outcome_status":{"category":"Investigation complete; no suspect identified","date":"2025-02"},"persistent_id":"86cf6f3923c2e6d4e67d88df2e424fcc5ee54e747f546ec0e7880f7c8004ebe2","id":126381905,"location_subtype":"","month":"2025-02"},{"category":"burglary","location_type":"Force","location":{"latitude":"51.478748","street":{"id":1705215,"name":"On or near Hospital"},"longitude":"0.116488"},"context":"","outcome_status":{"category":"Investigation complete; no suspect identified","date":"2025-02"},"persistent_id":"2e40eae460f7e3d0f64953faf02ffb2efe11721126bbe54ebfb79f998134c87f","id":126378307,"location_subtype":"","month":"2025-02"},{"category":"burglary","location_type":"Force","location":{"latitude":"51.490302","street":{"id":1704333,"name":"On or near Church Manorway"},"longitude":"0.102113"},"context":"","outcome_status":{"category":"Investigation complete; no suspect identified","date":"2025-02"},"persistent_id":"ef6f1320359cc043428de9e1bd28c85e81a0d6bc7a6f0ef310593fba21b993ff","id":126378284,"location_subtype":"","month":"2025-02"},{"category":"burglary","location_type":"Force","location":{"latitude":"51.483328","street":{"id":1704343,"name":"On or near Glendown Road"},"longitude":"0.102844"},"context":"","outcome_status":{"category":"Investigation complete; no suspect identified","date":"2025-02"},"persistent_id":"a8c05e7652c3a2fff7e97ae9facc454a0c215c9667649a534e2fea72af9630c9","id":126378143,"location_subtype":"","month":"2025-02"},{"category":"burglary","location_type":"Force","location":{"latitude":"51.490005","street":{"id":1705188,"name":"On or near Bostall Manorway"},"longitude":"0.113609"},"context":"","outcome_status":{"category":"Investigation complete; no suspect identified","date":"2025-02"},"persistent_id":"de520ca6ebd5f8a0db97314fbb70d0b8b7fda0c98cb20fb4fe45aa4aaefdb591","id":126379061,"location_subtype":"","month":"2025-02"},{"category":"criminal-damage-arson","location_type":"Force","location":{"latitude":"51.494580","street":{"id":1705214,"name":"On or near Edington Road"},"longitude":"0.114729"},"context":"","outcome_status":{"category":"Investigation complete; no suspect identified","date":"2025-02"},"persistent_id":"d0296811e8eef50971a28a8680ab7a94517407033caf7966c54427fd0002f6f1","id":126373781,"location_subtype":"","month":"2025-02"},{"category":"criminal-damage-arson","location_type":"Force","location":{"latitude":"51.486011","street":{"id":1704220,"name":"On or near A206"},"longitude":"0.098690"},"context":"","outcome_status":{"category":"Awaiting court outcome","date":"2025-09"},"persistent_id":"11f578a8b4c84673aff8b1c6f4796cf1fd99eed57abd5f00ba9bc636d22e1bf0","id":126372937,"location_subtype":"","month":"2025-02"},{"category":"criminal-damage-arson","location_type":"Force","location":{"latitude":"51.496851","street":{"id":1705725,"name":"On or near Tavy Bridge"},"longitude":"0.122960"},"context":"","outcome_status":{"category":"Investigation complete; no suspect identified","date":"2025-06"},"persistent_id":"db81379f4484a0a9326f6890f3398cb5f6f361e7a4346580ade4cee0efa9a283","id":126415142,"location_subtype":"","month":"2025-02"},{"category":"criminal-damage-arson","location_type":"Force","location":{"latitude":"51.498204","street":{"id":1706235,"name":"On or near St Brides Close"},"longitude":"0.130154"},"context":"","outcome_status":{"category":"Investigation complete; no suspect identified","date":"2025-02"},"persistent_id":"45d1bf74c5e94cf271c83ab3711330ecdc6ba94614d28eb41fedcf72459e838b","id":126372187,"location_subtype":"","month":"2025-02"},{"category":"criminal-damage-arson","location_type":"Force","location":{"latitude":"51.490459","street":{"id":1705684,"name":"On or near Wilton Road"},"longitude":"0.121337"},"context":"","outcome_status":{"category":"Investigation complete; no suspect identified","date":"2025-02"},"persistent_id":"e4cf73eb82b7793a1b57b5bbb56a4714e4df06bfd4cf9bdba1d341814e45c7ea","id":126372285,"location_subtype":"","month":"2025-02"},{"category":"criminal-damage-arson","location_type":"Force","location":{"latitude":"51.487353","street":{"id":1704581,"name":"On or near Myra Street"},"longitude":"0.104081"},"context":"","outcome_status":{"category":"Unable to prosecute suspect","date":"2025-02"},"persistent_id":"21cf8c92046792b5aa5c094cfe2b9e36d66ab8af7de5b8b8da6636cbbd59f9a5","id":126371875,"location_subtype":"","month":"2025-02"},{"category":"criminal-damage-arson","location_type":"Force","location":{"latitude":"51.488048","street":{"id":1705024,"name":"On or near Smithies Road"},"longitude":"0.110926"},"context":"","outcome_status":{"category":"Investigation complete; no suspect identified","date":"2025-02"},"persistent_id":"d3d184205dab961eaad066c1bf849b8c39e3324f923a0041552dbbbac13b0956","id":126371379,"location_subtype":"","month":"2025-02"},{"category":"criminal-damage-arson","location_type":"Force","location":{"latitude":"51.493634","street":{"id":1706522,"name":"On or near Parkway"},"longitude":"0.136208"},"context":"","outcome_status":{"category":"Investigation complete; no suspect identified","date":"2025-02"},"persistent_id":"650ce2f3115320dd2c2d275c81effa3d3a2c0745c2dfe31333e00d9de736c018","id":126371249,"location_subtype":"","month":"2025-02"},{"category":"criminal-damage-arson","location_type":"Force","location":{"latitude":"51.494519","street":{"id":1704551,"name":"On or near Manister Road"},"longitude":"0.106673"},"context":"","outcome_status":{"category":"Investigation complete; no suspect identified","date":"2025-02"},"persistent_id":"dd27959227868f59b55887c1274d5bdcfde6007f75d100c23b704b6276dd14bd","id":126371240,"location_subtype":"","month":"2025-02"},{"category":"criminal-damage-arson","location_type":"Force","location":{"latitude":"51.497058","street":{"id":1705524,"name":"On or near Godstow Road"},"longitude":"0.118445"},"context":"","outcome_status":{"category":"Unable to prosecute suspect","date":"2025-02"},"persistent_id":"3a87d89b504bea8b2278c070f2d68c8b6e4694f6a32134eaa0cea06703c9abc3","id":126371180,"location_subtype":"","month":"2025-02"},{"category":"criminal-damage-arson","location_type":"Force","location":{"latitude":"51.497943","street":{"id":1705433,"name":"On or near Tickford Close"},"longitude":"0.116743"},"context":"","outcome_status":{"category":"Investigation complete; no suspect identified","date":"2025-02"},"persistent_id":"5a342c5f9429d386b937d2485d4bec53da696d59ef3beae76c9d15435d4581be","id":126371150,"location_subtype":"","month":"2025-02"},{"category":"criminal-damage-arson","location_type":"Force","location":{"latitude":"51.489391","street":{"id":1705801,"name":"On or near Manorside Close"},"longitude":"0.122728"},"context":"","outcome_status":{"category":"Investigation complete; no suspect identified","date":"2025-02"},"persistent_id":"bcec18bd031de4be991d591e00f60230456bdd37f6e0d8726e3e209e506a22e4","id":126414952,"location_subtype":"","month":"2025-02"},{"category":"criminal-damage-arson","location_type":"Force","location":{"latitude":"51.486011","street":{"id":1704220,"name":"On or near A206"},"longitude":"0.098690"},"context":"","outcome_status":{"category":"Unable to prosecute suspect","date":"2025-10"},"persistent_id":"5a60cf48bd086ebc479087ba164fb598ba916c416f884a930cd60ab61f2a9777","id":126372328,"location_subtype":"","month":"2025-02"},{"category":"criminal-damage-arson","location_type":"Force","location":{"latitude":"51.495877","street":{"id":1705970,"name":"On or near Wolvercote Road"},"longitude":"0.126069"},"context":"","outcome_status":{"category":"Unable to prosecute suspect","date":"2025-10"},"persistent_id":"96a2c2f6b8702e8aa131131b89a93937482c91313e3b569ec2499f6bcabc47e6","id":126371575,"location_subtype":"","month":"2025-02"},{"category":"criminal-damage-arson","location_type":"Force","location":{"latitude":"51.486588","street":{"id":1704341,"name":"On or near Camrose Street"},"longitude":"0.102605"},"context":"","outcome_status":{"category":"Investigation complete; no suspect identified","date":"2025-02"},"persistent_id":"e6fa9840e860e93f341dc00cb342b0ef898b1b7ff578d9da018d7aaec9bb37c6","id":126372484,"location_subtype":"","month":"2025-02"},{"category":"criminal-damage-arson","location_type":"Force","location":{"latitude":"51.489925","street":{"id":1704140,"name":"On or near Marmadon Road"},"longitude":"0.098063"},"context":"","outcome_status":{"category":"Investigation complete; no suspect identified","date":"2025-02"},"persistent_id":"9aa3235506ea98fcd481234cafbb07635cde333051cfd4f6e4e16a7b84678dae","id":126415111,"location_subtype":"","month":"2025-02"},{"category":"criminal-damage-arson","location_type":"Force","location":{"latitude":"51.486445","street":{"id":1705051,"name":"On or near Viola Avenue"},"longitude":"0.111039"},"context":"","outcome_status":{"category":"Investigation complete; no suspect identified","date":"2025-03"},"persistent_id":"4972260580b130ce839c130e1eede6d1906fe1d31c4496fa2c1d53d69a069339","id":126372647,"location_subtype":"","month":"2025-02"},{"category":"criminal-damage-arson","location_type":"Force","location":{"latitude":"51.496851","street":{"id":1705725,"name":"On or near Tavy Bridge"},"longitude":"0.122960"},"context":"","outcome_status":{"category":"Investigation complete; no suspect identified","date":"2025-04"},"persistent_id":"4172b7aa301c10abefbecb087cd04f9f26500374ed707d481080ababfcff769f","id":126373449,"location_subtype":"","month":"2025-02"},{"category":"criminal-damage-arson","location_type":"Force","location":{"latitude":"51.486531","street":{"id":1703981,"name":"On or near Police Station"},"longitude":"0.095761"},"context":"","outcome_status":{"category":"Court result unavailable","date":"2025-08"},"persistent_id":"341fa8c68bb91380b165c119f01a40eccd4b2bf190a233a70056cfb958d86223","id":126373084,"location_subtype":"","month":"2025-02"},{"category":"criminal-damage-arson","location_type":"Force","location":{"latitude":"51.486277","street":{"id":1705291,"name":"On or near Willrose Crescent"},"longitude":"0.115886"},"context":"","outcome_status":{"category":"Investigation complete; no suspect identified","date":"2025-02"},"persistent_id":"2d92ae930627dd5f468eb13a5263773cc965a978657e92611eb5b962a2f8fd8d","id":126374030,"location_subtype":"","month":"2025-02"},{"category":"criminal-damage-arson","location_type":"Force","location":{"latitude":"51.482499","street":{"id":1706205,"name":"On or near Friars Walk"},"longitude":"0.129336"},"context":"","outcome_status":{"category":"Investigation complete; no suspect identified","date":"2025-03"},"persistent_id":"49a1292ec98fc85b48c77231a49a273e2a7001450792c8798a7307e2ad1f177e","id":126374045,"location_subtype":"","month":"2025-02"},{"category":"criminal-damage-arson","location_type":"Force","location":{"latitude":"51.498224","street":{"id":1705456,"name":"On or near Ampleforth Road"},"longitude":"0.117620"},"context":"","outcome_status":{"category":"Investigation complete; no suspect identified","date":"2025-02"},"persistent_id":"9830d72f7487e54e1828775794e94dfa0e76d9211ead182c808e79bca8a4cbd2","id":126374455,"location_subtype":"","month":"2025-02"},{"category":"criminal-damage-arson","location_type":"Force","location":{"latitude":"51.485949","street":{"id":1703983,"name":"On or near Speranza Street"},"longitude":"0.095604"},"context":"","outcome_status":{"category":"Investigation complete; no suspect identified","date":"2025-03"},"persistent_id":"3675069ff155fb4e9e3ead8b27bf9cf3a218d332e881d8f063a2db547216202b","id":126374518,"location_subtype":"","month":"2025-02"},{"category":"criminal-damage-arson","location_type":"Force","location":{"latitude":"51.485152","street":{"id":1704631,"name":"On or near Petrol Station"},"longitude":"0.104930"},"context":"","outcome_status":{"category":"Investigation complete; no suspect identified","date":"2025-04"},"persistent_id":"9d7c81809cd60a8137f8146a8a0794fd70caf02c7314b2272680bf9fdf8b7231","id":126372126,"location_subtype":"","month":"2025-02"},{"category":"criminal-damage-arson","location_type":"Force","location":{"latitude":"51.498224","street":{"id":1705456,"name":"On or near Ampleforth Road"},"longitude":"0.117620"},"context":"","outcome_status":{"category":"Investigation complete; no suspect identified","date":"2025-02"},"persistent_id":"6a25ee0fd7c0a51e291553eb45009df81533d087b511d35cfd2b27420a3f62ec","id":126374436,"location_subtype":"","month":"2025-02"},{"category":"criminal-damage-arson","location_type":"Force","location":{"latitude":"51.492853","street":{"id":1706273,"name":"On or near Glimpsing Green"},"longitude":"0.135595"},"context":"","outcome_status":{"category":"Investigation complete; no suspect identified","date":"2025-03"},"persistent_id":"2ce2b80640f68e4f6a7f40845c5050f9f35229cd77102cb6fad676f8339c9a93","id":126415149,"location_subtype":"","month":"2025-02"},{"category":"criminal-damage-arson","location_type":"Force","location":{"latitude":"51.501492","street":{"id":1704896,"name":"On or near Campion Place"},"longitude":"0.109444"},"context":"","outcome_status":{"category":"Unable to prosecute suspect","date":"2025-06"},"persistent_id":"86dd9fb909cd2fc387e981f1764d4fff3831c44e2ba78633de6d41f9e6fba42e","id":126371199,"location_subtype":"","month":"2025-02"},{"category":"criminal-damage-arson","location_type":"Force","location":{"latitude":"51.491410","street":{"id":1705030,"name":"On or near Brimpsfield Close"},"longitude":"0.111514"},"context":"","outcome_status":{"category":"Investigation complete; no suspect identified","date":"2025-02"},"persistent_id":"a8856f4ac3fc1eb4904d872735f4a3bf9f3ff9da9f355023e4edd48b10925e7d","id":126372330,"location_subtype":"","month":"2025-02"},{"category":"criminal-damage-arson","location_type":"Force","location":{"latitude":"51.501492","street":{"id":1704896,"name":"On or near Campion Place"},"longitude":"0.109444"},"context":"","outcome_status":{"category":"Investigation complete; no suspect identified","date":"2025-02"},"persistent_id":"1bd28c4b9413f48fd35589e3ba3776c9703e21ab618ab3c58710f7fd90428f8a","id":126374204,"location_subtype":"","month":"2025-02"},{"category":"criminal-damage-arson","location_type":"Force","location":{"latitude":"51.488048","street":{"id":1705024,"name":"On or near Smithies Road"},"longitude":"0.110926"},"context":"","outcome_status":{"category":"Investigation complete; no suspect identified","date":"2025-02"},"persistent_id":"82ebc827161ae0287e515ae643a206785e6c5cf7fe7728958c6403093cc745c8","id":126374177,"location_subtype":"","month":"2025-02"},{"category":"criminal-damage-arson","location_type":"Force","location":{"latitude":"51.497584","street":{"id":1706055,"name":"On or near Seacourt Road"},"longitude":"0.126163"},"context":"","outcome_status":{"category":"Investigation complete; no suspect identified","date":"2025-07"},"persistent_id":"746aa27b2adcb1d156f1ce6ebc38d9bab9526b7a5c9210a2882697e7c944d049","id":126414929,"location_subtype":"","month":"2025-02"},{"category":"criminal-damage-arson","location_type":"Force","location":{"latitude":"51.499644","street":{"id":1705575,"name":"On or near Wolsey Close"},"longitude":"0.119660"},"context":"","outcome_status":{"category":"Investigation complete; no suspect identified","date":"2025-03"},"persistent_id":"65122fa91de737cc47f4b708e76e03cfd30e28c11bb7e70eda6522b067ac51c4","id":126372440,"location_subtype":"","month":"2025-02"},{"category":"criminal-damage-arson","location_type":"Force","location":{"latitude":"51.495480","street":{"id":1704846,"name":"On or near Panfield Road"},"longitude":"0.108201"},"context":"","outcome_status":{"category":"Investigation complete; no suspect identified","date":"2025-02"},"persistent_id":"f525b457838a4e347dd55db538122d1a118da2bc4da49af44b6aa1d24434683c","id":126371812,"location_subtype":"","month":"2025-02"},{"category":"drugs","location_type":"Force","location":{"latitude":"51.493680","street":{"id":1705691,"name":"On or near Cook Close"},"longitude":"0.120752"},"context":"","outcome_status":{"category":"Awaiting court outcome","date":"2025-08"},"persistent_id":"d18fc1bb6314fee6d3859e7491cb287cc4abc06d75c649aafe6c0a8538af00f1","id":126428751,"location_subtype":"","month":"2025-02"},{"category":"drugs","location_type":"Force","location":{"latitude":"51.490896","street":{"id":1705641,"name":"On or near Parking Area"},"longitude":"0.120076"},"context":"","outcome_status":{"category":"Offender given penalty notice","date":"2025-02"},"persistent_id":"d42b080963a6903f5e1855bdbd7af588ddea738f2302d4ffccd79ec97eb600ed","id":126428133,"location_subtype":"","month":"2025-02"},{"category":"drugs","location_type":"Force","location":{"latitude":"51.490828","street":{"id":1705786,"name":"On or near Gayton Road"},"longitude":"0.121859"},"context":"","outcome_status":{"category":"Local resolution","date":"2025-02"},"persistent_id":"cde29487e734d220e579613b86856b437705ed2b01882aa6a5178eeedfe6c0b3","id":126428135,"location_subtype":"","month":"2025-02"},{"category":"drugs","location_type":"Force","location":{"latitude":"51.490896","street":{"id":1705641,"name":"On or near Parking Area"},"longitude":"0.120076"},"context":"","outcome_status":{"category":"Local resolution","date":"2025-03"},"persistent_id":"e4a65178101f6854bd66c5ecdd8d6f14b62fe8a68db0b877201c4e322dde0b0c","id":126428141,"location_subtype":"","month":"2025-02"},{"category":"drugs","location_type":"Force","location":{"latitude":"51.490896","street":{"id":1705641,"name":"On or near Parking Area"},"longitude":"0.120076"},"context":"","outcome_status":{"category":"Local resolution","date":"2025-03"},"persistent_id":"35c9b32396df4d8017714e222aa8cd42ff5575b86aa3fbabda44da4e675c5cd5","id":126428136,"location_subtype":"","month":"2025-02"},{"category":"drugs","location_type":"Force","location":{"latitude":"51.490828","street":{"id":1705786,"name":"On or near Gayton Road"},"longitude":"0.121859"},"context":"","outcome_status":{"category":"Local resolution","date":"2025-03"},"persistent_id":"eb41bc246ab65c17ef8e069a6694cf1b982c51ed0722932daa5792b8abe9e117","id":126428143,"location_subtype":"","month":"2025-02"},{"category":"drugs","location_type":"Force","location":{"latitude":"51.490426","street":{"id":1704797,"name":"On or near Bracondale Road"},"longitude":"0.107708"},"context":"","outcome_status":{"category":"Investigation complete; no suspect identified","date":"2025-02"},"persistent_id":"ee0088937fee9f6a560f1e459fd1ead3e3bc74184b1d43dcd84031300ceb156a","id":126426627,"location_subtype":"","month":"2025-02"},{"category":"drugs","location_type":"Force","location":{"latitude":"51.478026","street":{"id":1705625,"name":"On or near Elmsted Crescent"},"longitude":"0.119608"},"context":"","outcome_status":{"category":"Court result unavailable","date":"2025-09"},"persistent_id":"42f2ea8a43ad2f5c447511102c4fb42313c85602f471739342c8616687c8272d","id":126427094,"location_subtype":"","month":"2025-02"},{"category":"drugs","location_type":"Force","location":{"latitude":"51.491974","street":{"id":1705394,"name":"On or near Felixstowe Road"},"longitude":"0.116668"},"context":"","outcome_status":{"category":"Unable to prosecute suspect","date":"2025-02"},"persistent_id":"3d17fa166c3c670dcd12073fe461cfef3892f70d8f802e57083a6fda74a399e4","id":126426395,"location_subtype":"","month":"2025-02"},{"category":"drugs","location_type":"Force","location":{"latitude":"51.490592","street":{"id":1705747,"name":"On or near Florence Road"},"longitude":"0.122438"},"context":"","outcome_status":{"category":"Local resolution","date":"2025-03"},"persistent_id":"d14ff42b888f5dd0496c10b82f6cd0c0374fff917af120538748a8c40f86524f","id":126428214,"location_subtype":"","month":"2025-02"},{"category":"drugs","location_type":"Force","location":{"latitude":"51.501500","street":{"id":1705177,"name":"On or near Southwood Road"},"longitude":"0.112989"},"context":"","outcome_status":{"category":"Local resolution","date":"2025-02"},"persistent_id":"30ee3656fdec4cb5176f1e237ddd2d7a1d2df31ce6125a905a34225aa83d2b07","id":126428752,"location_subtype":"","month":"2025-02"},{"category":"drugs","location_type":"Force","location":{"latitude":"51.494251","street":{"id":1705111,"name":"On or near Eynsham Drive"},"longitude":"0.112553"},"context":"","outcome_status":{"category":"Court result unavailable","date":"2025-09"},"persistent_id":"0d61f0f43475ae47f06041a58eb0863e07309278235652e37d217e35d26bd37f","id":126428667,"location_subtype":"","month":"2025-02"},{"category":"drugs","location_type":"Force","location":{"latitude":"51.502536","street":{"id":1705171,"name":"On or near Austen Close"},"longitude":"0.113930"},"context":"","outcome_status":{"category":"Offender given penalty notice","date":"2025-03"},"persistent_id":"99369e1e07fbabba0d6d87a033c8b828399678c3a443622ef0431c0c9ccee28a","id":126428329,"location_subtype":"","month":"2025-02"},{"category":"drugs","location_type":"Force","location":{"latitude":"51.490232","street":{"id":1705661,"name":"On or near Glover Close"},"longitude":"0.119973"},"context":"","outcome_status":{"category":"Offender given penalty notice","date":"2025-07"},"persistent_id":"ca5326f35427ea060e4697a9046df12775c0a1d5d37883e797660c6c668e1e7d","id":126428306,"location_subtype":"","month":"2025-02"},{"category":"drugs","location_type":"Force","location":{"latitude":"51.484146","street":{"id":1704743,"name":"On or near Old Park Road"},"longitude":"0.106382"},"context":"","outcome_status":{"category":"Status update unavailable","date":"2025-06"},"persistent_id":"2202c8b2dd461ebcc7cf8af7d4f5928c93eefc22611ab145ac8f2cd4d72c3800","id":126427397,"location_subtype":"","month":"2025-02"},{"category":"drugs","location_type":"Force","location":{"latitude":"51.494825","street":{"id":1705646,"name":"On or near Harrow Manorway"},"longitude":"0.121122"},"context":"","outcome_status":{"category":"Offender given a caution","date":"2025-05"},"persistent_id":"fee03c42ced26526f5348d3edfd0580662b4fb99557708ec88f42dd716aa30f1","id":126426855,"location_subtype":"","month":"2025-02"},{"category":"drugs","location_type":"Force","location":{"latitude":"51.494493","street":{"id":1705393,"name":"On or near Throwley Close"},"longitude":"0.117606"},"context":"","outcome_status":{"category":"Court result unavailable","date":"2025-08"},"persistent_id":"27c1003d4dcdf6d622f28f0e5ce2e675db82b713b3a0262745a829c8bbf9056e","id":126426832,"location_subtype":"","month":"2025-02"},{"category":"drugs","location_type":"Force","location":{"latitude":"51.486441","street":{"id":1704553,"name":"On or near Unity Mews"},"longitude":"0.103780"},"context":"","outcome_status":{"category":"Court result unavailable","date":"2025-09"},"persistent_id":"970c8e959947f95aa439c288dceb4af78c7dda5cac04e319713b968beba29158","id":126426830,"location_subtype":"","month":"2025-02"},{"category":"drugs","location_type":"Force","location":{"latitude":"51.494694","street":{"id":1705614,"name":"On or near Thistlebrook"},"longitude":"0.119906"},"context":"","outcome_status":{"category":"Court result unavailable","date":"2025-08"},"persistent_id":"6822a7f3e49079ff41007d1d67752c045c7f04a12a586b6058cc3c0f9805d9dd","id":126426720,"location_subtype":"","month":"2025-02"},{"category":"drugs","location_type":"Force","location":{"latitude":"51.481171","street":{"id":1704554,"name":"On or near Rutherglen Road"},"longitude":"0.103767"},"context":"","outcome_status":{"category":"Local resolution","date":"2025-03"},"persistent_id":"c13d47ce06856f05f5c7818fd247c1ca8c597d66fd9afccb9e2feb56feaea9f2","id":126427230,"location_subtype":"","month":"2025-02"},{"category":"drugs","location_type":"Force","location":{"latitude":"51.482243","street":{"id":1705877,"name":"On or near Hurst Lane"},"longitude":"0.124139"},"context":"","outcome_status":{"category":"Local resolution","date":"2025-02"},"persistent_id":"80b96fadd7f38594ab8866bdb1744a4679bd8ab4580fb4f26a5a349e938f6ae9","id":126427185,"location_subtype":"","month":"2025-02"},{"category":"drugs","location_type":"Force","location":{"latitude":"51.502540","street":{"id":1705321,"name":"On or near Disraeli Close"},"longitude":"0.116653"},"context":"","outcome_status":{"category":"Court result unavailable","date":"2025-09"},"persistent_id":"1e005c39e094139f17b17702976e540fa4c1dfac28a4b0160bea1b2d70234d3d","id":126427103,"location_subtype":"","month":"2025-02"},{"category":"drugs","location_type":"Force","location":{"latitude":"51.491974","street":{"id":1705394,"name":"On or near Felixstowe Road"},"longitude":"0.116668"},"context":"","outcome_status":{"category":"Unable to prosecute suspect","date":"2025-03"},"persistent_id":"f16d371f00135034c4a0bb042410e5bd87b5504bc5df23e1efd816509216d689","id":126426513,"location_subtype":"","month":"2025-02"},{"category":"drugs","location_type":"Force","location":{"latitude":"51.497003","street":{"id":1706115,"name":"On or near St Martins Close"},"longitude":"0.128975"},"context":"","outcome_status":{"category":"Unable to prosecute suspect","date":"2025-02"},"persistent_id":"ef3772964e1e10cfa3d468756928c359aab37c51f7d81f76661e6bb2254f2f76","id":126426300,"location_subtype":"","month":"2025-02"},{"category":"drugs","location_type":"Force","location":{"latitude":"51.482243","street":{"id":1705877,"name":"On or near Hurst Lane"},"longitude":"0.124139"},"context":"","outcome_status":{"category":"Unable to prosecute suspect","date":"2025-02"},"persistent_id":"2655d26bbfa64406cf19f6344cd03944810af99c83d579d588e3e9be2afd82b0","id":126426232,"location_subtype":"","month":"2025-02"},{"category":"drugs","location_type":"Force","location":{"latitude":"51.488925","street":{"id":1704764,"name":"On or near Blithdale Road"},"longitude":"0.107654"},"context":"","outcome_status":{"category":"Unable to prosecute suspect","date":"2025-02"},"persistent_id":"e6224c897a1fbfda27306976235e19e8c3116ae389425fe0c07a5bc657a17ad7","id":126426209,"location_subtype":"","month":"2025-02"},{"category":"drugs","location_type":"Force","location":{"latitude":"51.491974","street":{"id":1705394,"name":"On or near Felixstowe Road"},"longitude":"0.116668"},"context":"","outcome_status":{"category":"Unable to prosecute suspect","date":"2025-02"},"persistent_id":"26f64d611b7089fa9d89535c1739b5ea775cc62bab75aec1ac2a7ff2cd86488e","id":126425681,"location_subtype":"","month":"2025-02"},{"category":"drugs","location_type":"Force","location":{"latitude":"51.501696","street":{"id":1705143,"name":"On or near Woolf Close"},"longitude":"0.112609"},"context":"","outcome_status":{"category":"Unable to prosecute suspect","date":"2025-02"},"persistent_id":"6e306be2bd35c8f9aa2d08c502cdabaaf25dbc1afa1bfb9c5fecde1f0b22ef3c","id":126425611,"location_subtype":"","month":"2025-02"},{"category":"drugs","location_type":"Force","location":{"latitude":"51.477555","street":{"id":1704641,"name":"On or near Villacourt Road"},"longitude":"0.104868"},"context":"","outcome_status":{"category":"Court result unavailable","date":"2025-10"},"persistent_id":"e29fb9a4fbc436fb29b65058c34ac4c48e8182467c3f9e08d7a2968f0e7d089f","id":126428599,"location_subtype":"","month":"2025-02"},{"category":"other-theft","location_type":"Force","location":{"latitude":"51.484146","street":{"id":1704743,"name":"On or near Old Park Road"},"longitude":"0.106382"},"context":"","outcome_status":{"category":"Unable to prosecute suspect","date":"2025-03"},"persistent_id":"4c5d9c1c08f7c5a0c610b7da0be4a625b0fd4fa37c0d5862c104279e006cf08d","id":126410495,"location_subtype":"","month":"2025-02"},{"category":"other-theft","location_type":"Force","location":{"latitude":"51.487411","street":{"id":1704198,"name":"On or near Amar Court"},"longitude":"0.098811"},"context":"","outcome_status":{"category":"Investigation complete; no suspect identified","date":"2025-02"},"persistent_id":"2d0eca824e1726a9b2770f8328fad30a6b442f76bb40d6f1801714bbd4701dbc","id":126410920,"location_subtype":"","month":"2025-02"},{"category":"other-theft","location_type":"Force","location":{"latitude":"51.492544","street":{"id":1705309,"name":"On or near Luffield Road"},"longitude":"0.114937"},"context":"","outcome_status":{"category":"Investigation complete; no suspect identified","date":"2025-02"},"persistent_id":"daf2c613c36c3cd5a8543cfeed98756cac7a56f3f48d577fb8c6752d1b680750","id":126411060,"location_subtype":"","month":"2025-02"},{"category":"other-theft","location_type":"Force","location":{"latitude":"51.491690","street":{"id":1705697,"name":"On or near Chantry Close"},"longitude":"0.120415"},"context":"","outcome_status":{"category":"Investigation complete; no suspect identified","date":"2025-02"},"persistent_id":"166e607b9b627f3e4700afe276fca2d05ccc176c34e1589c36d8c3dc94c42e31","id":126384929,"location_subtype":"","month":"2025-02"},{"category":"other-theft","location_type":"Force","location":{"latitude":"51.486035","street":{"id":1704046,"name":"On or near Quilter Street"},"longitude":"0.096328"},"context":"","outcome_status":{"category":"Investigation complete; no suspect identified","date":"2025-05"},"persistent_id":"1584b87f60d0a5a645afc5680e8f2709c84e8cead11e8f7ca35a57b3ec32779c","id":126410294,"location_subtype":"","month":"2025-02"},{"category":"other-theft","location_type":"Force","location":{"latitude":"51.492948","street":{"id":1705746,"name":"On or near Petrol Station"},"longitude":"0.121731"},"context":"","outcome_status":{"category":"Investigation complete; no suspect identified","date":"2025-03"},"persistent_id":"f7323f86f96901c0b0c9349ee878ff434a5e63c41c2423504a9665e18c2aa902","id":126413597,"location_subtype":"","month":"2025-02"},{"category":"other-theft","location_type":"Force","location":{"latitude":"51.493471","street":{"id":1705808,"name":"On or near Overton Road"},"longitude":"0.123883"},"context":"","outcome_status":{"category":"Unable to prosecute suspect","date":"2025-02"},"persistent_id":"ff5e07de8042f9a14db0075809c7ed3902ea9cae0af624ee170bedd212fb3336","id":126414709,"location_subtype":"","month":"2025-02"},{"category":"other-theft","location_type":"Force","location":{"latitude":"51.498224","street":{"id":1705456,"name":"On or near Ampleforth Road"},"longitude":"0.117620"},"context":"","outcome_status":{"category":"Investigation complete; no suspect identified","date":"2025-02"},"persistent_id":"1b6ff5d9115429f943c52f72677edc1f5e290615b9489b9ead598e899fec2512","id":126409795,"location_subtype":"","month":"2025-02"},{"category":"other-theft","location_type":"Force","location":{"latitude":"51.493101","street":{"id":1705095,"name":"On or near Chalcombe Road"},"longitude":"0.112499"},"context":"","outcome_status":{"category":"Investigation complete; no suspect identified","date":"2025-02"},"persistent_id":"ad496fb373d74749d29537580996bc6f68c9963cd0eb300f2e06d8b5048c3d1e","id":126411055,"location_subtype":"","month":"2025-02"},{"category":"other-theft","location_type":"Force","location":{"latitude":"51.479368","street":{"id":1704490,"name":"On or near Wickham Lane"},"longitude":"0.103540"},"context":"","outcome_status":{"category":"Investigation complete; no suspect identified","date":"2025-02"},"persistent_id":"cbc2faa2e01dabb8e1e297ae624b8ebdf00f0c3f074f730d8ec93bc57de2fd39","id":126413319,"location_subtype":"","month":"2025-02"},{"category":"other-theft","location_type":"Force","location":{"latitude":"51.485135","street":{"id":1704251,"name":"On or near Granite Street"},"longitude":"0.099874"},"context":"","outcome_status":{"category":"Investigation complete; no suspect identified","date":"2025-02"},"persistent_id":"f215d948a7aae0df6b17afbc2b668ee0d989ce97905807cefcf42a0f0a950047","id":126412656,"location_subtype":"","month":"2025-02"},{"category":"other-theft","location_type":"Force","location":{"latitude":"51.495980","street":{"id":1705220,"name":"On or near Peterstone Road"},"longitude":"0.114405"},"context":"","outcome_status":{"category":"Investigation complete; no suspect identified","date":"2025-03"},"persistent_id":"0c06a9e30920bd828f343b2ad404e0800285d0e686787a885b4d8a1f0c340b38","id":126411741,"location_subtype":"","month":"2025-02"},{"category":"other-theft","location_type":"Force","location":{"latitude":"51.486531","street":{"id":1703981,"name":"On or near Police Station"},"longitude":"0.095761"},"context":"","outcome_status":{"category":"Investigation complete; no suspect identified","date":"2025-02"},"persistent_id":"d012e4f0b91901d0ee565098c762edafe1d495fd172357240d60f546e983055f","id":126414713,"location_subtype":"","month":"2025-02"},{"category":"other-theft","location_type":"Force","location":{"latitude":"51.498224","street":{"id":1705456,"name":"On or near Ampleforth Road"},"longitude":"0.117620"},"context":"","outcome_status":{"category":"Investigation complete; no suspect identified","date":"2025-02"},"persistent_id":"91ff3e570bc78d24385ed092e3db2d12c7ac77e63a58eca12ff13514af58e602","id":126409887,"location_subtype":"","month":"2025-02"},{"category":"other-theft","location_type":"Force","location":{"latitude":"51.498224","street":{"id":1705456,"name":"On or near Ampleforth Road"},"longitude":"0.117620"},"context":"","outcome_status":{"category":"Investigation complete; no suspect identified","date":"2025-02"},"persistent_id":"d7e37397080d9cdb6e153274975958317dd4cc20054f84977b5e6009fa15a2ea","id":126409351,"location_subtype":"","month":"2025-02"},{"category":"other-theft","location_type":"Force","location":{"latitude":"51.490302","street":{"id":1704333,"name":"On or near Church Manorway"},"longitude":"0.102113"},"context":"","outcome_status":{"category":"Unable to prosecute suspect","date":"2025-08"},"persistent_id":"5bb6c0a84737da3e6daef767af150c244b490088e94b003ae53c5cdfd0aa0ad4","id":126411118,"location_subtype":"","month":"2025-02"},{"category":"other-theft","location_type":"Force","location":{"latitude":"51.492544","street":{"id":1705309,"name":"On or near Luffield Road"},"longitude":"0.114937"},"context":"","outcome_status":{"category":"Investigation complete; no suspect identified","date":"2025-02"},"persistent_id":"d8d5244c3a329acb315fe39f73c46bbb5830136e2fe0b7316a5e1961da9e7fae","id":126411061,"location_subtype":"","month":"2025-02"},{"category":"other-theft","location_type":"Force","location":{"latitude":"51.490510","street":{"id":1706255,"name":"On or near Abbey Road"},"longitude":"0.132936"},"context":"","outcome_status":{"category":"Investigation complete; no suspect identified","date":"2025-02"},"persistent_id":"b7a5f0fd48790be0792fce6ea6d1c995e7a6f63abecbc1af9f46fa99fee72473","id":126409093,"location_subtype":"","month":"2025-02"},{"category":"other-theft","location_type":"Force","location":{"latitude":"51.498757","street":{"id":1706000,"name":"On or near Hartslock Drive"},"longitude":"0.125944"},"context":"","outcome_status":{"category":"Investigation complete; no suspect identified","date":"2025-02"},"persistent_id":"837e2dd94ec85061f01d7058efe86b3e4e07c907164fadb1986f3e3af18e5f72","id":126393575,"location_subtype":"","month":"2025-02"},{"category":"other-theft","location_type":"Force","location":{"latitude":"51.498757","street":{"id":1706000,"name":"On or near Hartslock Drive"},"longitude":"0.125944"},"context":"","outcome_status":{"category":"Investigation complete; no suspect identified","date":"2025-02"},"persistent_id":"4e1d7485a0580abebdc2bd7456a96a8a92c07b90cefc86ac905e9f64edc084e2","id":126399118,"location_subtype":"","month":"2025-02"},{"category":"other-theft","location_type":"Force","location":{"latitude":"51.485106","street":{"id":1705308,"name":"On or near Suffolk Place"},"longitude":"0.116019"},"context":"","outcome_status":{"category":"Investigation complete; no suspect identified","date":"2025-02"},"persistent_id":"f6aafde9a3de3197d6284b470261cd090522fba63ad4ed516d88587b2e00f75b","id":126409931,"location_subtype":"","month":"2025-02"},{"category":"other-theft","location_type":"Force","location":{"latitude":"51.484454","street":{"id":1704503,"name":"On or near Gatling Road"},"longitude":"0.103746"},"context":"","outcome_status":{"category":"Investigation complete; no suspect identified","date":"2025-06"},"persistent_id":"37d1a232e96a4131ddc1437ce65295d75f76235623bb4d2c1f28f4987a2fdee6","id":126399030,"location_subtype":"","month":"2025-02"},{"category":"other-theft","location_type":"Force","location":{"latitude":"51.484547","street":{"id":1704009,"name":"On or near Saunders Road"},"longitude":"0.096563"},"context":"","outcome_status":{"category":"Investigation complete; no suspect identified","date":"2025-02"},"persistent_id":"a4802b0306c71c54809dd35675760bcd4bb292c02b04d0898bd9dfca118a3028","id":126408916,"location_subtype":"","month":"2025-02"},{"category":"other-theft","location_type":"Force","location":{"latitude":"51.498224","street":{"id":1705456,"name":"On or near Ampleforth Road"},"longitude":"0.117620"},"context":"","outcome_status":{"category":"Investigation complete; no suspect identified","date":"2025-02"},"persistent_id":"020b041ced645f77a5e2e4364548baff4b470653f58fab2fde3db2a8858e6300","id":126408446,"location_subtype":"","month":"2025-02"},{"category":"other-theft","location_type":"Force","location":{"latitude":"51.502961","street":{"id":1705600,"name":"On or near Byron Close"},"longitude":"0.119252"},"context":"","outcome_status":{"category":"Investigation complete; no suspect identified","date":"2025-02"},"persistent_id":"f735dbce5812e11f617900e650ec7f4ffb861cb514b936abc434933e5e0b7af4","id":126393996,"location_subtype":"","month":"2025-02"},{"category":"other-theft","location_type":"Force","location":{"latitude":"51.498757","street":{"id":1706000,"name":"On or near Hartslock Drive"},"longitude":"0.125944"},"context":"","outcome_status":{"category":"Unable to prosecute suspect","date":"2025-03"},"persistent_id":"3f6dea05aec42c07eabaf25198e8735dc7bce1f5e40c3cc9866c2368e58ecea3","id":126408883,"location_subtype":"","month":"2025-02"},{"category":"possession-of-weapons","location_type":"Force","location":{"latitude":"51.494493","street":{"id":1705393,"name":"On or near Throwley Close"},"longitude":"0.117606"},"context":"","outcome_status":{"category":"Status update unavailable","date":"2025-06"},"persistent_id":"2c0c009eaa9311107e0fee6c479aa8a66860c1cb6c89cab3fe564675715c4f6d","id":126417197,"location_subtype":"","month":"2025-02"},{"category":"possession-of-weapons","location_type":"Force","location":{"latitude":"51.488369","street":{"id":1705528,"name":"On or near Congress Road"},"longitude":"0.118575"},"context":"","outcome_status":{"category":"Unable to prosecute suspect","date":"2025-02"},"persistent_id":"646d4d1a720d8de134e488173aa761b1fa5d616a455ee193927fea9e7ecc99e3","id":126425259,"location_subtype":"","month":"2025-02"},{"category":"public-order","location_type":"Force","location":{"latitude":"51.494441","street":{"id":1706274,"name":"On or near Yarnton Way"},"longitude":"0.136332"},"context":"","outcome_status":{"category":"Court result unavailable","date":"2025-10"},"persistent_id":"e199b7f7d3d140506e70a3327048ace14f6844a56989d526b1d7b51d87201d4d","id":126369316,"location_subtype":"","month":"2025-02"},{"category":"public-order","location_type":"Force","location":{"latitude":"51.485625","street":{"id":1705065,"name":"On or near Fuchsia Street"},"longitude":"0.112154"},"context":"","outcome_status":{"category":"Investigation complete; no suspect identified","date":"2025-02"},"persistent_id":"5bc37d4a0ecd0f4401d2aa0aab811b6ede596df6139b5beb17353b324979a502","id":126368559,"location_subtype":"","month":"2025-02"},{"category":"public-order","location_type":"Force","location":{"latitude":"51.485152","street":{"id":1704631,"name":"On or near Petrol Station"},"longitude":"0.104930"},"context":"","outcome_status":{"category":"Unable to prosecute suspect","date":"2025-03"},"persistent_id":"0c56d1b3bdc76a2e09dde01796c5c109fbcfb2dbec468852ecefc08476922997","id":126367535,"location_subtype":"","month":"2025-02"},{"category":"public-order","location_type":"Force","location":{"latitude":"51.494519","street":{"id":1704551,"name":"On or near Manister Road"},"longitude":"0.106673"},"context":"","outcome_status":{"category":"Unable to prosecute suspect","date":"2025-05"},"persistent_id":"1b6452c1efb19829c53e6517684900ef6442fc7127beb528fd42b55e8313db9e","id":126415605,"location_subtype":"","month":"2025-02"},{"category":"public-order","location_type":"Force","location":{"latitude":"51.491595","street":{"id":1706233,"name":"On or near Alsike Road"},"longitude":"0.130134"},"context":"","outcome_status":{"category":"Unable to prosecute suspect","date":"2025-02"},"persistent_id":"a2c595d93c5242507662e209d2dbd3c60f50c87ab6c2020d0be6a4311778f473","id":126368617,"location_subtype":"","month":"2025-02"},{"category":"public-order","location_type":"Force","location":{"latitude":"51.491974","street":{"id":1705394,"name":"On or near Felixstowe Road"},"longitude":"0.116668"},"context":"","outcome_status":{"category":"Unable to prosecute suspect","date":"2025-04"},"persistent_id":"9f5baabd846a947d0a594c367e45423b54d8c47614c207ba9ebb10a4c1983b21","id":126367344,"location_subtype":"","month":"2025-02"},{"category":"public-order","location_type":"Force","location":{"latitude":"51.494493","street":{"id":1705393,"name":"On or near Throwley Close"},"longitude":"0.117606"},"context":"","outcome_status":{"category":"Court result unavailable","date":"2025-10"},"persistent_id":"e17912d1d37827e2bdd2fc73ecc057303830120c12368bbd0d0abfa0a320b147","id":126369323,"location_subtype":"","month":"2025-02"},{"category":"public-order","location_type":"Force","location":{"latitude":"51.486441","street":{"id":1704553,"name":"On or near Unity Mews"},"longitude":"0.103780"},"context":"","outcome_status":{"category":"Court result unavailable","date":"2025-12"},"persistent_id":"99c6abb13958ee4e2aef2b17f1ca2945a01c4bf2b96ac6eb0e528263b637dbe9","id":126415773,"location_subtype":"","month":"2025-02"},{"category":"public-order","location_type":"Force","location":{"latitude":"51.495903","street":{"id":1704632,"name":"On or near Kentish Place"},"longitude":"0.106175"},"context":"","outcome_status":{"category":"Investigation complete; no suspect identified","date":"2025-02"},"persistent_id":"cfd14940000a66250fd57a9e953b868ca322da0dc5c6e3b4845e5abd2cc5c1f2","id":126370024,"location_subtype":"","month":"2025-02"},{"category":"public-order","location_type":"Force","location":{"latitude":"51.498224","street":{"id":1705456,"name":"On or near Ampleforth Road"},"longitude":"0.117620"},"context":"","outcome_status":{"category":"Unable to prosecute suspect","date":"2025-02"},"persistent_id":"1f488fb40b9c3ef652dce5efd8389ff72cc41556eac88951a10c5886f0931f8b","id":126369098,"location_subtype":"","month":"2025-02"},{"category":"public-order","location_type":"Force","location":{"latitude":"51.486992","street":{"id":1703816,"name":"On or near Plumstead High Street"},"longitude":"0.094586"},"context":"","outcome_status":{"category":"Investigation complete; no suspect identified","date":"2025-02"},"persistent_id":"739b0ad6aa19ec97a170fc1e5d47079a19924724970affd4bf2cb3e967fb4a94","id":126369067,"location_subtype":"","month":"2025-02"},{"category":"public-order","location_type":"Force","location":{"latitude":"51.490232","street":{"id":1705661,"name":"On or near Glover Close"},"longitude":"0.119973"},"context":"","outcome_status":{"category":"Unable to prosecute suspect","date":"2025-02"},"persistent_id":"4ed759acb093b7a1fb52b4a1517bf9e6d5f5a820d3ca977314cf8e8b3ecf9fe2","id":126368922,"location_subtype":"","month":"2025-02"},{"category":"public-order","location_type":"Force","location":{"latitude":"51.488347","street":{"id":1703875,"name":"On or near Bannockburn Road"},"longitude":"0.094288"},"context":"","outcome_status":{"category":"Unable to prosecute suspect","date":"2025-02"},"persistent_id":"394c988033448ffe16388c0c924439d5167d92c1784ecdad307433cd4efc2176","id":126368683,"location_subtype":"","month":"2025-02"},{"category":"public-order","location_type":"Force","location":{"latitude":"51.495991","street":{"id":1705531,"name":"On or near Supermarket"},"longitude":"0.118631"},"context":"","outcome_status":{"category":"Unable to prosecute suspect","date":"2025-02"},"persistent_id":"c18440f90f209b3aedb2699d6b74591d1d0a0a3a72a5ec28524880448798c257","id":126368519,"location_subtype":"","month":"2025-02"},{"category":"public-order","location_type":"Force","location":{"latitude":"51.485106","street":{"id":1705308,"name":"On or near Suffolk Place"},"longitude":"0.116019"},"context":"","outcome_status":{"category":"Investigation complete; no suspect identified","date":"2025-02"},"persistent_id":"43ee9c9e8c4e06417bfa8e05e06eafe244ec41c8422ade48d68cc1e892610007","id":126368018,"location_subtype":"","month":"2025-02"},{"category":"public-order","location_type":"Force","location":{"latitude":"51.500355","street":{"id":1705759,"name":"On or near Binsey Walk"},"longitude":"0.122143"},"context":"","outcome_status":{"category":"Unable to prosecute suspect","date":"2025-02"},"persistent_id":"09f9c1ebc2832644fafe84c6be8254beeae9cd1fd6051b4ac7767bccca1b7263","id":126415903,"location_subtype":"","month":"2025-02"},{"category":"public-order","location_type":"Force","location":{"latitude":"51.487978","street":{"id":1705290,"name":"On or near Owenite Street"},"longitude":"0.114798"},"context":"","outcome_status":{"category":"Investigation complete; no suspect identified","date":"2025-02"},"persistent_id":"869918a456ac3c92a041ec806e6137c7c5226b8409826a3c4b2916fbfebc6921","id":126415549,"location_subtype":"","month":"2025-02"},{"category":"public-order","location_type":"Force","location":{"latitude":"51.493935","street":{"id":1705328,"name":"On or near Boxgrove Road"},"longitude":"0.116615"},"context":"","outcome_status":{"category":"Unable to prosecute suspect","date":"2025-04"},"persistent_id":"9ebb72bfd263d913d5b549d8cb761f79d3ad3c9266fa8d0d043719b5086a471a","id":126415516,"location_subtype":"","month":"2025-02"},{"category":"public-order","location_type":"Force","location":{"latitude":"51.494453","street":{"id":1705933,"name":"On or near Lensbury Way"},"longitude":"0.124260"},"context":"","outcome_status":{"category":"Unable to prosecute suspect","date":"2025-04"},"persistent_id":"22051ce679b7eb98c8c391eff000d9d67a7e2521e935e53753439db85ba8ef8b","id":126369948,"location_subtype":"","month":"2025-02"},{"category":"public-order","location_type":"Force","location":{"latitude":"51.497548","street":{"id":1705886,"name":"On or near Mere Road"},"longitude":"0.123669"},"context":"","outcome_status":{"category":"Unable to prosecute suspect","date":"2025-02"},"persistent_id":"855f8782cf6d932a82a88ece3a1359dc286ff26ce40b949c42b0b831e532eee9","id":126369733,"location_subtype":"","month":"2025-02"},{"category":"public-order","location_type":"Force","location":{"latitude":"51.492948","street":{"id":1705746,"name":"On or near Petrol Station"},"longitude":"0.121731"},"context":"","outcome_status":{"category":"Unable to prosecute suspect","date":"2025-02"},"persistent_id":"bb1dc34ff9f47bb03f9b532a0bdd6ff8b2fb0dc29b080c56d13df8b5c33b0f5e","id":126369659,"location_subtype":"","month":"2025-02"},{"category":"public-order","location_type":"Force","location":{"latitude":"51.485152","street":{"id":1704631,"name":"On or near Petrol Station"},"longitude":"0.104930"},"context":"","outcome_status":{"category":"Unable to prosecute suspect","date":"2025-04"},"persistent_id":"ce71ce14aaf6803acff969c6ecc5a0dee980a77dbd14830cc914eb1c62e50e63","id":126369548,"location_subtype":"","month":"2025-02"},{"category":"public-order","location_type":"Force","location":{"latitude":"51.497172","street":{"id":1706261,"name":"On or near St Katherines Road"},"longitude":"0.130553"},"context":"","outcome_status":{"category":"Investigation complete; no suspect identified","date":"2025-05"},"persistent_id":"cf8f36969058a0926be083205dae694c94a02b18916bb4d5dcae0fbe5c4df740","id":126369290,"location_subtype":"","month":"2025-02"},{"category":"public-order","location_type":"Force","location":{"latitude":"51.501624","street":{"id":1705034,"name":"On or near Celandine Drive"},"longitude":"0.110602"},"context":"","outcome_status":{"category":"Investigation complete; no suspect identified","date":"2025-02"},"persistent_id":"e168270d33fcbd095319f9844f2e3bbe4799263b66005fd7cc31f19095ed31b0","id":126369244,"location_subtype":"","month":"2025-02"},{"category":"robbery","location_type":"Force","location":{"latitude":"51.486554","street":{"id":1704158,"name":"On or near Amardeep Court"},"longitude":"0.098498"},"context":"","outcome_status":{"category":"Investigation complete; no suspect identified","date":"2025-02"},"persistent_id":"0e9913af7957d3ae6512cebeb1c94986a829387c89197e8edcd03c23607db7f0","id":126382862,"location_subtype":"","month":"2025-02"},{"category":"robbery","location_type":"Force","location":{"latitude":"51.493935","street":{"id":1705328,"name":"On or near Boxgrove Road"},"longitude":"0.116615"},"context":"","outcome_status":{"category":"Unable to prosecute suspect","date":"2025-06"},"persistent_id":"29649d1e17db936861fe4fd5da69b3b0597a91a51b021956db30348e6439c603","id":126383726,"location_subtype":"","month":"2025-02"},{"category":"robbery","location_type":"Force","location":{"latitude":"51.485135","street":{"id":1704251,"name":"On or near Granite Street"},"longitude":"0.099874"},"context":"","outcome_status":{"category":"Investigation complete; no suspect identified","date":"2025-02"},"persistent_id":"f86c71cd6dcbf3c886bd0e982255e95eb866c2a0dc0691feb48c1c115355233f","id":126383983,"location_subtype":"","month":"2025-02"},{"category":"robbery","location_type":"Force","location":{"latitude":"51.494825","street":{"id":1705646,"name":"On or near Harrow Manorway"},"longitude":"0.121122"},"context":"","outcome_status":{"category":"Unable to prosecute suspect","date":"2025-02"},"persistent_id":"4118de0466ce45095053e60cb90f46efe57f211fe38b21647b8bfd8be6f56f37","id":126384122,"location_subtype":"","month":"2025-02"},{"category":"robbery","location_type":"Force","location":{"latitude":"51.497550","street":{"id":1705911,"name":"On or near Southmere Drive"},"longitude":"0.124073"},"context":"","outcome_status":{"category":"Investigation complete; no suspect identified","date":"2025-06"},"persistent_id":"fb41e88d47c44c6aa6783c4fbe11d96cdf17a549f89476281ce26365961d4177","id":126384457,"location_subtype":"","month":"2025-02"},{"category":"robbery","location_type":"Force","location":{"latitude":"51.497681","street":{"id":1705224,"name":"On or near Mountjoy Close"},"longitude":"0.113835"},"context":"","outcome_status":{"category":"Investigation complete; no suspect identified","date":"2025-05"},"persistent_id":"389090c113762a7b5c167b7a85210fc4f33035ec2259bc8fd39b93b722cd9950","id":126383375,"location_subtype":"","month":"2025-02"},{"category":"robbery","location_type":"Force","location":{"latitude":"51.497548","street":{"id":1705886,"name":"On or near Mere Road"},"longitude":"0.123669"},"context":"","outcome_status":{"category":"Status update unavailable","date":"2025-06"},"persistent_id":"d1bbdaa35a6e73eb6085703fa399599f00adac61cb3fd7eb22e873cfd9c72d6b","id":126383157,"location_subtype":"","month":"2025-02"},{"category":"robbery","location_type":"Force","location":{"latitude":"51.486588","street":{"id":1704341,"name":"On or near Camrose Street"},"longitude":"0.102605"},"context":"","outcome_status":{"category":"Investigation complete; no suspect identified","date":"2025-03"},"persistent_id":"5d08270e5af6952f1568f6586ee5e82963e954f2281451c60a243b06cb1697ae","id":126383306,"location_subtype":"","month":"2025-02"},{"category":"robbery","location_type":"Force","location":{"latitude":"51.495980","street":{"id":1705220,"name":"On or near Peterstone Road"},"longitude":"0.114405"},"context":"","outcome_status":{"category":"Investigation complete; no suspect identified","date":"2025-02"},"persistent_id":"a822e3b188d914abff9346f3888511b679fbb2a09b70a82dc01177b1207c78f7","id":126384542,"location_subtype":"","month":"2025-02"},{"category":"robbery","location_type":"Force","location":{"latitude":"51.488925","street":{"id":1704764,"name":"On or near Blithdale Road"},"longitude":"0.107654"},"context":"","outcome_status":{"category":"Status update unavailable","date":"2025-06"},"persistent_id":"81b679227f59a5e733f88a9aede3689803acce791c8770b42dcdfc92c5e77693","id":126384743,"location_subtype":"","month":"2025-02"},{"category":"robbery","location_type":"Force","location":{"latitude":"51.490828","street":{"id":1705786,"name":"On or near Gayton Road"},"longitude":"0.121859"},"context":"","outcome_status":{"category":"Unable to prosecute suspect","date":"2025-03"},"persistent_id":"45fa51a5fae21f1badf54b14812360d88376bbc5f161353bd068b79ec18d7bce","id":126383088,"location_subtype":"","month":"2025-02"},{"category":"robbery","location_type":"Force","location":{"latitude":"51.487886","street":{"id":1704113,"name":"On or near Benares Road"},"longitude":"0.097926"},"context":"","outcome_status":{"category":"Awaiting court outcome","date":"2025-11"},"persistent_id":"ab83ac3838d4ca128adf61b3041cbefc7fbcee6ff7480bc3fb98b5f636c8d539","id":126382501,"location_subtype":"","month":"2025-02"},{"category":"shoplifting","location_type":"Force","location":{"latitude":"51.495991","street":{"id":1705531,"name":"On or near Supermarket"},"longitude":"0.118631"},"context":"","outcome_status":{"category":"Unable to prosecute suspect","date":"2025-03"},"persistent_id":"1a4674aeafa9db319db74a07f78921742fe3d8153ceed64ec1fc71b46ccf5cc0","id":126400672,"location_subtype":"","month":"2025-02"},{"category":"shoplifting","location_type":"Force","location":{"latitude":"51.494580","street":{"id":1705214,"name":"On or near Edington Road"},"longitude":"0.114729"},"context":"","outcome_status":{"category":"Investigation complete; no suspect identified","date":"2025-02"},"persistent_id":"02ebce1e961f3bc9f4c37e650fa4d4641cd986a48e9ec47527ead263cc0a3074","id":126400083,"location_subtype":"","month":"2025-02"},{"category":"shoplifting","location_type":"Force","location":{"latitude":"51.487743","street":{"id":1705236,"name":"On or near Mcleod Road"},"longitude":"0.114412"},"context":"","outcome_status":{"category":"Unable to prosecute suspect","date":"2025-03"},"persistent_id":"90e576fdb9750778ffdee560e908cee3a9caa7bad12537f8e879d4dd8a42d18b","id":126401728,"location_subtype":"","month":"2025-02"},{"category":"shoplifting","location_type":"Force","location":{"latitude":"51.492948","street":{"id":1705746,"name":"On or near Petrol Station"},"longitude":"0.121731"},"context":"","outcome_status":{"category":"Unable to prosecute suspect","date":"2025-03"},"persistent_id":"3cc6fcfc156a3e49a7ffe4e21c0832c41987b539a972c4549497a81dc9b0c9be","id":126402823,"location_subtype":"","month":"2025-02"},{"category":"shoplifting","location_type":"Force","location":{"latitude":"51.492948","street":{"id":1705746,"name":"On or near Petrol Station"},"longitude":"0.121731"},"context":"","outcome_status":{"category":"Unable to prosecute suspect","date":"2025-03"},"persistent_id":"85d1c6506f031112e2379ee27e6754384be411281df56659d600087815e0ca0e","id":126403088,"location_subtype":"","month":"2025-02"},{"category":"shoplifting","location_type":"Force","location":{"latitude":"51.492948","street":{"id":1705746,"name":"On or near Petrol Station"},"longitude":"0.121731"},"context":"","outcome_status":{"category":"Unable to prosecute suspect","date":"2025-02"},"persistent_id":"4db5c93a22a269c55d64958a3d5aaec404b74f092be94e78f2776ddb4e33b4ed","id":126404169,"location_subtype":"","month":"2025-02"},{"category":"shoplifting","location_type":"Force","location":{"latitude":"51.490459","street":{"id":1705684,"name":"On or near Wilton Road"},"longitude":"0.121337"},"context":"","outcome_status":{"category":"Court result unavailable","date":"2025-10"},"persistent_id":"117b5898056e0bade6b24816385cc426a4b8f4d3c33bd0a9c8de3d25c120771c","id":126400942,"location_subtype":"","month":"2025-02"},{"category":"theft-from-the-person","location_type":"Force","location":{"latitude":"51.491690","street":{"id":1705697,"name":"On or near Chantry Close"},"longitude":"0.120415"},"context":"","outcome_status":{"category":"Investigation complete; no suspect identified","date":"2025-02"},"persistent_id":"4f7dd2b4e267512d91763928ede89709d608f0da636295614dfb3fe4d1179a19","id":126392964,"location_subtype":"","month":"2025-02"},{"category":"theft-from-the-person","location_type":"Force","location":{"latitude":"51.490828","street":{"id":1705786,"name":"On or near Gayton Road"},"longitude":"0.121859"},"context":"","outcome_status":{"category":"Investigation complete; no suspect identified","date":"2025-02"},"persistent_id":"9972978bea661b6ec2dfb100ea93927b2e5c01a07f6f13e18e4a8cc51dbb485e","id":126389322,"location_subtype":"","month":"2025-02"},{"category":"theft-from-the-person","location_type":"Force","location":{"latitude":"51.484454","street":{"id":1704503,"name":"On or near Gatling Road"},"longitude":"0.103746"},"context":"","outcome_status":{"category":"Unable to prosecute suspect","date":"2025-02"},"persistent_id":"ef0823d1dfaa223d71abde7509fbd50546a87b936470c8059e3f492cdc0f1ea7","id":126387981,"location_subtype":"","month":"2025-02"},{"category":"theft-from-the-person","location_type":"Force","location":{"latitude":"51.488531","street":{"id":1705617,"name":"On or near Crumpsall Street"},"longitude":"0.119577"},"context":"","outcome_status":{"category":"Investigation complete; no suspect identified","date":"2025-02"},"persistent_id":"ec08a96132f938ecfe7e684ffeedc4229b65696f79edbda64154eaab52e12741","id":126388429,"location_subtype":"","month":"2025-02"},{"category":"theft-from-the-person","location_type":"Force","location":{"latitude":"51.490519","street":{"id":1706071,"name":"On or near Bright Close"},"longitude":"0.129465"},"context":"","outcome_status":{"category":"Unable to prosecute suspect","date":"2025-02"},"persistent_id":"bf500291ab40d041be97e76d3ed80accd4c8a8f33e20d4df41abfc5a8549c52c","id":126385813,"location_subtype":"","month":"2025-02"},{"category":"theft-from-the-person","location_type":"Force","location":{"latitude":"51.486531","street":{"id":1703981,"name":"On or near Police Station"},"longitude":"0.095761"},"context":"","outcome_status":{"category":"Investigation complete; no suspect identified","date":"2025-02"},"persistent_id":"d59b3e08edc36530d2929ed1628e5e2a7e6e5230edae40e5d158ee7d2b80fc5e","id":126389462,"location_subtype":"","month":"2025-02"},{"category":"vehicle-crime","location_type":"Force","location":{"latitude":"51.488692","street":{"id":1705674,"name":"On or near Conference Road"},"longitude":"0.120593"},"context":"","outcome_status":{"category":"Investigation complete; no suspect identified","date":"2025-02"},"persistent_id":"39c94f5f06094a1136a1d2b742c839d6926476cecdbd0cce674998245ada8d8d","id":126398156,"location_subtype":"","month":"2025-02"},{"category":"vehicle-crime","location_type":"Force","location":{"latitude":"51.494580","street":{"id":1705214,"name":"On or near Edington Road"},"longitude":"0.114729"},"context":"","outcome_status":{"category":"Unable to prosecute suspect","date":"2025-03"},"persistent_id":"4032a95025e816be8c17a3f21e1c33c01821c3595b25d70c9767638cce548f64","id":126406273,"location_subtype":"","month":"2025-02"},{"category":"vehicle-crime","location_type":"Force","location":{"latitude":"51.488925","street":{"id":1704764,"name":"On or near Blithdale Road"},"longitude":"0.107654"},"context":"","outcome_status":{"category":"Investigation complete; no suspect identified","date":"2025-03"},"persistent_id":"d712a02d737875021f2c782bdaa66fad2de7293cffdd46c82bc21c0c7b5eb56e","id":126406264,"location_subtype":"","month":"2025-02"},{"category":"vehicle-crime","location_type":"Force","location":{"latitude":"51.483328","street":{"id":1704343,"name":"On or near Glendown Road"},"longitude":"0.102844"},"context":"","outcome_status":{"category":"Investigation complete; no suspect identified","date":"2025-02"},"persistent_id":"edb4a0d753f616092c1d9d7f7df07667cfcf673c3068559c32849ef6e8580c1a","id":126398037,"location_subtype":"","month":"2025-02"},{"category":"vehicle-crime","location_type":"Force","location":{"latitude":"51.491974","street":{"id":1705394,"name":"On or near Felixstowe Road"},"longitude":"0.116668"},"context":"","outcome_status":{"category":"Investigation complete; no suspect identified","date":"2025-02"},"persistent_id":"c4cb9c297391388349791521c7b8c4af3b8b6a8643ffee174b200aaa5399aa67","id":126406901,"location_subtype":"","month":"2025-02"},{"category":"vehicle-crime","location_type":"Force","location":{"latitude":"51.497550","street":{"id":1705911,"name":"On or near Southmere Drive"},"longitude":"0.124073"},"context":"","outcome_status":{"category":"Investigation complete; no suspect identified","date":"2025-02"},"persistent_id":"61b7ce5627b94ae3fc50c12190360675a8f97d2c0600c5103fd62fba820527dd","id":126406628,"location_subtype":"","month":"2025-02"},{"category":"vehicle-crime","location_type":"Force","location":{"latitude":"51.492931","street":{"id":1706292,"name":"On or near Middle Way"},"longitude":"0.131810"},"context":"","outcome_status":{"category":"Investigation complete; no suspect identified","date":"2025-02"},"persistent_id":"ee30ac4a920feffef8d22b9ff05122d56c52392f4d495f1261da2edb61fa9f05","id":126408085,"location_subtype":"","month":"2025-02"},{"category":"vehicle-crime","location_type":"Force","location":{"latitude":"51.490773","street":{"id":1706024,"name":"On or near Fendyke Road"},"longitude":"0.125846"},"context":"","outcome_status":{"category":"Investigation complete; no suspect identified","date":"2025-02"},"persistent_id":"0f9cd8ec10d0faebc9c1983ee0c74f3fc47d21896358e0c79b61497dc3688eb1","id":126407973,"location_subtype":"","month":"2025-02"},{"category":"vehicle-crime","location_type":"Force","location":{"latitude":"51.487463","street":{"id":1705100,"name":"On or near Openshaw Road"},"longitude":"0.111965"},"context":"","outcome_status":{"category":"Investigation complete; no suspect identified","date":"2025-02"},"persistent_id":"dc79e4f62974d88416ed9548cbb8d202814ad756680f08a651aa61116b9ea895","id":126407574,"location_subtype":"","month":"2025-02"},{"category":"vehicle-crime","location_type":"Force","location":{"latitude":"51.487961","street":{"id":1705350,"name":"On or near Chancelot Road"},"longitude":"0.115748"},"context":"","outcome_status":{"category":"Investigation complete; no suspect identified","date":"2025-02"},"persistent_id":"854610098aa354ce251ce3d239b200d4ce6f87116df86dceef07d4b394304411","id":126398781,"location_subtype":"","month":"2025-02"},{"category":"vehicle-crime","location_type":"Force","location":{"latitude":"51.486277","street":{"id":1705291,"name":"On or near Willrose Crescent"},"longitude":"0.115886"},"context":"","outcome_status":{"category":"Investigation complete; no suspect identified","date":"2025-02"},"persistent_id":"548d4a74576cefaf219742fc03d1c62d33665b03a2d57c6693537d315bc642d2","id":126398080,"location_subtype":"","month":"2025-02"},{"category":"vehicle-crime","location_type":"Force","location":{"latitude":"51.490773","street":{"id":1706024,"name":"On or near Fendyke Road"},"longitude":"0.125846"},"context":"","outcome_status":{"category":"Investigation complete; no suspect identified","date":"2025-03"},"persistent_id":"641859dc26cf0dc50c8a8d6cd2b08d8363af3e8a7a4eefe20f442a6da3a74de1","id":126407125,"location_subtype":"","month":"2025-02"},{"category":"vehicle-crime","location_type":"Force","location":{"latitude":"51.490715","street":{"id":1706422,"name":"On or near Blakemore Way"},"longitude":"0.135020"},"context":"","outcome_status":{"category":"Investigation complete; no suspect identified","date":"2025-02"},"persistent_id":"16e0cfd68aa28513e09c20fcd7f9c12ab289ee3c8e4889e8d7ba5470aee6046b","id":126406989,"location_subtype":"","month":"2025-02"},{"category":"vehicle-crime","location_type":"Force","location":{"latitude":"51.493736","street":{"id":1704834,"name":"On or near Finchale Road"},"longitude":"0.108207"},"context":"","outcome_status":{"category":"Investigation complete; no suspect identified","date":"2025-02"},"persistent_id":"e8f188155dd583e468eca2024709032093bae472eac513e32a9bfcc46f81d783","id":126406344,"location_subtype":"","month":"2025-02"},{"category":"vehicle-crime","location_type":"Force","location":{"latitude":"51.484530","street":{"id":1704831,"name":"On or near Bevan Road"},"longitude":"0.110058"},"context":"","outcome_status":{"category":"Investigation complete; no suspect identified","date":"2025-02"},"persistent_id":"441145b6a99e458e49027c57f985b40ce77ba89b8b4e69d86f57731ab2fc8eac","id":126407766,"location_subtype":"","month":"2025-02"},{"category":"vehicle-crime","location_type":"Force","location":{"latitude":"51.491410","street":{"id":1705030,"name":"On or near Brimpsfield Close"},"longitude":"0.111514"},"context":"","outcome_status":{"category":"Investigation complete; no suspect identified","date":"2025-02"},"persistent_id":"400b725bb2ff7f30b9585506980c1dd12c6d51619316b09254190e3935d5de02","id":126370709,"location_subtype":"","month":"2025-02"},{"category":"vehicle-crime","location_type":"Force","location":{"latitude":"51.487916","street":{"id":1704580,"name":"On or near Manton Road"},"longitude":"0.104251"},"context":"","outcome_status":{"category":"Investigation complete; no suspect identified","date":"2025-02"},"persistent_id":"82b28a83dd97e6489c944b98a79bbf6a63d2ba6ffa05cca677a36f243d71a0a0","id":126406629,"location_subtype":"","month":"2025-02"},{"category":"vehicle-crime","location_type":"Force","location":{"latitude":"51.486588","street":{"id":1704341,"name":"On or near Camrose Street"},"longitude":"0.102605"},"context":"","outcome_status":{"category":"Investigation complete; no suspect identified","date":"2025-02"},"persistent_id":"6c77cf0d70bd73011add83bf48a5668645a981036ae0b075177db8aff237fd0f","id":126397858,"location_subtype":"","month":"2025-02"},{"category":"vehicle-crime","location_type":"Force","location":{"latitude":"51.496851","street":{"id":1705725,"name":"On or near Tavy Bridge"},"longitude":"0.122960"},"context":"","outcome_status":{"category":"Investigation complete; no suspect identified","date":"2025-10"},"persistent_id":"b2b58cf10b1250993f05fe9bf85d70e46b4f0801e31d238416dc7ec094e4cd91","id":126370349,"location_subtype":"","month":"2025-02"},{"category":"vehicle-crime","location_type":"Force","location":{"latitude":"51.490828","street":{"id":1705786,"name":"On or near Gayton Road"},"longitude":"0.121859"},"context":"","outcome_status":{"category":"Investigation complete; no suspect identified","date":"2025-02"},"persistent_id":"afa04ad8ec0f77c878cfd2dc6ad7e047b795acb4a58205c553bdcd92010e9348","id":126395423,"location_subtype":"","month":"2025-02"},{"category":"vehicle-crime","location_type":"Force","location":{"latitude":"51.491690","street":{"id":1705697,"name":"On or near Chantry Close"},"longitude":"0.120415"},"context":"","outcome_status":{"category":"Investigation complete; no suspect identified","date":"2025-02"},"persistent_id":"2cff6626f3e485e2a811f8d409400efe673189ba0df36ec902227580ad265cfd","id":126396995,"location_subtype":"","month":"2025-02"},{"category":"vehicle-crime","location_type":"Force","location":{"latitude":"51.493935","street":{"id":1705328,"name":"On or near Boxgrove Road"},"longitude":"0.116615"},"context":"","outcome_status":{"category":"Investigation complete; no suspect identified","date":"2025-02"},"persistent_id":"788a3a9f20a612d48d507b5c94ddc347baaa74e7c6341300481f8bb6b7c054f7","id":126406859,"location_subtype":"","month":"2025-02"},{"category":"vehicle-crime","location_type":"Force","location":{"latitude":"51.495980","street":{"id":1705220,"name":"On or near Peterstone Road"},"longitude":"0.114405"},"context":"","outcome_status":{"category":"Awaiting court outcome","date":"2025-08"},"persistent_id":"95a9013f98cd93a57ef81a296cd73248781a300fdf34ff3e2b0541487c46cb89","id":126406849,"location_subtype":"","month":"2025-02"},{"category":"vehicle-crime","location_type":"Force","location":{"latitude":"51.487743","street":{"id":1705236,"name":"On or near Mcleod Road"},"longitude":"0.114412"},"context":"","outcome_status":{"category":"Investigation complete; no suspect identified","date":"2025-02"},"persistent_id":"b0b3e4d3c1b637b0bc830933b692155a67fe40030b758bc369d44dcd50b63a69","id":126398082,"location_subtype":"","month":"2025-02"},{"category":"vehicle-crime","location_type":"Force","location":{"latitude":"51.495877","street":{"id":1705970,"name":"On or near Wolvercote Road"},"longitude":"0.126069"},"context":"","outcome_status":{"category":"Investigation complete; no suspect identified","date":"2025-02"},"persistent_id":"f14a6d4650be9e1ad51e964b066a96f7cb5a5635aa55e7bcd5462209cb43a8fc","id":126395570,"location_subtype":"","month":"2025-02"},{"category":"vehicle-crime","location_type":"Force","location":{"latitude":"51.488584","street":{"id":1704002,"name":"On or near Brookdene Road"},"longitude":"0.096618"},"context":"","outcome_status":{"category":"Investigation complete; no suspect identified","date":"2025-02"},"persistent_id":"c526842a9409de6873afbe4a4dedb08d3ce3c17102382b534f0e8cf658d1c52e","id":126395866,"location_subtype":"","month":"2025-02"},{"category":"vehicle-crime","location_type":"Force","location":{"latitude":"51.495877","street":{"id":1705970,"name":"On or near Wolvercote Road"},"longitude":"0.126069"},"context":"","outcome_status":{"category":"Investigation complete; no suspect identified","date":"2025-02"},"persistent_id":"054e2c26d1eb31aa2d417c82ad05366373de7a9a8ee45cf66494f13a0fb1b375","id":126397165,"location_subtype":"","month":"2025-02"},{"category":"vehicle-crime","location_type":"Force","location":{"latitude":"51.497943","street":{"id":1705433,"name":"On or near Tickford Close"},"longitude":"0.116743"},"context":"","outcome_status":{"category":"Investigation complete; no suspect identified","date":"2025-03"},"persistent_id":"23be60036d951f83b549e184b813af1b5843c92bb7b87f0d2f606269a0d0bf97","id":126397575,"location_subtype":"","month":"2025-02"},{"category":"vehicle-crime","location_type":"Force","location":{"latitude":"51.495556","street":{"id":1706247,"name":"On or near Kale Road"},"longitude":"0.131400"},"context":"","outcome_status":{"category":"Investigation complete; no suspect identified","date":"2025-04"},"persistent_id":"78f508fc52e8d28f0658fbd6a94aa89b775c7740d23ec5720a91e24e56b21db2","id":126407067,"location_subtype":"","month":"2025-02"},{"category":"vehicle-crime","location_type":"Force","location":{"latitude":"51.485152","street":{"id":1704631,"name":"On or near Petrol Station"},"longitude":"0.104930"},"context":"","outcome_status":{"category":"Investigation complete; no suspect identified","date":"2025-02"},"persistent_id":"ebdf7755238fdf984cc3f10bee0405447411d0971b85175331d6efbcc26eb197","id":126396701,"location_subtype":"","month":"2025-02"},{"category":"vehicle-crime","location_type":"Force","location":{"latitude":"51.498757","street":{"id":1706000,"name":"On or near Hartslock Drive"},"longitude":"0.125944"},"context":"","outcome_status":{"category":"Unable to prosecute suspect","date":"2025-03"},"persistent_id":"ca3cf9acac8d10d55212e7136f197c0ed38f1bbb9cf3091e4c75c8cd95ef9c0f","id":126370152,"location_subtype":"","month":"2025-02"},{"category":"vehicle-crime","location_type":"Force","location":{"latitude":"51.480383","street":{"id":1706202,"name":"On or near Amberley Road"},"longitude":"0.129021"},"context":"","outcome_status":{"category":"Investigation complete; no suspect identified","date":"2025-02"},"persistent_id":"7b5b19b19979a9a5f712f83eec3989775b15736ecdbfa4b6dca45d419c21411d","id":126397360,"location_subtype":"","month":"2025-02"},{"category":"vehicle-crime","location_type":"Force","location":{"latitude":"51.502961","street":{"id":1705600,"name":"On or near Byron Close"},"longitude":"0.119252"},"context":"","outcome_status":{"category":"Investigation complete; no suspect identified","date":"2025-02"},"persistent_id":"462d835cd612e8d19d9f616a3871498185fedbebd308e9b9e5a52a01cfdaf516","id":126370141,"location_subtype":"","month":"2025-02"},{"category":"vehicle-crime","location_type":"Force","location":{"latitude":"51.486403","street":{"id":1705183,"name":"On or near Dahlia Road"},"longitude":"0.112896"},"context":"","outcome_status":{"category":"Investigation complete; no suspect identified","date":"2025-02"},"persistent_id":"70c06bdbb99bd7e96a18fa2be7cd465109f484539d482e3d14ba3bd15652b4e1","id":126370397,"location_subtype":"","month":"2025-02"},{"category":"vehicle-crime","location_type":"Force","location":{"latitude":"51.478658","street":{"id":1706088,"name":"On or near Heath Avenue"},"longitude":"0.126954"},"context":"","outcome_status":{"category":"Investigation complete; no suspect identified","date":"2025-02"},"persistent_id":"347b7af458df0d0cda2f9618fcac1dab3899c9e81f2a86b112917be1b9c82e9c","id":126370782,"location_subtype":"","month":"2025-02"},{"category":"vehicle-crime","location_type":"Force","location":{"latitude":"51.490005","street":{"id":1705188,"name":"On or near Bostall Manorway"},"longitude":"0.113609"},"context":"","outcome_status":{"category":"Investigation complete; no suspect identified","date":"2025-02"},"persistent_id":"1145e99d262fbdfa6d15c245f92d3eda4fafce70215ee24ddd05db7b6dbe79a0","id":126370906,"location_subtype":"","month":"2025-02"},{"category":"vehicle-crime","location_type":"Force","location":{"latitude":"51.495780","street":{"id":1704929,"name":"On or near Devenish Road"},"longitude":"0.109021"},"context":"","outcome_status":{"category":"Unable to prosecute suspect","date":"2025-02"},