[{"category":"anti-social-behaviour","location_type":"Force","location":{"latitude":"51.459997","street":{"id":1684522,"name":"On or near Gylcote Close"},"longitude":"-0.089718"},"context":"","outcome_status":null,"persistent_id":"","id":129451045,"location_subtype":"","month":"2025-06"},{"category":"anti-social-behaviour","location_type":"Force","location":{"latitude":"51.461009","street":{"id":1681607,"name":"On or near Corry Drive"},"longitude":"-0.107238"},"context":"","outcome_status":null,"persistent_id":"","id":129449145,"location_subtype":"","month":"2025-06"},{"category":"anti-social-behaviour","location_type":"Force","location":{"latitude":"51.455904","street":{"id":1681230,"name":"On or near Spenser Road"},"longitude":"-0.107982"},"context":"","outcome_status":null,"persistent_id":"","id":129449158,"location_subtype":"","month":"2025-06"},{"category":"anti-social-behaviour","location_type":"Force","location":{"latitude":"51.461269","street":{"id":1682404,"name":"On or near Walt Whitman Close"},"longitude":"-0.102736"},"context":"","outcome_status":null,"persistent_id":"","id":129449505,"location_subtype":"","month":"2025-06"},{"category":"anti-social-behaviour","location_type":"Force","location":{"latitude":"51.459730","street":{"id":1679158,"name":"On or near Acre Lane"},"longitude":"-0.122219"},"context":"","outcome_status":null,"persistent_id":"","id":129449529,"location_subtype":"","month":"2025-06"},{"category":"anti-social-behaviour","location_type":"Force","location":{"latitude":"51.451185","street":{"id":1680356,"name":"On or near A204"},"longitude":"-0.113128"},"context":"","outcome_status":null,"persistent_id":"","id":129449577,"location_subtype":"","month":"2025-06"},{"category":"anti-social-behaviour","location_type":"Force","location":{"latitude":"51.461601","street":{"id":1680298,"name":"On or near Nightclub"},"longitude":"-0.114944"},"context":"","outcome_status":null,"persistent_id":"","id":129450005,"location_subtype":"","month":"2025-06"},{"category":"anti-social-behaviour","location_type":"Force","location":{"latitude":"51.464965","street":{"id":1679961,"name":"On or near Gateley Road"},"longitude":"-0.117239"},"context":"","outcome_status":null,"persistent_id":"","id":129450010,"location_subtype":"","month":"2025-06"},{"category":"anti-social-behaviour","location_type":"Force","location":{"latitude":"51.463294","street":{"id":1680422,"name":"On or near Shopping Area"},"longitude":"-0.115091"},"context":"","outcome_status":null,"persistent_id":"","id":129450200,"location_subtype":"","month":"2025-06"},{"category":"anti-social-behaviour","location_type":"Force","location":{"latitude":"51.463056","street":{"id":1681045,"name":"On or near Valentia Place"},"longitude":"-0.109788"},"context":"","outcome_status":null,"persistent_id":"","id":129450264,"location_subtype":"","month":"2025-06"},{"category":"anti-social-behaviour","location_type":"Force","location":{"latitude":"51.454622","street":{"id":1679557,"name":"On or near St Saviour's Road"},"longitude":"-0.120486"},"context":"","outcome_status":null,"persistent_id":"","id":129450766,"location_subtype":"","month":"2025-06"},{"category":"anti-social-behaviour","location_type":"Force","location":{"latitude":"51.463056","street":{"id":1681045,"name":"On or near Valentia Place"},"longitude":"-0.109788"},"context":"","outcome_status":null,"persistent_id":"","id":129450972,"location_subtype":"","month":"2025-06"},{"category":"anti-social-behaviour","location_type":"Force","location":{"latitude":"51.464595","street":{"id":1681475,"name":"On or near Millbrook Road"},"longitude":"-0.107133"},"context":"","outcome_status":null,"persistent_id":"","id":129462147,"location_subtype":"","month":"2025-06"},{"category":"anti-social-behaviour","location_type":"Force","location":{"latitude":"51.465994","street":{"id":1680317,"name":"On or near Stockwell Park Walk"},"longitude":"-0.115267"},"context":"","outcome_status":null,"persistent_id":"","id":129462307,"location_subtype":"","month":"2025-06"},{"category":"anti-social-behaviour","location_type":"Force","location":{"latitude":"51.453248","street":{"id":1679442,"name":"On or near Brixton Hill"},"longitude":"-0.120643"},"context":"","outcome_status":null,"persistent_id":"","id":129462428,"location_subtype":"","month":"2025-06"},{"category":"anti-social-behaviour","location_type":"Force","location":{"latitude":"51.453099","street":{"id":1682364,"name":"On or near Rymer Street"},"longitude":"-0.103550"},"context":"","outcome_status":null,"persistent_id":"","id":129462847,"location_subtype":"","month":"2025-06"},{"category":"anti-social-behaviour","location_type":"Force","location":{"latitude":"51.461957","street":{"id":1679386,"name":"On or near Allardyce Street"},"longitude":"-0.120904"},"context":"","outcome_status":null,"persistent_id":"","id":129463409,"location_subtype":"","month":"2025-06"},{"category":"anti-social-behaviour","location_type":"Force","location":{"latitude":"51.463056","street":{"id":1681045,"name":"On or near Valentia Place"},"longitude":"-0.109788"},"context":"","outcome_status":null,"persistent_id":"","id":129463582,"location_subtype":"","month":"2025-06"},{"category":"anti-social-behaviour","location_type":"Force","location":{"latitude":"51.462606","street":{"id":1680438,"name":"On or near Brixton"},"longitude":"-0.114788"},"context":"","outcome_status":null,"persistent_id":"","id":129464315,"location_subtype":"","month":"2025-06"},{"category":"anti-social-behaviour","location_type":"Force","location":{"latitude":"51.462207","street":{"id":1680511,"name":"On or near Electric Avenue"},"longitude":"-0.114041"},"context":"","outcome_status":null,"persistent_id":"","id":129464762,"location_subtype":"","month":"2025-06"},{"category":"anti-social-behaviour","location_type":"Force","location":{"latitude":"51.462778","street":{"id":1681596,"name":"On or near Tilia Walk"},"longitude":"-0.106503"},"context":"","outcome_status":null,"persistent_id":"","id":129464822,"location_subtype":"","month":"2025-06"},{"category":"anti-social-behaviour","location_type":"Force","location":{"latitude":"51.463056","street":{"id":1681045,"name":"On or near Valentia Place"},"longitude":"-0.109788"},"context":"","outcome_status":null,"persistent_id":"","id":129464857,"location_subtype":"","month":"2025-06"},{"category":"anti-social-behaviour","location_type":"Force","location":{"latitude":"51.460946","street":{"id":1679699,"name":"On or near Trinity Gardens"},"longitude":"-0.118988"},"context":"","outcome_status":null,"persistent_id":"","id":129465301,"location_subtype":"","month":"2025-06"},{"category":"anti-social-behaviour","location_type":"Force","location":{"latitude":"51.451105","street":{"id":1679694,"name":"On or near Endymion Road"},"longitude":"-0.119349"},"context":"","outcome_status":null,"persistent_id":"","id":129465371,"location_subtype":"","month":"2025-06"},{"category":"anti-social-behaviour","location_type":"Force","location":{"latitude":"51.460050","street":{"id":1680609,"name":"On or near Kellett Road"},"longitude":"-0.113022"},"context":"","outcome_status":null,"persistent_id":"","id":129465391,"location_subtype":"","month":"2025-06"},{"category":"anti-social-behaviour","location_type":"Force","location":{"latitude":"51.460038","street":{"id":1679862,"name":"On or near Porden Road"},"longitude":"-0.117873"},"context":"","outcome_status":null,"persistent_id":"","id":129465604,"location_subtype":"","month":"2025-06"},{"category":"anti-social-behaviour","location_type":"Force","location":{"latitude":"51.448278","street":{"id":1680204,"name":"On or near Craignair Road"},"longitude":"-0.115795"},"context":"","outcome_status":null,"persistent_id":"","id":129465618,"location_subtype":"","month":"2025-06"},{"category":"anti-social-behaviour","location_type":"Force","location":{"latitude":"51.453527","street":{"id":1681827,"name":"On or near Dulwich Road"},"longitude":"-0.106080"},"context":"","outcome_status":null,"persistent_id":"","id":129465822,"location_subtype":"","month":"2025-06"},{"category":"anti-social-behaviour","location_type":"Force","location":{"latitude":"51.462234","street":{"id":1680615,"name":"On or near Atlantic Road"},"longitude":"-0.112356"},"context":"","outcome_status":null,"persistent_id":"","id":129465974,"location_subtype":"","month":"2025-06"},{"category":"anti-social-behaviour","location_type":"Force","location":{"latitude":"51.455904","street":{"id":1681230,"name":"On or near Spenser Road"},"longitude":"-0.107982"},"context":"","outcome_status":null,"persistent_id":"","id":129465977,"location_subtype":"","month":"2025-06"},{"category":"anti-social-behaviour","location_type":"Force","location":{"latitude":"51.461392","street":{"id":1680859,"name":"On or near Vining Street"},"longitude":"-0.112002"},"context":"","outcome_status":null,"persistent_id":"","id":129466334,"location_subtype":"","month":"2025-06"},{"category":"anti-social-behaviour","location_type":"Force","location":{"latitude":"51.463294","street":{"id":1680422,"name":"On or near Shopping Area"},"longitude":"-0.115091"},"context":"","outcome_status":null,"persistent_id":"","id":129457999,"location_subtype":"","month":"2025-06"},{"category":"anti-social-behaviour","location_type":"Force","location":{"latitude":"51.455805","street":{"id":1680200,"name":"On or near Crownstone Road"},"longitude":"-0.115241"},"context":"","outcome_status":null,"persistent_id":"","id":129452464,"location_subtype":"","month":"2025-06"},{"category":"anti-social-behaviour","location_type":"Force","location":{"latitude":"51.460966","street":{"id":1680211,"name":"On or near Rushcroft Road"},"longitude":"-0.114035"},"context":"","outcome_status":null,"persistent_id":"","id":129452491,"location_subtype":"","month":"2025-06"},{"category":"anti-social-behaviour","location_type":"Force","location":{"latitude":"51.469238","street":{"id":1682953,"name":"On or near Geoffrey Close"},"longitude":"-0.098950"},"context":"","outcome_status":null,"persistent_id":"","id":129456088,"location_subtype":"","month":"2025-06"},{"category":"anti-social-behaviour","location_type":"Force","location":{"latitude":"51.453890","street":{"id":1680749,"name":"On or near Arlingford Road"},"longitude":"-0.112470"},"context":"","outcome_status":null,"persistent_id":"","id":129457769,"location_subtype":"","month":"2025-06"},{"category":"anti-social-behaviour","location_type":"Force","location":{"latitude":"51.460946","street":{"id":1679699,"name":"On or near Trinity Gardens"},"longitude":"-0.118988"},"context":"","outcome_status":null,"persistent_id":"","id":129457247,"location_subtype":"","month":"2025-06"},{"category":"anti-social-behaviour","location_type":"Force","location":{"latitude":"51.456318","street":{"id":1684272,"name":"On or near Red Post Hill"},"longitude":"-0.090793"},"context":"","outcome_status":null,"persistent_id":"","id":129456655,"location_subtype":"","month":"2025-06"},{"category":"anti-social-behaviour","location_type":"Force","location":{"latitude":"51.463056","street":{"id":1681045,"name":"On or near Valentia Place"},"longitude":"-0.109788"},"context":"","outcome_status":null,"persistent_id":"","id":129462793,"location_subtype":"","month":"2025-06"},{"category":"anti-social-behaviour","location_type":"Force","location":{"latitude":"51.451306","street":{"id":1679241,"name":"On or near Tudor Close"},"longitude":"-0.121212"},"context":"","outcome_status":null,"persistent_id":"","id":129453235,"location_subtype":"","month":"2025-06"},{"category":"anti-social-behaviour","location_type":"Force","location":{"latitude":"51.460966","street":{"id":1680211,"name":"On or near Rushcroft Road"},"longitude":"-0.114035"},"context":"","outcome_status":null,"persistent_id":"","id":129453241,"location_subtype":"","month":"2025-06"},{"category":"anti-social-behaviour","location_type":"Force","location":{"latitude":"51.462915","street":{"id":1685906,"name":"On or near Quorn Road"},"longitude":"-0.080123"},"context":"","outcome_status":null,"persistent_id":"","id":129463305,"location_subtype":"","month":"2025-06"},{"category":"anti-social-behaviour","location_type":"Force","location":{"latitude":"51.447260","street":{"id":1680740,"name":"On or near Papworth Way"},"longitude":"-0.112311"},"context":"","outcome_status":null,"persistent_id":"","id":129463637,"location_subtype":"","month":"2025-06"},{"category":"anti-social-behaviour","location_type":"Force","location":{"latitude":"51.462778","street":{"id":1681596,"name":"On or near Tilia Walk"},"longitude":"-0.106503"},"context":"","outcome_status":null,"persistent_id":"","id":129447475,"location_subtype":"","month":"2025-06"},{"category":"anti-social-behaviour","location_type":"Force","location":{"latitude":"51.461850","street":{"id":1680013,"name":"On or near Brighton Terrace"},"longitude":"-0.117021"},"context":"","outcome_status":null,"persistent_id":"","id":129447617,"location_subtype":"","month":"2025-06"},{"category":"anti-social-behaviour","location_type":"Force","location":{"latitude":"51.461850","street":{"id":1680013,"name":"On or near Brighton Terrace"},"longitude":"-0.117021"},"context":"","outcome_status":null,"persistent_id":"","id":129447633,"location_subtype":"","month":"2025-06"},{"category":"anti-social-behaviour","location_type":"Force","location":{"latitude":"51.461601","street":{"id":1680298,"name":"On or near Nightclub"},"longitude":"-0.114944"},"context":"","outcome_status":null,"persistent_id":"","id":129447720,"location_subtype":"","month":"2025-06"},{"category":"anti-social-behaviour","location_type":"Force","location":{"latitude":"51.452407","street":{"id":1680011,"name":"On or near Helix Road"},"longitude":"-0.116431"},"context":"","outcome_status":null,"persistent_id":"","id":129454249,"location_subtype":"","month":"2025-06"},{"category":"anti-social-behaviour","location_type":"Force","location":{"latitude":"51.461392","street":{"id":1680859,"name":"On or near Vining Street"},"longitude":"-0.112002"},"context":"","outcome_status":null,"persistent_id":"","id":129454268,"location_subtype":"","month":"2025-06"},{"category":"anti-social-behaviour","location_type":"Force","location":{"latitude":"51.459525","street":{"id":1680737,"name":"On or near Mervan Road"},"longitude":"-0.112770"},"context":"","outcome_status":null,"persistent_id":"","id":129448072,"location_subtype":"","month":"2025-06"},{"category":"anti-social-behaviour","location_type":"Force","location":{"latitude":"51.460946","street":{"id":1679699,"name":"On or near Trinity Gardens"},"longitude":"-0.118988"},"context":"","outcome_status":null,"persistent_id":"","id":129448152,"location_subtype":"","month":"2025-06"},{"category":"anti-social-behaviour","location_type":"Force","location":{"latitude":"51.469238","street":{"id":1682953,"name":"On or near Geoffrey Close"},"longitude":"-0.098950"},"context":"","outcome_status":null,"persistent_id":"","id":129448876,"location_subtype":"","month":"2025-06"},{"category":"anti-social-behaviour","location_type":"Force","location":{"latitude":"51.461850","street":{"id":1680013,"name":"On or near Brighton Terrace"},"longitude":"-0.117021"},"context":"","outcome_status":null,"persistent_id":"","id":129458652,"location_subtype":"","month":"2025-06"},{"category":"anti-social-behaviour","location_type":"Force","location":{"latitude":"51.465994","street":{"id":1680317,"name":"On or near Stockwell Park Walk"},"longitude":"-0.115267"},"context":"","outcome_status":null,"persistent_id":"","id":129454469,"location_subtype":"","month":"2025-06"},{"category":"anti-social-behaviour","location_type":"Force","location":{"latitude":"51.469487","street":{"id":1682834,"name":"On or near Redan Terrace"},"longitude":"-0.100970"},"context":"","outcome_status":null,"persistent_id":"","id":129455050,"location_subtype":"","month":"2025-06"},{"category":"anti-social-behaviour","location_type":"Force","location":{"latitude":"51.463294","street":{"id":1680422,"name":"On or near Shopping Area"},"longitude":"-0.115091"},"context":"","outcome_status":null,"persistent_id":"","id":129456974,"location_subtype":"","month":"2025-06"},{"category":"anti-social-behaviour","location_type":"Force","location":{"latitude":"51.462489","street":{"id":1680100,"name":"On or near Tunstall Road"},"longitude":"-0.117067"},"context":"","outcome_status":null,"persistent_id":"","id":129458719,"location_subtype":"","month":"2025-06"},{"category":"anti-social-behaviour","location_type":"Force","location":{"latitude":"51.468634","street":{"id":1684051,"name":"On or near Bessemer Road"},"longitude":"-0.093849"},"context":"","outcome_status":null,"persistent_id":"","id":129457117,"location_subtype":"","month":"2025-06"},{"category":"anti-social-behaviour","location_type":"Force","location":{"latitude":"51.465994","street":{"id":1680317,"name":"On or near Stockwell Park Walk"},"longitude":"-0.115267"},"context":"","outcome_status":null,"persistent_id":"","id":129457129,"location_subtype":"","month":"2025-06"},{"category":"anti-social-behaviour","location_type":"Force","location":{"latitude":"51.461850","street":{"id":1680013,"name":"On or near Brighton Terrace"},"longitude":"-0.117021"},"context":"","outcome_status":null,"persistent_id":"","id":129445565,"location_subtype":"","month":"2025-06"},{"category":"anti-social-behaviour","location_type":"Force","location":{"latitude":"51.460946","street":{"id":1679699,"name":"On or near Trinity Gardens"},"longitude":"-0.118988"},"context":"","outcome_status":null,"persistent_id":"","id":129445833,"location_subtype":"","month":"2025-06"},{"category":"anti-social-behaviour","location_type":"Force","location":{"latitude":"51.463056","street":{"id":1681045,"name":"On or near Valentia Place"},"longitude":"-0.109788"},"context":"","outcome_status":null,"persistent_id":"","id":129445940,"location_subtype":"","month":"2025-06"},{"category":"anti-social-behaviour","location_type":"Force","location":{"latitude":"51.455878","street":{"id":1679600,"name":"On or near Trent Road"},"longitude":"-0.120304"},"context":"","outcome_status":null,"persistent_id":"","id":129446078,"location_subtype":"","month":"2025-06"},{"category":"anti-social-behaviour","location_type":"Force","location":{"latitude":"51.462066","street":{"id":1682987,"name":"On or near Poplar Road"},"longitude":"-0.099781"},"context":"","outcome_status":null,"persistent_id":"","id":129453457,"location_subtype":"","month":"2025-06"},{"category":"anti-social-behaviour","location_type":"Force","location":{"latitude":"51.460038","street":{"id":1679862,"name":"On or near Porden Road"},"longitude":"-0.117873"},"context":"","outcome_status":null,"persistent_id":"","id":129446117,"location_subtype":"","month":"2025-06"},{"category":"anti-social-behaviour","location_type":"Force","location":{"latitude":"51.461392","street":{"id":1680859,"name":"On or near Vining Street"},"longitude":"-0.112002"},"context":"","outcome_status":null,"persistent_id":"","id":129446203,"location_subtype":"","month":"2025-06"},{"category":"anti-social-behaviour","location_type":"Force","location":{"latitude":"51.457271","street":{"id":1679851,"name":"On or near Park/open Space"},"longitude":"-0.117692"},"context":"","outcome_status":null,"persistent_id":"","id":129446224,"location_subtype":"","month":"2025-06"},{"category":"anti-social-behaviour","location_type":"Force","location":{"latitude":"51.467267","street":{"id":1680762,"name":"On or near Villa Road"},"longitude":"-0.111644"},"context":"","outcome_status":null,"persistent_id":"","id":129453693,"location_subtype":"","month":"2025-06"},{"category":"anti-social-behaviour","location_type":"Force","location":{"latitude":"51.462489","street":{"id":1680100,"name":"On or near Tunstall Road"},"longitude":"-0.117067"},"context":"","outcome_status":null,"persistent_id":"","id":129453698,"location_subtype":"","month":"2025-06"},{"category":"anti-social-behaviour","location_type":"Force","location":{"latitude":"51.458864","street":{"id":1686031,"name":"On or near A2214"},"longitude":"-0.079818"},"context":"","outcome_status":null,"persistent_id":"","id":129453718,"location_subtype":"","month":"2025-06"},{"category":"anti-social-behaviour","location_type":"Force","location":{"latitude":"51.447857","street":{"id":1680771,"name":"On or near Petrol Station"},"longitude":"-0.112517"},"context":"","outcome_status":null,"persistent_id":"","id":129446631,"location_subtype":"","month":"2025-06"},{"category":"anti-social-behaviour","location_type":"Force","location":{"latitude":"51.448035","street":{"id":1683077,"name":"On or near Hawarden Grove"},"longitude":"-0.099600"},"context":"","outcome_status":null,"persistent_id":"","id":129446671,"location_subtype":"","month":"2025-06"},{"category":"anti-social-behaviour","location_type":"Force","location":{"latitude":"51.463056","street":{"id":1681045,"name":"On or near Valentia Place"},"longitude":"-0.109788"},"context":"","outcome_status":null,"persistent_id":"","id":129446731,"location_subtype":"","month":"2025-06"},{"category":"anti-social-behaviour","location_type":"Force","location":{"latitude":"51.448992","street":{"id":1680760,"name":"On or near Charles Haller Street"},"longitude":"-0.112643"},"context":"","outcome_status":null,"persistent_id":"","id":129446892,"location_subtype":"","month":"2025-06"},{"category":"anti-social-behaviour","location_type":"Force","location":{"latitude":"51.455904","street":{"id":1681230,"name":"On or near Spenser Road"},"longitude":"-0.107982"},"context":"","outcome_status":null,"persistent_id":"","id":129446916,"location_subtype":"","month":"2025-06"},{"category":"anti-social-behaviour","location_type":"Force","location":{"latitude":"51.463056","street":{"id":1681045,"name":"On or near Valentia Place"},"longitude":"-0.109788"},"context":"","outcome_status":null,"persistent_id":"","id":129447082,"location_subtype":"","month":"2025-06"},{"category":"anti-social-behaviour","location_type":"Force","location":{"latitude":"51.460966","street":{"id":1680211,"name":"On or near Rushcroft Road"},"longitude":"-0.114035"},"context":"","outcome_status":null,"persistent_id":"","id":129447184,"location_subtype":"","month":"2025-06"},{"category":"anti-social-behaviour","location_type":"Force","location":{"latitude":"51.461162","street":{"id":1685615,"name":"On or near St Francis Road"},"longitude":"-0.082313"},"context":"","outcome_status":null,"persistent_id":"","id":129447352,"location_subtype":"","month":"2025-06"},{"category":"anti-social-behaviour","location_type":"Force","location":{"latitude":"51.464454","street":{"id":1681083,"name":"On or near Gresham Road"},"longitude":"-0.110076"},"context":"","outcome_status":null,"persistent_id":"","id":129445701,"location_subtype":"","month":"2025-06"},{"category":"anti-social-behaviour","location_type":"Force","location":{"latitude":"51.459665","street":{"id":1684551,"name":"On or near Gylcote Close"},"longitude":"-0.089271"},"context":"","outcome_status":null,"persistent_id":"","id":129445603,"location_subtype":"","month":"2025-06"},{"category":"anti-social-behaviour","location_type":"Force","location":{"latitude":"51.463942","street":{"id":1680501,"name":"On or near Further/higher Educational Building"},"longitude":"-0.113999"},"context":"","outcome_status":null,"persistent_id":"","id":129445709,"location_subtype":"","month":"2025-06"},{"category":"anti-social-behaviour","location_type":"Force","location":{"latitude":"51.447116","street":{"id":1684930,"name":"On or near Woodyard Lane"},"longitude":"-0.085118"},"context":"","outcome_status":null,"persistent_id":"","id":129445710,"location_subtype":"","month":"2025-06"},{"category":"anti-social-behaviour","location_type":"Force","location":{"latitude":"51.451306","street":{"id":1679241,"name":"On or near Tudor Close"},"longitude":"-0.121212"},"context":"","outcome_status":null,"persistent_id":"","id":129453353,"location_subtype":"","month":"2025-06"},{"category":"anti-social-behaviour","location_type":"Force","location":{"latitude":"51.463294","street":{"id":1680422,"name":"On or near Shopping Area"},"longitude":"-0.115091"},"context":"","outcome_status":null,"persistent_id":"","id":129453367,"location_subtype":"","month":"2025-06"},{"category":"anti-social-behaviour","location_type":"Force","location":{"latitude":"51.450363","street":{"id":1679402,"name":"On or near Somers Road"},"longitude":"-0.120704"},"context":"","outcome_status":null,"persistent_id":"","id":129458285,"location_subtype":"","month":"2025-06"},{"category":"anti-social-behaviour","location_type":"Force","location":{"latitude":"51.455293","street":{"id":1680444,"name":"On or near Brixton Water Lane"},"longitude":"-0.114715"},"context":"","outcome_status":null,"persistent_id":"","id":129452845,"location_subtype":"","month":"2025-06"},{"category":"anti-social-behaviour","location_type":"Force","location":{"latitude":"51.467015","street":{"id":1681604,"name":"On or near Mallams Mews"},"longitude":"-0.108271"},"context":"","outcome_status":null,"persistent_id":"","id":129452873,"location_subtype":"","month":"2025-06"},{"category":"anti-social-behaviour","location_type":"Force","location":{"latitude":"51.464190","street":{"id":1682735,"name":"On or near Petrol Station"},"longitude":"-0.101506"},"context":"","outcome_status":null,"persistent_id":"","id":129452897,"location_subtype":"","month":"2025-06"},{"category":"anti-social-behaviour","location_type":"Force","location":{"latitude":"51.457922","street":{"id":1679769,"name":"On or near Beverstone Road"},"longitude":"-0.118824"},"context":"","outcome_status":null,"persistent_id":"","id":129452924,"location_subtype":"","month":"2025-06"},{"category":"anti-social-behaviour","location_type":"Force","location":{"latitude":"51.461601","street":{"id":1680298,"name":"On or near Nightclub"},"longitude":"-0.114944"},"context":"","outcome_status":null,"persistent_id":"","id":129452931,"location_subtype":"","month":"2025-06"},{"category":"anti-social-behaviour","location_type":"Force","location":{"latitude":"51.463294","street":{"id":1680422,"name":"On or near Shopping Area"},"longitude":"-0.115091"},"context":"","outcome_status":null,"persistent_id":"","id":129444781,"location_subtype":"","month":"2025-06"},{"category":"anti-social-behaviour","location_type":"Force","location":{"latitude":"51.461392","street":{"id":1680859,"name":"On or near Vining Street"},"longitude":"-0.112002"},"context":"","outcome_status":null,"persistent_id":"","id":129444792,"location_subtype":"","month":"2025-06"},{"category":"anti-social-behaviour","location_type":"Force","location":{"latitude":"51.462606","street":{"id":1680438,"name":"On or near Brixton"},"longitude":"-0.114788"},"context":"","outcome_status":null,"persistent_id":"","id":129444801,"location_subtype":"","month":"2025-06"},{"category":"anti-social-behaviour","location_type":"Force","location":{"latitude":"51.461392","street":{"id":1680859,"name":"On or near Vining Street"},"longitude":"-0.112002"},"context":"","outcome_status":null,"persistent_id":"","id":129444802,"location_subtype":"","month":"2025-06"},{"category":"anti-social-behaviour","location_type":"Force","location":{"latitude":"51.463056","street":{"id":1681045,"name":"On or near Valentia Place"},"longitude":"-0.109788"},"context":"","outcome_status":null,"persistent_id":"","id":129458970,"location_subtype":"","month":"2025-06"},{"category":"anti-social-behaviour","location_type":"Force","location":{"latitude":"51.468659","street":{"id":1681787,"name":"On or near Loughborough Road"},"longitude":"-0.105928"},"context":"","outcome_status":null,"persistent_id":"","id":129462598,"location_subtype":"","month":"2025-06"},{"category":"anti-social-behaviour","location_type":"Force","location":{"latitude":"51.457922","street":{"id":1680529,"name":"On or near Shopping Area"},"longitude":"-0.114179"},"context":"","outcome_status":null,"persistent_id":"","id":129462609,"location_subtype":"","month":"2025-06"},{"category":"anti-social-behaviour","location_type":"Force","location":{"latitude":"51.462639","street":{"id":1684858,"name":"On or near Arnould Avenue"},"longitude":"-0.087952"},"context":"","outcome_status":null,"persistent_id":"","id":129462663,"location_subtype":"","month":"2025-06"},{"category":"anti-social-behaviour","location_type":"Force","location":{"latitude":"51.465994","street":{"id":1680317,"name":"On or near Stockwell Park Walk"},"longitude":"-0.115267"},"context":"","outcome_status":null,"persistent_id":"","id":129462697,"location_subtype":"","month":"2025-06"},{"category":"anti-social-behaviour","location_type":"Force","location":{"latitude":"51.457922","street":{"id":1679769,"name":"On or near Beverstone Road"},"longitude":"-0.118824"},"context":"","outcome_status":null,"persistent_id":"","id":129462710,"location_subtype":"","month":"2025-06"},{"category":"anti-social-behaviour","location_type":"Force","location":{"latitude":"51.458612","street":{"id":1681053,"name":"On or near Probert Road"},"longitude":"-0.111411"},"context":"","outcome_status":null,"persistent_id":"","id":129453171,"location_subtype":"","month":"2025-06"},{"category":"anti-social-behaviour","location_type":"Force","location":{"latitude":"51.464965","street":{"id":1679961,"name":"On or near Gateley Road"},"longitude":"-0.117239"},"context":"","outcome_status":null,"persistent_id":"","id":129463299,"location_subtype":"","month":"2025-06"},{"category":"anti-social-behaviour","location_type":"Force","location":{"latitude":"51.461392","street":{"id":1680859,"name":"On or near Vining Street"},"longitude":"-0.112002"},"context":"","outcome_status":null,"persistent_id":"","id":129445059,"location_subtype":"","month":"2025-06"},{"category":"anti-social-behaviour","location_type":"Force","location":{"latitude":"51.457922","street":{"id":1679769,"name":"On or near Beverstone Road"},"longitude":"-0.118824"},"context":"","outcome_status":null,"persistent_id":"","id":129463325,"location_subtype":"","month":"2025-06"},{"category":"anti-social-behaviour","location_type":"Force","location":{"latitude":"51.464595","street":{"id":1681475,"name":"On or near Millbrook Road"},"longitude":"-0.107133"},"context":"","outcome_status":null,"persistent_id":"","id":129463328,"location_subtype":"","month":"2025-06"},{"category":"anti-social-behaviour","location_type":"Force","location":{"latitude":"51.464965","street":{"id":1679961,"name":"On or near Gateley Road"},"longitude":"-0.117239"},"context":"","outcome_status":null,"persistent_id":"","id":129463567,"location_subtype":"","month":"2025-06"},{"category":"anti-social-behaviour","location_type":"Force","location":{"latitude":"51.461392","street":{"id":1680859,"name":"On or near Vining Street"},"longitude":"-0.112002"},"context":"","outcome_status":null,"persistent_id":"","id":129445302,"location_subtype":"","month":"2025-06"},{"category":"anti-social-behaviour","location_type":"Force","location":{"latitude":"51.462778","street":{"id":1681596,"name":"On or near Tilia Walk"},"longitude":"-0.106503"},"context":"","outcome_status":null,"persistent_id":"","id":129445381,"location_subtype":"","month":"2025-06"},{"category":"anti-social-behaviour","location_type":"Force","location":{"latitude":"51.454579","street":{"id":1682139,"name":"On or near Herne Place"},"longitude":"-0.104438"},"context":"","outcome_status":null,"persistent_id":"","id":129445421,"location_subtype":"","month":"2025-06"},{"category":"anti-social-behaviour","location_type":"Force","location":{"latitude":"51.460050","street":{"id":1680609,"name":"On or near Kellett Road"},"longitude":"-0.113022"},"context":"","outcome_status":null,"persistent_id":"","id":129458517,"location_subtype":"","month":"2025-06"},{"category":"anti-social-behaviour","location_type":"Force","location":{"latitude":"51.467198","street":{"id":1680321,"name":"On or near Knowle Close"},"longitude":"-0.114080"},"context":"","outcome_status":null,"persistent_id":"","id":129447576,"location_subtype":"","month":"2025-06"},{"category":"anti-social-behaviour","location_type":"Force","location":{"latitude":"51.460946","street":{"id":1679699,"name":"On or near Trinity Gardens"},"longitude":"-0.118988"},"context":"","outcome_status":null,"persistent_id":"","id":129447604,"location_subtype":"","month":"2025-06"},{"category":"anti-social-behaviour","location_type":"Force","location":{"latitude":"51.465994","street":{"id":1680317,"name":"On or near Stockwell Park Walk"},"longitude":"-0.115267"},"context":"","outcome_status":null,"persistent_id":"","id":129454166,"location_subtype":"","month":"2025-06"},{"category":"anti-social-behaviour","location_type":"Force","location":{"latitude":"51.449890","street":{"id":1679730,"name":"On or near Archbishop's Place"},"longitude":"-0.119269"},"context":"","outcome_status":null,"persistent_id":"","id":129454367,"location_subtype":"","month":"2025-06"},{"category":"anti-social-behaviour","location_type":"Force","location":{"latitude":"51.453527","street":{"id":1681827,"name":"On or near Dulwich Road"},"longitude":"-0.106080"},"context":"","outcome_status":null,"persistent_id":"","id":129458803,"location_subtype":"","month":"2025-06"},{"category":"anti-social-behaviour","location_type":"Force","location":{"latitude":"51.461392","street":{"id":1680859,"name":"On or near Vining Street"},"longitude":"-0.112002"},"context":"","outcome_status":null,"persistent_id":"","id":129448762,"location_subtype":"","month":"2025-06"},{"category":"anti-social-behaviour","location_type":"Force","location":{"latitude":"51.461522","street":{"id":1682991,"name":"On or near Oakbank Grove"},"longitude":"-0.098911"},"context":"","outcome_status":null,"persistent_id":"","id":129448839,"location_subtype":"","month":"2025-06"},{"category":"anti-social-behaviour","location_type":"Force","location":{"latitude":"51.457922","street":{"id":1680529,"name":"On or near Shopping Area"},"longitude":"-0.114179"},"context":"","outcome_status":null,"persistent_id":"","id":129449084,"location_subtype":"","month":"2025-06"},{"category":"anti-social-behaviour","location_type":"Force","location":{"latitude":"51.466231","street":{"id":1681683,"name":"On or near Swinford Gardens"},"longitude":"-0.107037"},"context":"","outcome_status":null,"persistent_id":"","id":129449114,"location_subtype":"","month":"2025-06"},{"category":"anti-social-behaviour","location_type":"Force","location":{"latitude":"51.462854","street":{"id":1679841,"name":"On or near Shannon Grove"},"longitude":"-0.117930"},"context":"","outcome_status":null,"persistent_id":"","id":129449178,"location_subtype":"","month":"2025-06"},{"category":"anti-social-behaviour","location_type":"Force","location":{"latitude":"51.450363","street":{"id":1679402,"name":"On or near Somers Road"},"longitude":"-0.120704"},"context":"","outcome_status":null,"persistent_id":"","id":129449453,"location_subtype":"","month":"2025-06"},{"category":"anti-social-behaviour","location_type":"Force","location":{"latitude":"51.456907","street":{"id":1682951,"name":"On or near Cosbycote Avenue"},"longitude":"-0.099923"},"context":"","outcome_status":null,"persistent_id":"","id":129454547,"location_subtype":"","month":"2025-06"},{"category":"anti-social-behaviour","location_type":"Force","location":{"latitude":"51.462606","street":{"id":1680438,"name":"On or near Brixton"},"longitude":"-0.114788"},"context":"","outcome_status":null,"persistent_id":"","id":129458686,"location_subtype":"","month":"2025-06"},{"category":"anti-social-behaviour","location_type":"Force","location":{"latitude":"51.443253","street":{"id":1682249,"name":"On or near Peabody Hill"},"longitude":"-0.101929"},"context":"","outcome_status":null,"persistent_id":"","id":129450157,"location_subtype":"","month":"2025-06"},{"category":"anti-social-behaviour","location_type":"Force","location":{"latitude":"51.461533","street":{"id":1681414,"name":"On or near Geneva Drive"},"longitude":"-0.109059"},"context":"","outcome_status":null,"persistent_id":"","id":129450340,"location_subtype":"","month":"2025-06"},{"category":"anti-social-behaviour","location_type":"Force","location":{"latitude":"51.453845","street":{"id":1679897,"name":"On or near Helix Gardens"},"longitude":"-0.117452"},"context":"","outcome_status":null,"persistent_id":"","id":129450599,"location_subtype":"","month":"2025-06"},{"category":"anti-social-behaviour","location_type":"Force","location":{"latitude":"51.470047","street":{"id":1682260,"name":"On or near Elam Street"},"longitude":"-0.103380"},"context":"","outcome_status":null,"persistent_id":"","id":129454666,"location_subtype":"","month":"2025-06"},{"category":"anti-social-behaviour","location_type":"Force","location":{"latitude":"51.459542","street":{"id":1685465,"name":"On or near Shaw Road"},"longitude":"-0.083389"},"context":"","outcome_status":null,"persistent_id":"","id":129454879,"location_subtype":"","month":"2025-06"},{"category":"anti-social-behaviour","location_type":"Force","location":{"latitude":"51.459730","street":{"id":1679158,"name":"On or near Acre Lane"},"longitude":"-0.122219"},"context":"","outcome_status":null,"persistent_id":"","id":129451238,"location_subtype":"","month":"2025-06"},{"category":"anti-social-behaviour","location_type":"Force","location":{"latitude":"51.460038","street":{"id":1679862,"name":"On or near Porden Road"},"longitude":"-0.117873"},"context":"","outcome_status":null,"persistent_id":"","id":129451341,"location_subtype":"","month":"2025-06"},{"category":"anti-social-behaviour","location_type":"Force","location":{"latitude":"51.464277","street":{"id":1680852,"name":"On or near Canterbury Crescent"},"longitude":"-0.111926"},"context":"","outcome_status":null,"persistent_id":"","id":129451385,"location_subtype":"","month":"2025-06"},{"category":"anti-social-behaviour","location_type":"Force","location":{"latitude":"51.460050","street":{"id":1680609,"name":"On or near Kellett Road"},"longitude":"-0.113022"},"context":"","outcome_status":null,"persistent_id":"","id":129451446,"location_subtype":"","month":"2025-06"},{"category":"anti-social-behaviour","location_type":"Force","location":{"latitude":"51.464595","street":{"id":1681475,"name":"On or near Millbrook Road"},"longitude":"-0.107133"},"context":"","outcome_status":null,"persistent_id":"","id":129451661,"location_subtype":"","month":"2025-06"},{"category":"anti-social-behaviour","location_type":"Force","location":{"latitude":"51.462234","street":{"id":1680615,"name":"On or near Atlantic Road"},"longitude":"-0.112356"},"context":"","outcome_status":null,"persistent_id":"","id":129451703,"location_subtype":"","month":"2025-06"},{"category":"anti-social-behaviour","location_type":"Force","location":{"latitude":"51.456413","street":{"id":1679375,"name":"On or near Horsford Road"},"longitude":"-0.120599"},"context":"","outcome_status":null,"persistent_id":"","id":129451706,"location_subtype":"","month":"2025-06"},{"category":"anti-social-behaviour","location_type":"Force","location":{"latitude":"51.453988","street":{"id":1682727,"name":"On or near Abbey Mansions Mews"},"longitude":"-0.101786"},"context":"","outcome_status":null,"persistent_id":"","id":129451939,"location_subtype":"","month":"2025-06"},{"category":"anti-social-behaviour","location_type":"Force","location":{"latitude":"51.464976","street":{"id":1682920,"name":"On or near Wanless Road"},"longitude":"-0.100063"},"context":"","outcome_status":null,"persistent_id":"","id":129451955,"location_subtype":"","month":"2025-06"},{"category":"anti-social-behaviour","location_type":"Force","location":{"latitude":"51.457922","street":{"id":1679769,"name":"On or near Beverstone Road"},"longitude":"-0.118824"},"context":"","outcome_status":null,"persistent_id":"","id":129452087,"location_subtype":"","month":"2025-06"},{"category":"anti-social-behaviour","location_type":"Force","location":{"latitude":"51.465653","street":{"id":1680322,"name":"On or near Sports/recreation Area"},"longitude":"-0.115132"},"context":"","outcome_status":null,"persistent_id":"","id":129452088,"location_subtype":"","month":"2025-06"},{"category":"anti-social-behaviour","location_type":"Force","location":{"latitude":"51.457991","street":{"id":1682119,"name":"On or near Criterion Mews"},"longitude":"-0.104686"},"context":"","outcome_status":null,"persistent_id":"","id":129452104,"location_subtype":"","month":"2025-06"},{"category":"anti-social-behaviour","location_type":"Force","location":{"latitude":"51.460946","street":{"id":1679699,"name":"On or near Trinity Gardens"},"longitude":"-0.118988"},"context":"","outcome_status":null,"persistent_id":"","id":129452300,"location_subtype":"","month":"2025-06"},{"category":"anti-social-behaviour","location_type":"Force","location":{"latitude":"51.463250","street":{"id":1681015,"name":"On or near Brixton Station Road"},"longitude":"-0.111220"},"context":"","outcome_status":null,"persistent_id":"","id":129452334,"location_subtype":"","month":"2025-06"},{"category":"anti-social-behaviour","location_type":"Force","location":{"latitude":"51.467800","street":{"id":1684466,"name":"On or near Denmark Hill"},"longitude":"-0.090141"},"context":"","outcome_status":null,"persistent_id":"","id":129452437,"location_subtype":"","month":"2025-06"},{"category":"anti-social-behaviour","location_type":"Force","location":{"latitude":"51.458881","street":{"id":1682199,"name":"On or near Louise Bennett Close"},"longitude":"-0.104116"},"context":"","outcome_status":null,"persistent_id":"","id":129452617,"location_subtype":"","month":"2025-06"},{"category":"anti-social-behaviour","location_type":"Force","location":{"latitude":"51.461392","street":{"id":1680859,"name":"On or near Vining Street"},"longitude":"-0.112002"},"context":"","outcome_status":null,"persistent_id":"","id":129452695,"location_subtype":"","month":"2025-06"},{"category":"anti-social-behaviour","location_type":"Force","location":{"latitude":"51.450682","street":{"id":1680835,"name":"On or near Bristowe Close"},"longitude":"-0.112588"},"context":"","outcome_status":null,"persistent_id":"","id":129453386,"location_subtype":"","month":"2025-06"},{"category":"anti-social-behaviour","location_type":"Force","location":{"latitude":"51.448278","street":{"id":1680204,"name":"On or near Craignair Road"},"longitude":"-0.115795"},"context":"","outcome_status":null,"persistent_id":"","id":129455323,"location_subtype":"","month":"2025-06"},{"category":"anti-social-behaviour","location_type":"Force","location":{"latitude":"51.464965","street":{"id":1679961,"name":"On or near Gateley Road"},"longitude":"-0.117239"},"context":"","outcome_status":null,"persistent_id":"","id":129455428,"location_subtype":"","month":"2025-06"},{"category":"anti-social-behaviour","location_type":"Force","location":{"latitude":"51.462778","street":{"id":1681596,"name":"On or near Tilia Walk"},"longitude":"-0.106503"},"context":"","outcome_status":null,"persistent_id":"","id":129455943,"location_subtype":"","month":"2025-06"},{"category":"anti-social-behaviour","location_type":"Force","location":{"latitude":"51.460966","street":{"id":1680211,"name":"On or near Rushcroft Road"},"longitude":"-0.114035"},"context":"","outcome_status":null,"persistent_id":"","id":129455982,"location_subtype":"","month":"2025-06"},{"category":"anti-social-behaviour","location_type":"Force","location":{"latitude":"51.456318","street":{"id":1684272,"name":"On or near Red Post Hill"},"longitude":"-0.090793"},"context":"","outcome_status":null,"persistent_id":"","id":129456532,"location_subtype":"","month":"2025-06"},{"category":"anti-social-behaviour","location_type":"Force","location":{"latitude":"51.456363","street":{"id":1682694,"name":"On or near Kestrel Avenue"},"longitude":"-0.100766"},"context":"","outcome_status":null,"persistent_id":"","id":129456690,"location_subtype":"","month":"2025-06"},{"category":"anti-social-behaviour","location_type":"Force","location":{"latitude":"51.467373","street":{"id":1684282,"name":"On or near Denmark Hill"},"longitude":"-0.090994"},"context":"","outcome_status":null,"persistent_id":"","id":129456766,"location_subtype":"","month":"2025-06"},{"category":"anti-social-behaviour","location_type":"Force","location":{"latitude":"51.450180","street":{"id":1680908,"name":"On or near Dudley Mews"},"longitude":"-0.112119"},"context":"","outcome_status":null,"persistent_id":"","id":129457694,"location_subtype":"","month":"2025-06"},{"category":"anti-social-behaviour","location_type":"Force","location":{"latitude":"51.453252","street":{"id":1682438,"name":"On or near Herne Hill"},"longitude":"-0.102450"},"context":"","outcome_status":null,"persistent_id":"","id":129457718,"location_subtype":"","month":"2025-06"},{"category":"anti-social-behaviour","location_type":"Force","location":{"latitude":"51.450682","street":{"id":1680835,"name":"On or near Bristowe Close"},"longitude":"-0.112588"},"context":"","outcome_status":null,"persistent_id":"","id":129457730,"location_subtype":"","month":"2025-06"},{"category":"anti-social-behaviour","location_type":"Force","location":{"latitude":"51.462606","street":{"id":1680438,"name":"On or near Brixton"},"longitude":"-0.114788"},"context":"","outcome_status":null,"persistent_id":"","id":129457755,"location_subtype":"","month":"2025-06"},{"category":"anti-social-behaviour","location_type":"Force","location":{"latitude":"51.461392","street":{"id":1680859,"name":"On or near Vining Street"},"longitude":"-0.112002"},"context":"","outcome_status":null,"persistent_id":"","id":129458011,"location_subtype":"","month":"2025-06"},{"category":"anti-social-behaviour","location_type":"Force","location":{"latitude":"51.460966","street":{"id":1680211,"name":"On or near Rushcroft Road"},"longitude":"-0.114035"},"context":"","outcome_status":null,"persistent_id":"","id":129458071,"location_subtype":"","month":"2025-06"},{"category":"anti-social-behaviour","location_type":"Force","location":{"latitude":"51.469215","street":{"id":1682224,"name":"On or near Minet Road"},"longitude":"-0.104206"},"context":"","outcome_status":null,"persistent_id":"","id":129458087,"location_subtype":"","month":"2025-06"},{"category":"anti-social-behaviour","location_type":"Force","location":{"latitude":"51.468198","street":{"id":1682287,"name":"On or near Sports/recreation Area"},"longitude":"-0.103334"},"context":"","outcome_status":null,"persistent_id":"","id":129458168,"location_subtype":"","month":"2025-06"},{"category":"anti-social-behaviour","location_type":"Force","location":{"latitude":"51.462778","street":{"id":1681596,"name":"On or near Tilia Walk"},"longitude":"-0.106503"},"context":"","outcome_status":null,"persistent_id":"","id":129458180,"location_subtype":"","month":"2025-06"},{"category":"anti-social-behaviour","location_type":"Force","location":{"latitude":"51.454980","street":{"id":1682686,"name":"On or near Oborne Close"},"longitude":"-0.101975"},"context":"","outcome_status":null,"persistent_id":"","id":129458241,"location_subtype":"","month":"2025-06"},{"category":"anti-social-behaviour","location_type":"Force","location":{"latitude":"51.461601","street":{"id":1680298,"name":"On or near Nightclub"},"longitude":"-0.114944"},"context":"","outcome_status":null,"persistent_id":"","id":129459324,"location_subtype":"","month":"2025-06"},{"category":"anti-social-behaviour","location_type":"Force","location":{"latitude":"51.452407","street":{"id":1680011,"name":"On or near Helix Road"},"longitude":"-0.116431"},"context":"","outcome_status":null,"persistent_id":"","id":129459353,"location_subtype":"","month":"2025-06"},{"category":"anti-social-behaviour","location_type":"Force","location":{"latitude":"51.460946","street":{"id":1679699,"name":"On or near Trinity Gardens"},"longitude":"-0.118988"},"context":"","outcome_status":null,"persistent_id":"","id":129459454,"location_subtype":"","month":"2025-06"},{"category":"anti-social-behaviour","location_type":"Force","location":{"latitude":"51.447260","street":{"id":1680740,"name":"On or near Papworth Way"},"longitude":"-0.112311"},"context":"","outcome_status":null,"persistent_id":"","id":129459553,"location_subtype":"","month":"2025-06"},{"category":"anti-social-behaviour","location_type":"Force","location":{"latitude":"51.447260","street":{"id":1680740,"name":"On or near Papworth Way"},"longitude":"-0.112311"},"context":"","outcome_status":null,"persistent_id":"","id":129459579,"location_subtype":"","month":"2025-06"},{"category":"anti-social-behaviour","location_type":"Force","location":{"latitude":"51.462606","street":{"id":1680438,"name":"On or near Brixton"},"longitude":"-0.114788"},"context":"","outcome_status":null,"persistent_id":"","id":129459590,"location_subtype":"","month":"2025-06"},{"category":"anti-social-behaviour","location_type":"Force","location":{"latitude":"51.461162","street":{"id":1685615,"name":"On or near St Francis Road"},"longitude":"-0.082313"},"context":"","outcome_status":null,"persistent_id":"","id":129459603,"location_subtype":"","month":"2025-06"},{"category":"anti-social-behaviour","location_type":"Force","location":{"latitude":"51.453729","street":{"id":1683058,"name":"On or near Carver Road"},"longitude":"-0.099134"},"context":"","outcome_status":null,"persistent_id":"","id":129459802,"location_subtype":"","month":"2025-06"},{"category":"anti-social-behaviour","location_type":"Force","location":{"latitude":"51.461392","street":{"id":1680859,"name":"On or near Vining Street"},"longitude":"-0.112002"},"context":"","outcome_status":null,"persistent_id":"","id":129459833,"location_subtype":"","month":"2025-06"},{"category":"anti-social-behaviour","location_type":"Force","location":{"latitude":"51.458881","street":{"id":1682199,"name":"On or near Louise Bennett Close"},"longitude":"-0.104116"},"context":"","outcome_status":null,"persistent_id":"","id":129460135,"location_subtype":"","month":"2025-06"},{"category":"anti-social-behaviour","location_type":"Force","location":{"latitude":"51.454622","street":{"id":1679557,"name":"On or near St Saviour's Road"},"longitude":"-0.120486"},"context":"","outcome_status":null,"persistent_id":"","id":129460310,"location_subtype":"","month":"2025-06"},{"category":"anti-social-behaviour","location_type":"Force","location":{"latitude":"51.464888","street":{"id":1680613,"name":"On or near Police Station"},"longitude":"-0.113038"},"context":"","outcome_status":null,"persistent_id":"","id":129460360,"location_subtype":"","month":"2025-06"},{"category":"anti-social-behaviour","location_type":"Force","location":{"latitude":"51.453095","street":{"id":1679993,"name":"On or near Arodene Road"},"longitude":"-0.117785"},"context":"","outcome_status":null,"persistent_id":"","id":129460408,"location_subtype":"","month":"2025-06"},{"category":"anti-social-behaviour","location_type":"Force","location":{"latitude":"51.449660","street":{"id":1680018,"name":"On or near Medora Road"},"longitude":"-0.116717"},"context":"","outcome_status":null,"persistent_id":"","id":129460516,"location_subtype":"","month":"2025-06"},{"category":"anti-social-behaviour","location_type":"Force","location":{"latitude":"51.453890","street":{"id":1680749,"name":"On or near Arlingford Road"},"longitude":"-0.112470"},"context":"","outcome_status":null,"persistent_id":"","id":129460602,"location_subtype":"","month":"2025-06"},{"category":"anti-social-behaviour","location_type":"Force","location":{"latitude":"51.461392","street":{"id":1680859,"name":"On or near Vining Street"},"longitude":"-0.112002"},"context":"","outcome_status":null,"persistent_id":"","id":129460624,"location_subtype":"","month":"2025-06"},{"category":"anti-social-behaviour","location_type":"Force","location":{"latitude":"51.455904","street":{"id":1681230,"name":"On or near Spenser Road"},"longitude":"-0.107982"},"context":"","outcome_status":null,"persistent_id":"","id":129460881,"location_subtype":"","month":"2025-06"},{"category":"anti-social-behaviour","location_type":"Force","location":{"latitude":"51.463294","street":{"id":1680422,"name":"On or near Shopping Area"},"longitude":"-0.115091"},"context":"","outcome_status":null,"persistent_id":"","id":129461157,"location_subtype":"","month":"2025-06"},{"category":"anti-social-behaviour","location_type":"Force","location":{"latitude":"51.453890","street":{"id":1680749,"name":"On or near Arlingford Road"},"longitude":"-0.112470"},"context":"","outcome_status":null,"persistent_id":"","id":129461212,"location_subtype":"","month":"2025-06"},{"category":"anti-social-behaviour","location_type":"Force","location":{"latitude":"51.463250","street":{"id":1681015,"name":"On or near Brixton Station Road"},"longitude":"-0.111220"},"context":"","outcome_status":null,"persistent_id":"","id":129461231,"location_subtype":"","month":"2025-06"},{"category":"anti-social-behaviour","location_type":"Force","location":{"latitude":"51.469487","street":{"id":1682834,"name":"On or near Redan Terrace"},"longitude":"-0.100970"},"context":"","outcome_status":null,"persistent_id":"","id":129461285,"location_subtype":"","month":"2025-06"},{"category":"anti-social-behaviour","location_type":"Force","location":{"latitude":"51.461601","street":{"id":1680298,"name":"On or near Nightclub"},"longitude":"-0.114944"},"context":"","outcome_status":null,"persistent_id":"","id":129461370,"location_subtype":"","month":"2025-06"},{"category":"anti-social-behaviour","location_type":"Force","location":{"latitude":"51.462606","street":{"id":1680438,"name":"On or near Brixton"},"longitude":"-0.114788"},"context":"","outcome_status":null,"persistent_id":"","id":129461374,"location_subtype":"","month":"2025-06"},{"category":"anti-social-behaviour","location_type":"Force","location":{"latitude":"51.456318","street":{"id":1684272,"name":"On or near Red Post Hill"},"longitude":"-0.090793"},"context":"","outcome_status":null,"persistent_id":"","id":129461455,"location_subtype":"","month":"2025-06"},{"category":"anti-social-behaviour","location_type":"Force","location":{"latitude":"51.465653","street":{"id":1680322,"name":"On or near Sports/recreation Area"},"longitude":"-0.115132"},"context":"","outcome_status":null,"persistent_id":"","id":129461680,"location_subtype":"","month":"2025-06"},{"category":"anti-social-behaviour","location_type":"Force","location":{"latitude":"51.459665","street":{"id":1684551,"name":"On or near Gylcote Close"},"longitude":"-0.089271"},"context":"","outcome_status":null,"persistent_id":"","id":129461980,"location_subtype":"","month":"2025-06"},{"category":"anti-social-behaviour","location_type":"Force","location":{"latitude":"51.443211","street":{"id":1681837,"name":"On or near Deerbrook Road"},"longitude":"-0.106578"},"context":"","outcome_status":null,"persistent_id":"","id":129462004,"location_subtype":"","month":"2025-06"},{"category":"anti-social-behaviour","location_type":"Force","location":{"latitude":"51.454980","street":{"id":1682686,"name":"On or near Oborne Close"},"longitude":"-0.101975"},"context":"","outcome_status":null,"persistent_id":"","id":129462220,"location_subtype":"","month":"2025-06"},{"category":"anti-social-behaviour","location_type":"Force","location":{"latitude":"51.453890","street":{"id":1680749,"name":"On or near Arlingford Road"},"longitude":"-0.112470"},"context":"","outcome_status":null,"persistent_id":"","id":129462576,"location_subtype":"","month":"2025-06"},{"category":"anti-social-behaviour","location_type":"Force","location":{"latitude":"51.469238","street":{"id":1682953,"name":"On or near Geoffrey Close"},"longitude":"-0.098950"},"context":"","outcome_status":null,"persistent_id":"","id":129462624,"location_subtype":"","month":"2025-06"},{"category":"anti-social-behaviour","location_type":"Force","location":{"latitude":"51.461313","street":{"id":1684405,"name":"On or near Basingdon Way"},"longitude":"-0.091031"},"context":"","outcome_status":null,"persistent_id":"","id":129462829,"location_subtype":"","month":"2025-06"},{"category":"anti-social-behaviour","location_type":"Force","location":{"latitude":"51.461601","street":{"id":1680298,"name":"On or near Nightclub"},"longitude":"-0.114944"},"context":"","outcome_status":null,"persistent_id":"","id":129463132,"location_subtype":"","month":"2025-06"},{"category":"anti-social-behaviour","location_type":"Force","location":{"latitude":"51.461392","street":{"id":1680859,"name":"On or near Vining Street"},"longitude":"-0.112002"},"context":"","outcome_status":null,"persistent_id":"","id":129463255,"location_subtype":"","month":"2025-06"},{"category":"anti-social-behaviour","location_type":"Force","location":{"latitude":"51.457922","street":{"id":1679769,"name":"On or near Beverstone Road"},"longitude":"-0.118824"},"context":"","outcome_status":null,"persistent_id":"","id":129463801,"location_subtype":"","month":"2025-06"},{"category":"anti-social-behaviour","location_type":"Force","location":{"latitude":"51.467342","street":{"id":1681544,"name":"On or near Angell Road"},"longitude":"-0.107926"},"context":"","outcome_status":null,"persistent_id":"","id":129463838,"location_subtype":"","month":"2025-06"},{"category":"anti-social-behaviour","location_type":"Force","location":{"latitude":"51.461392","street":{"id":1680859,"name":"On or near Vining Street"},"longitude":"-0.112002"},"context":"","outcome_status":null,"persistent_id":"","id":129464520,"location_subtype":"","month":"2025-06"},{"category":"anti-social-behaviour","location_type":"Force","location":{"latitude":"51.460050","street":{"id":1680609,"name":"On or near Kellett Road"},"longitude":"-0.113022"},"context":"","outcome_status":null,"persistent_id":"","id":129464621,"location_subtype":"","month":"2025-06"},{"category":"anti-social-behaviour","location_type":"Force","location":{"latitude":"51.463294","street":{"id":1680422,"name":"On or near Shopping Area"},"longitude":"-0.115091"},"context":"","outcome_status":null,"persistent_id":"","id":129464636,"location_subtype":"","month":"2025-06"},{"category":"anti-social-behaviour","location_type":"Force","location":{"latitude":"51.457922","street":{"id":1679769,"name":"On or near Beverstone Road"},"longitude":"-0.118824"},"context":"","outcome_status":null,"persistent_id":"","id":129464794,"location_subtype":"","month":"2025-06"},{"category":"anti-social-behaviour","location_type":"Force","location":{"latitude":"51.460573","street":{"id":1681685,"name":"On or near Clifford Drive"},"longitude":"-0.105860"},"context":"","outcome_status":null,"persistent_id":"","id":129465700,"location_subtype":"","month":"2025-06"},{"category":"anti-social-behaviour","location_type":"Force","location":{"latitude":"51.451185","street":{"id":1680356,"name":"On or near A204"},"longitude":"-0.113128"},"context":"","outcome_status":null,"persistent_id":"","id":129465830,"location_subtype":"","month":"2025-06"},{"category":"anti-social-behaviour","location_type":"Force","location":{"latitude":"51.461392","street":{"id":1680859,"name":"On or near Vining Street"},"longitude":"-0.112002"},"context":"","outcome_status":null,"persistent_id":"","id":129465919,"location_subtype":"","month":"2025-06"},{"category":"anti-social-behaviour","location_type":"Force","location":{"latitude":"51.463294","street":{"id":1680422,"name":"On or near Shopping Area"},"longitude":"-0.115091"},"context":"","outcome_status":null,"persistent_id":"","id":129465924,"location_subtype":"","month":"2025-06"},{"category":"anti-social-behaviour","location_type":"Force","location":{"latitude":"51.462234","street":{"id":1680615,"name":"On or near Atlantic Road"},"longitude":"-0.112356"},"context":"","outcome_status":null,"persistent_id":"","id":129466156,"location_subtype":"","month":"2025-06"},{"category":"anti-social-behaviour","location_type":"Force","location":{"latitude":"51.461526","street":{"id":1680490,"name":"On or near A2217"},"longitude":"-0.114213"},"context":"","outcome_status":null,"persistent_id":"","id":129466166,"location_subtype":"","month":"2025-06"},{"category":"anti-social-behaviour","location_type":"Force","location":{"latitude":"51.460946","street":{"id":1679699,"name":"On or near Trinity Gardens"},"longitude":"-0.118988"},"context":"","outcome_status":null,"persistent_id":"","id":129466362,"location_subtype":"","month":"2025-06"},{"category":"anti-social-behaviour","location_type":"Force","location":{"latitude":"51.453988","street":{"id":1682727,"name":"On or near Abbey Mansions Mews"},"longitude":"-0.101786"},"context":"","outcome_status":null,"persistent_id":"","id":129452753,"location_subtype":"","month":"2025-06"},{"category":"anti-social-behaviour","location_type":"Force","location":{"latitude":"51.462778","street":{"id":1681596,"name":"On or near Tilia Walk"},"longitude":"-0.106503"},"context":"","outcome_status":null,"persistent_id":"","id":129449128,"location_subtype":"","month":"2025-06"},{"category":"anti-social-behaviour","location_type":"Force","location":{"latitude":"51.464965","street":{"id":1679961,"name":"On or near Gateley Road"},"longitude":"-0.117239"},"context":"","outcome_status":null,"persistent_id":"","id":129447731,"location_subtype":"","month":"2025-06"},{"category":"anti-social-behaviour","location_type":"Force","location":{"latitude":"51.450470","street":{"id":1682758,"name":"On or near Croxted Mews"},"longitude":"-0.100046"},"context":"","outcome_status":null,"persistent_id":"","id":129455925,"location_subtype":"","month":"2025-06"},{"category":"anti-social-behaviour","location_type":"Force","location":{"latitude":"51.447116","street":{"id":1684930,"name":"On or near Woodyard Lane"},"longitude":"-0.085118"},"context":"","outcome_status":null,"persistent_id":"","id":129453872,"location_subtype":"","month":"2025-06"},{"category":"anti-social-behaviour","location_type":"Force","location":{"latitude":"51.463029","street":{"id":1680965,"name":"On or near Parking Area"},"longitude":"-0.111502"},"context":"","outcome_status":null,"persistent_id":"","id":129444497,"location_subtype":"","month":"2025-06"},{"category":"anti-social-behaviour","location_type":"Force","location":{"latitude":"51.461533","street":{"id":1681414,"name":"On or near Geneva Drive"},"longitude":"-0.109059"},"context":"","outcome_status":null,"persistent_id":"","id":129457090,"location_subtype":"","month":"2025-06"},{"category":"anti-social-behaviour","location_type":"Force","location":{"latitude":"51.449373","street":{"id":1684001,"name":"On or near Burbage Road"},"longitude":"-0.091759"},"context":"","outcome_status":null,"persistent_id":"","id":129455310,"location_subtype":"","month":"2025-06"},{"category":"anti-social-behaviour","location_type":"Force","location":{"latitude":"51.458612","street":{"id":1681053,"name":"On or near Probert Road"},"longitude":"-0.111411"},"context":"","outcome_status":null,"persistent_id":"","id":129458004,"location_subtype":"","month":"2025-06"},{"category":"anti-social-behaviour","location_type":"Force","location":{"latitude":"51.461850","street":{"id":1680013,"name":"On or near Brighton Terrace"},"longitude":"-0.117021"},"context":"","outcome_status":null,"persistent_id":"","id":129457103,"location_subtype":"","month":"2025-06"},{"category":"anti-social-behaviour","location_type":"Force","location":{"latitude":"51.461601","street":{"id":1680298,"name":"On or near Nightclub"},"longitude":"-0.114944"},"context":"","outcome_status":null,"persistent_id":"","id":129446612,"location_subtype":"","month":"2025-06"},{"category":"bicycle-theft","location_type":"Force","location":{"latitude":"51.463294","street":{"id":1680422,"name":"On or near Shopping Area"},"longitude":"-0.115091"},"context":"","outcome_status":{"category":"Investigation complete; no suspect identified","date":"2025-07"},"persistent_id":"aa1e87882f95d6930333123e0f7bc2793cb18a68b6c07f5fcf18ec9406e23b56","id":129488916,"location_subtype":"","month":"2025-06"},{"category":"bicycle-theft","location_type":"Force","location":{"latitude":"51.452931","street":{"id":1681977,"name":"On or near Parking Area"},"longitude":"-0.105413"},"context":"","outcome_status":{"category":"Investigation complete; no suspect identified","date":"2025-06"},"persistent_id":"a10d613798bdd1b9fa914ff02a874269ee2a34cd3c574d1bef5bf2914c3aa637","id":129550599,"location_subtype":"","month":"2025-06"},{"category":"bicycle-theft","location_type":"Force","location":{"latitude":"51.468332","street":{"id":1682124,"name":"On or near Rupert Gardens"},"longitude":"-0.104617"},"context":"","outcome_status":{"category":"Investigation complete; no suspect identified","date":"2025-06"},"persistent_id":"ee08ac8f705422cf21a1f997938a5afc3d33e9e07b971e11d6745df6eb95ebaa","id":129533614,"location_subtype":"","month":"2025-06"},{"category":"bicycle-theft","location_type":"Force","location":{"latitude":"51.454158","street":{"id":1685273,"name":"On or near Great Spilmans"},"longitude":"-0.084593"},"context":"","outcome_status":{"category":"Investigation complete; no suspect identified","date":"2025-06"},"persistent_id":"99ca2478ce2b232c5b99dbb1710e6729648e48134c2dd8906847346865573db4","id":129512566,"location_subtype":"","month":"2025-06"},{"category":"bicycle-theft","location_type":"Force","location":{"latitude":"51.457991","street":{"id":1682119,"name":"On or near Criterion Mews"},"longitude":"-0.104686"},"context":"","outcome_status":{"category":"Investigation complete; no suspect identified","date":"2025-08"},"persistent_id":"10a3bb4ee8ee3d3334213882f364ac7ecc8468ad1f24fc0a63e0dc960ccafc32","id":129518931,"location_subtype":"","month":"2025-06"},{"category":"bicycle-theft","location_type":"Force","location":{"latitude":"51.463294","street":{"id":1680422,"name":"On or near Shopping Area"},"longitude":"-0.115091"},"context":"","outcome_status":{"category":"Investigation complete; no suspect identified","date":"2025-06"},"persistent_id":"f4ffd156082849c3368c9002a844896b9b02f996c4694fcb511ea71c8d0e90d8","id":129512287,"location_subtype":"","month":"2025-06"},{"category":"bicycle-theft","location_type":"Force","location":{"latitude":"51.452931","street":{"id":1681977,"name":"On or near Parking Area"},"longitude":"-0.105413"},"context":"","outcome_status":{"category":"Investigation complete; no suspect identified","date":"2025-06"},"persistent_id":"998447b8b24ec5dccdb0e3d9cf4f921566b3661735cd6bece25dab6a6b22aafd","id":129469484,"location_subtype":"","month":"2025-06"},{"category":"bicycle-theft","location_type":"Force","location":{"latitude":"51.449890","street":{"id":1679730,"name":"On or near Archbishop's Place"},"longitude":"-0.119269"},"context":"","outcome_status":{"category":"Investigation complete; no suspect identified","date":"2025-06"},"persistent_id":"6f912b9246909a2a50accecb4331782f1a809a7e885f13292dae4ac333acbd6f","id":129529238,"location_subtype":"","month":"2025-06"},{"category":"bicycle-theft","location_type":"Force","location":{"latitude":"51.452931","street":{"id":1681977,"name":"On or near Parking Area"},"longitude":"-0.105413"},"context":"","outcome_status":{"category":"Investigation complete; no suspect identified","date":"2025-07"},"persistent_id":"a58f3398175f9ebcdeeee8b8723709f615af9a3c51485ca2463ccc30c1edfad2","id":129468516,"location_subtype":"","month":"2025-06"},{"category":"bicycle-theft","location_type":"Force","location":{"latitude":"51.455878","street":{"id":1679600,"name":"On or near Trent Road"},"longitude":"-0.120304"},"context":"","outcome_status":{"category":"Investigation complete; no suspect identified","date":"2025-06"},"persistent_id":"c4b66f7787f0962a5a702149542d27c3517b5e191138c375857a069ccc0f8f1e","id":129497657,"location_subtype":"","month":"2025-06"},{"category":"bicycle-theft","location_type":"Force","location":{"latitude":"51.454158","street":{"id":1685273,"name":"On or near Great Spilmans"},"longitude":"-0.084593"},"context":"","outcome_status":{"category":"Investigation complete; no suspect identified","date":"2025-06"},"persistent_id":"950c3ce120fc3b109e6f8f42c52da68daa240a32f37053cb3f2945e4769d3629","id":129467552,"location_subtype":"","month":"2025-06"},{"category":"bicycle-theft","location_type":"Force","location":{"latitude":"51.455029","street":{"id":1680761,"name":"On or near Arungford Mews"},"longitude":"-0.112826"},"context":"","outcome_status":{"category":"Status update unavailable","date":"2025-10"},"persistent_id":"44e007fd053937af8ccf66164c230064af62d20dd40ddff3159e9d3da9819bae","id":129077902,"location_subtype":"","month":"2025-06"},{"category":"bicycle-theft","location_type":"Force","location":{"latitude":"51.452931","street":{"id":1681977,"name":"On or near Parking Area"},"longitude":"-0.105413"},"context":"","outcome_status":{"category":"Investigation complete; no suspect identified","date":"2025-07"},"persistent_id":"733a1a4948628064907c4b78c0cf1044e2e2baf8bef4ffa919992007e2dd29d4","id":129531937,"location_subtype":"","month":"2025-06"},{"category":"bicycle-theft","location_type":"Force","location":{"latitude":"51.453527","street":{"id":1681827,"name":"On or near Dulwich Road"},"longitude":"-0.106080"},"context":"","outcome_status":{"category":"Investigation complete; no suspect identified","date":"2025-06"},"persistent_id":"35ce59aaf720d39a8aefdb0f0c251f2cd071db7992190a5634fb90f67459eaa0","id":129483379,"location_subtype":"","month":"2025-06"},{"category":"bicycle-theft","location_type":"Force","location":{"latitude":"51.452931","street":{"id":1681977,"name":"On or near Parking Area"},"longitude":"-0.105413"},"context":"","outcome_status":{"category":"Investigation complete; no suspect identified","date":"2025-06"},"persistent_id":"cc9eb0c3914dca8409a63919fffc4627d9d8430551e04cdb0859c06c4e7bf55c","id":129486874,"location_subtype":"","month":"2025-06"},{"category":"bicycle-theft","location_type":"Force","location":{"latitude":"51.462606","street":{"id":1680438,"name":"On or near Brixton"},"longitude":"-0.114788"},"context":"","outcome_status":{"category":"Investigation complete; no suspect identified","date":"2025-06"},"persistent_id":"a553ab5347c35b4efc56272c6d88e2ee1da80a4470f6b3af2009ae63a07b162b","id":129496766,"location_subtype":"","month":"2025-06"},{"category":"bicycle-theft","location_type":"Force","location":{"latitude":"51.462478","street":{"id":1680639,"name":"On or near Brixton"},"longitude":"-0.112446"},"context":"","outcome_status":{"category":"Investigation complete; no suspect identified","date":"2025-08"},"persistent_id":"b866d810f6ec6888d2d037c1b2f4298bb29f537f10c77fe20714d986e405f303","id":129499062,"location_subtype":"","month":"2025-06"},{"category":"bicycle-theft","location_type":"Force","location":{"latitude":"51.461526","street":{"id":1680490,"name":"On or near A2217"},"longitude":"-0.114213"},"context":"","outcome_status":{"category":"Unable to prosecute suspect","date":"2025-06"},"persistent_id":"27d4858dad8648d154bf6001829ae1398f6645d842f079368856110139b63281","id":129547493,"location_subtype":"","month":"2025-06"},{"category":"bicycle-theft","location_type":"Force","location":{"latitude":"51.469487","street":{"id":1682834,"name":"On or near Redan Terrace"},"longitude":"-0.100970"},"context":"","outcome_status":{"category":"Investigation complete; no suspect identified","date":"2025-07"},"persistent_id":"79d5eb69823e1abc069bfb642f59cc6cad238e0158d00b37107121bbd9653d6e","id":129494931,"location_subtype":"","month":"2025-06"},{"category":"burglary","location_type":"Force","location":{"latitude":"51.456402","street":{"id":1681330,"name":"On or near Chaucer Road"},"longitude":"-0.108710"},"context":"","outcome_status":{"category":"Investigation complete; no suspect identified","date":"2025-08"},"persistent_id":"9c896973399da555b41d075698c206cbb78763612d30dcb535192c2f6fd06878","id":129548398,"location_subtype":"","month":"2025-06"},{"category":"burglary","location_type":"Force","location":{"latitude":"51.461392","street":{"id":1680859,"name":"On or near Vining Street"},"longitude":"-0.112002"},"context":"","outcome_status":{"category":"Investigation complete; no suspect identified","date":"2025-06"},"persistent_id":"c17e250e44cba2330e9067777d1cbe068d1bd4df0b61829d443dbe8293a1e5f6","id":129481825,"location_subtype":"","month":"2025-06"},{"category":"burglary","location_type":"Force","location":{"latitude":"51.463942","street":{"id":1680501,"name":"On or near Further/higher Educational Building"},"longitude":"-0.113999"},"context":"","outcome_status":{"category":"Awaiting court outcome","date":"2025-08"},"persistent_id":"9357b7499668a6ca8ef4187720bc04f82eb2f29a80b35da06df76ad08987e3ea","id":129552443,"location_subtype":"","month":"2025-06"},{"category":"burglary","location_type":"Force","location":{"latitude":"51.468442","street":{"id":1682494,"name":"On or near Wickwood Street"},"longitude":"-0.102554"},"context":"","outcome_status":{"category":"Status update unavailable","date":"2025-10"},"persistent_id":"35c31f2438de0fc0daf021d66ac9a197c4c4b2abef4ff1b5da8341f0e52ae751","id":129531986,"location_subtype":"","month":"2025-06"},{"category":"burglary","location_type":"Force","location":{"latitude":"51.451546","street":{"id":1682974,"name":"On or near Stradella Road"},"longitude":"-0.099282"},"context":"","outcome_status":{"category":"Investigation complete; no suspect identified","date":"2025-08"},"persistent_id":"34b37100e6a2366fd54669cc6d50b64462f122d9e30d5877f6c141ea2890b131","id":129479575,"location_subtype":"","month":"2025-06"},{"category":"burglary","location_type":"Force","location":{"latitude":"51.461392","street":{"id":1680859,"name":"On or near Vining Street"},"longitude":"-0.112002"},"context":"","outcome_status":{"category":"Unable to prosecute suspect","date":"2026-01"},"persistent_id":"5f7960cc8f52e23dbb28748bc101c94573434a755e22f743773997aa7c08d3c2","id":129488537,"location_subtype":"","month":"2025-06"},{"category":"burglary","location_type":"Force","location":{"latitude":"51.442153","street":{"id":1683928,"name":"On or near Cokers Lane"},"longitude":"-0.094017"},"context":"","outcome_status":{"category":"Awaiting court outcome","date":"2026-01"},"persistent_id":"4f4c2f5ff7d070e071f9eb5ff1fb7013c2765c7fa28fd1a06c2b1a792ce63d22","id":129546309,"location_subtype":"","month":"2025-06"},{"category":"burglary","location_type":"Force","location":{"latitude":"51.449026","street":{"id":1685027,"name":"On or near Aysgarth Road"},"longitude":"-0.086448"},"context":"","outcome_status":{"category":"Unable to prosecute suspect","date":"2025-10"},"persistent_id":"c6fda72b0f95b8f5891e4585d8c4420986d65ac50d68f7674346fd6c4e65c42c","id":129488859,"location_subtype":"","month":"2025-06"},{"category":"burglary","location_type":"Force","location":{"latitude":"51.462478","street":{"id":1680639,"name":"On or near Brixton"},"longitude":"-0.112446"},"context":"","outcome_status":{"category":"Awaiting court outcome","date":"2025-08"},"persistent_id":"debbbb34268d204d64b548fe4a4e33d99b3da0f1de3cbd2c4b9a0bad11f4edc8","id":129523727,"location_subtype":"","month":"2025-06"},{"category":"burglary","location_type":"Force","location":{"latitude":"51.463448","street":{"id":1680954,"name":"On or near Parking Area"},"longitude":"-0.111802"},"context":"","outcome_status":{"category":"Court result unavailable","date":"2025-12"},"persistent_id":"12cb69ff73d27c6567054301c32adb6a71eff991a5f06cfb9d2f361a8abe4d4c","id":129517768,"location_subtype":"","month":"2025-06"},{"category":"burglary","location_type":"Force","location":{"latitude":"51.452547","street":{"id":1685426,"name":"On or near Calton Avenue"},"longitude":"-0.083451"},"context":"","outcome_status":{"category":"Investigation complete; no suspect identified","date":"2025-08"},"persistent_id":"a6f2143a6959703002c87cafaec7db4957cc23b34e8ce52019402b08ae2f6833","id":129551637,"location_subtype":"","month":"2025-06"},{"category":"burglary","location_type":"Force","location":{"latitude":"51.468108","street":{"id":1681089,"name":"On or near Peckford Place"},"longitude":"-0.110818"},"context":"","outcome_status":{"category":"Status update unavailable","date":"2025-10"},"persistent_id":"a4367fa6eb1a8300ca310512d5ac7f3620296c1a470e5480945f6b1d0a3eb9ef","id":129498962,"location_subtype":"","month":"2025-06"},{"category":"burglary","location_type":"Force","location":{"latitude":"51.461392","street":{"id":1680859,"name":"On or near Vining Street"},"longitude":"-0.112002"},"context":"","outcome_status":{"category":"Investigation complete; no suspect identified","date":"2025-08"},"persistent_id":"4e01f40a94d0ab4178579bbe8712eb4220d2a59b9ab9e78c9168072e3cabe8e4","id":129490593,"location_subtype":"","month":"2025-06"},{"category":"burglary","location_type":"Force","location":{"latitude":"51.462256","street":{"id":1680190,"name":"On or near Bernay's Grove"},"longitude":"-0.115968"},"context":"","outcome_status":{"category":"Investigation complete; no suspect identified","date":"2025-07"},"persistent_id":"8dac614c55db8794dac7e2c183a70d2ad54de7216f809196156692a3cc6adfbc","id":129510298,"location_subtype":"","month":"2025-06"},{"category":"burglary","location_type":"Force","location":{"latitude":"51.454847","street":{"id":1684172,"name":"On or near Beckwith Road"},"longitude":"-0.091588"},"context":"","outcome_status":{"category":"Investigation complete; no suspect identified","date":"2025-09"},"persistent_id":"0deaa72550a3d4799b4eed180f6dc897d7dba653efb520b7d7ba3c703adac511","id":129481840,"location_subtype":"","month":"2025-06"},{"category":"burglary","location_type":"Force","location":{"latitude":"51.457012","street":{"id":1685622,"name":"On or near Thorncombe Road"},"longitude":"-0.082041"},"context":"","outcome_status":{"category":"Investigation complete; no suspect identified","date":"2025-08"},"persistent_id":"1b20f597d2f4dad3773dadcf7a448f3283d4b902b161446248ee909600dd3a61","id":129546741,"location_subtype":"","month":"2025-06"},{"category":"burglary","location_type":"Force","location":{"latitude":"51.450525","street":{"id":1685511,"name":"On or near Druce Road"},"longitude":"-0.081334"},"context":"","outcome_status":{"category":"Investigation complete; no suspect identified","date":"2025-10"},"persistent_id":"a8dc784cb06759bff28a1d478da2f7555a0955c44783f0e28267a7b9df31fabc","id":129515912,"location_subtype":"","month":"2025-06"},{"category":"burglary","location_type":"Force","location":{"latitude":"51.442504","street":{"id":1681513,"name":"On or near Abbess Close"},"longitude":"-0.107903"},"context":"","outcome_status":{"category":"Awaiting court outcome","date":"2025-11"},"persistent_id":"71fbf0a0039b7e7cca16d245a8ae866f267592dc54ba35a70566ccd8eee2e643","id":129519922,"location_subtype":"","month":"2025-06"},{"category":"burglary","location_type":"Force","location":{"latitude":"51.462243","street":{"id":1680582,"name":"On or near Electric Lane"},"longitude":"-0.114040"},"context":"","outcome_status":{"category":"Status update unavailable","date":"2025-10"},"persistent_id":"976d1956ed3cb9271100b893e5707c7ec7c65bbed141b69dcfe26c22cb3e5bf7","id":129506263,"location_subtype":"","month":"2025-06"},{"category":"burglary","location_type":"Force","location":{"latitude":"51.465191","street":{"id":1684702,"name":"On or near Beaulieu Close"},"longitude":"-0.087874"},"context":"","outcome_status":{"category":"Investigation complete; no suspect identified","date":"2025-06"},"persistent_id":"12394f666177e0286b389b103b8da051da55ebf3771cda69b6189bef6e9a3e5b","id":129489829,"location_subtype":"","month":"2025-06"},{"category":"burglary","location_type":"Force","location":{"latitude":"51.459525","street":{"id":1680737,"name":"On or near Mervan Road"},"longitude":"-0.112770"},"context":"","outcome_status":{"category":"Investigation complete; no suspect identified","date":"2025-12"},"persistent_id":"3077a69c05602571e17e251c48c1d60069fdd57889234056bc993c061f8e1bd7","id":129549718,"location_subtype":"","month":"2025-06"},{"category":"burglary","location_type":"Force","location":{"latitude":"51.468659","street":{"id":1681787,"name":"On or near Loughborough Road"},"longitude":"-0.105928"},"context":"","outcome_status":{"category":"Investigation complete; no suspect identified","date":"2025-06"},"persistent_id":"9881b5feed176da6ca71b6af5b34175d23e46fc9893e3bb749ddbb65034ef65f","id":129472159,"location_subtype":"","month":"2025-06"},{"category":"burglary","location_type":"Force","location":{"latitude":"51.449571","street":{"id":1684759,"name":"On or near Boxall Road"},"longitude":"-0.086253"},"context":"","outcome_status":{"category":"Investigation complete; no suspect identified","date":"2025-07"},"persistent_id":"75c92b2ce423fd1f74851355cbc30d6d7e520e0229dd5d6581cdce91c7b613a7","id":129533713,"location_subtype":"","month":"2025-06"},{"category":"burglary","location_type":"Force","location":{"latitude":"51.468668","street":{"id":1682606,"name":"On or near Flaxman Road"},"longitude":"-0.101479"},"context":"","outcome_status":{"category":"Investigation complete; no suspect identified","date":"2025-07"},"persistent_id":"117fca69566cb12a82db5431d94f289242d5bcddefdc769f39527c29964382a1","id":129474850,"location_subtype":"","month":"2025-06"},{"category":"burglary","location_type":"Force","location":{"latitude":"51.445039","street":{"id":1680439,"name":"On or near Bannister Close"},"longitude":"-0.113410"},"context":"","outcome_status":{"category":"Unable to prosecute suspect","date":"2025-06"},"persistent_id":"2f0af974c10eaf2987061912eac7877fc222ce224275340994652b2d3628c2a9","id":129490417,"location_subtype":"","month":"2025-06"},{"category":"burglary","location_type":"Force","location":{"latitude":"51.454191","street":{"id":1681487,"name":"On or near Milton Road"},"longitude":"-0.107160"},"context":"","outcome_status":{"category":"Investigation complete; no suspect identified","date":"2025-06"},"persistent_id":"1f49ecf6715306f4a6fe47d064ef9dab6381a0ffec9632a40054a9cb31e7ea8a","id":129496986,"location_subtype":"","month":"2025-06"},{"category":"burglary","location_type":"Force","location":{"latitude":"51.464188","street":{"id":1680449,"name":"On or near Shopping Area"},"longitude":"-0.114795"},"context":"","outcome_status":{"category":"Awaiting court outcome","date":"2025-08"},"persistent_id":"576bb9706a399be270d551ecef6ae05b8c3808545b8976e10de9ec1fd0e1ebdf","id":129541926,"location_subtype":"","month":"2025-06"},{"category":"burglary","location_type":"Force","location":{"latitude":"51.443303","street":{"id":1683881,"name":"On or near Croxted Road"},"longitude":"-0.094487"},"context":"","outcome_status":{"category":"Awaiting court outcome","date":"2026-01"},"persistent_id":"7fb886cbbd6c5a477faf595f91dbc16cda100089da7da1f655fb917e2fd57629","id":129472505,"location_subtype":"","month":"2025-06"},{"category":"burglary","location_type":"Force","location":{"latitude":"51.463942","street":{"id":1680501,"name":"On or near Further/higher Educational Building"},"longitude":"-0.113999"},"context":"","outcome_status":{"category":"Investigation complete; no suspect identified","date":"2025-12"},"persistent_id":"814d3fa3e45d6b2c47a692699376844747616f3ec746b1334ac31eb0234c1f36","id":129508778,"location_subtype":"","month":"2025-06"},{"category":"burglary","location_type":"Force","location":{"latitude":"51.445030","street":{"id":1683437,"name":"On or near Dalkeith Road"},"longitude":"-0.096761"},"context":"","outcome_status":{"category":"Investigation complete; no suspect identified","date":"2025-07"},"persistent_id":"55052d2e8220421217a3442e7fa7f68e4eaca8200b11699a10ffd27470868d18","id":129483284,"location_subtype":"","month":"2025-06"},{"category":"burglary","location_type":"Force","location":{"latitude":"51.464557","street":{"id":1680118,"name":"On or near Bellefields Road"},"longitude":"-0.115902"},"context":"","outcome_status":{"category":"Investigation complete; no suspect identified","date":"2025-11"},"persistent_id":"79c46b4b270538313bae91987a05fc1ca34bc8eb54f27ab048f11c82287cdc78","id":129534135,"location_subtype":"","month":"2025-06"},{"category":"burglary","location_type":"Force","location":{"latitude":"51.459867","street":{"id":1683282,"name":"On or near Poplar Walk"},"longitude":"-0.097252"},"context":"","outcome_status":{"category":"Investigation complete; no suspect identified","date":"2025-08"},"persistent_id":"d46f0a446fedded1b1a4638c0d5c07f9c273951684082dcea73fbcac5659775f","id":129542845,"location_subtype":"","month":"2025-06"},{"category":"burglary","location_type":"Force","location":{"latitude":"51.455011","street":{"id":1679664,"name":"On or near Brixton Hill"},"longitude":"-0.119505"},"context":"","outcome_status":{"category":"Investigation complete; no suspect identified","date":"2025-08"},"persistent_id":"169298be12e28e1a03d8db0415fc7f66b5ef991d90ec2d28850750853d128a2b","id":129469754,"location_subtype":"","month":"2025-06"},{"category":"burglary","location_type":"Force","location":{"latitude":"51.454319","street":{"id":1683406,"name":"On or near Ruskin Walk"},"longitude":"-0.097281"},"context":"","outcome_status":{"category":"Investigation complete; no suspect identified","date":"2025-06"},"persistent_id":"b898aa4141c31363a6ca918e878934206d47ad01a3ff2d5cd23eda94e87fee5d","id":129549108,"location_subtype":"","month":"2025-06"},{"category":"burglary","location_type":"Force","location":{"latitude":"51.451185","street":{"id":1680356,"name":"On or near A204"},"longitude":"-0.113128"},"context":"","outcome_status":{"category":"Unable to prosecute suspect","date":"2025-09"},"persistent_id":"939b26f0775f330176d8c79248be6ed2be5c69ee80e1d50fe07af6db0b90266a","id":129469465,"location_subtype":"","month":"2025-06"},{"category":"burglary","location_type":"Force","location":{"latitude":"51.465610","street":{"id":1685025,"name":"On or near Maldon Close"},"longitude":"-0.085985"},"context":"","outcome_status":{"category":"Investigation complete; no suspect identified","date":"2025-08"},"persistent_id":"c40585ed8733274870e21fdfe4bad4642d6f7a2a7a61bcc04b92d531434d3c35","id":129533837,"location_subtype":"","month":"2025-06"},{"category":"burglary","location_type":"Force","location":{"latitude":"51.460050","street":{"id":1680609,"name":"On or near Kellett Road"},"longitude":"-0.113022"},"context":"","outcome_status":{"category":"Status update unavailable","date":"2025-10"},"persistent_id":"08defad22c259729e1285e8202601c50fb8e1e5e3b99d685aeb34a19100479d4","id":129503666,"location_subtype":"","month":"2025-06"},{"category":"burglary","location_type":"Force","location":{"latitude":"51.462256","street":{"id":1680190,"name":"On or near Bernay's Grove"},"longitude":"-0.115968"},"context":"","outcome_status":{"category":"Investigation complete; no suspect identified","date":"2025-06"},"persistent_id":"432951a48933ca408ea2e58f352c76fad658c0909fc9c749c061d4835878cf92","id":129468914,"location_subtype":"","month":"2025-06"},{"category":"burglary","location_type":"Force","location":{"latitude":"51.460573","street":{"id":1681685,"name":"On or near Clifford Drive"},"longitude":"-0.105860"},"context":"","outcome_status":{"category":"Investigation complete; no suspect identified","date":"2025-11"},"persistent_id":"d49e78c3f7e5266497d5a8053c0feaa33a8125562470edd9196cd1d09c38681f","id":129532585,"location_subtype":"","month":"2025-06"},{"category":"criminal-damage-arson","location_type":"Force","location":{"latitude":"51.460703","street":{"id":1679611,"name":"On or near Bucknell Close"},"longitude":"-0.119502"},"context":"","outcome_status":{"category":"Investigation complete; no suspect identified","date":"2025-07"},"persistent_id":"ab7bfbba9efd66febe05b363ce7a23791e483c3e91c2d1c2435166e2fe30989a","id":129473864,"location_subtype":"","month":"2025-06"},{"category":"criminal-damage-arson","location_type":"Force","location":{"latitude":"51.467373","street":{"id":1684282,"name":"On or near Denmark Hill"},"longitude":"-0.090994"},"context":"","outcome_status":{"category":"Unable to prosecute suspect","date":"2025-09"},"persistent_id":"62a624b18a95c0112fc1f5ded3ae83852ba1cf94295bbfcd8167f6fcc9ea1cff","id":129536362,"location_subtype":"","month":"2025-06"},{"category":"criminal-damage-arson","location_type":"Force","location":{"latitude":"51.456363","street":{"id":1682694,"name":"On or near Kestrel Avenue"},"longitude":"-0.100766"},"context":"","outcome_status":{"category":"Investigation complete; no suspect identified","date":"2025-08"},"persistent_id":"43c06c788afb5fb0039f278aa1f92058fb290050551dc9b5fcb5a7625ee24c7f","id":129495756,"location_subtype":"","month":"2025-06"},{"category":"criminal-damage-arson","location_type":"Force","location":{"latitude":"51.461850","street":{"id":1680013,"name":"On or near Brighton Terrace"},"longitude":"-0.117021"},"context":"","outcome_status":{"category":"Investigation complete; no suspect identified","date":"2025-06"},"persistent_id":"8b8d546f39ab2db6e6e9d7e65d7c24a6fb048ca7b0b358ad91c988a2af45d95b","id":129542361,"location_subtype":"","month":"2025-06"},{"category":"criminal-damage-arson","location_type":"Force","location":{"latitude":"51.458020","street":{"id":1680410,"name":"On or near Effra Road"},"longitude":"-0.114818"},"context":"","outcome_status":{"category":"Offender given penalty notice","date":"2025-06"},"persistent_id":"800e4ea669480343585961acd7312e65d6f67fd515d94ae48ce332b0ae918e6c","id":129538917,"location_subtype":"","month":"2025-06"},{"category":"criminal-damage-arson","location_type":"Force","location":{"latitude":"51.462606","street":{"id":1680438,"name":"On or near Brixton"},"longitude":"-0.114788"},"context":"","outcome_status":{"category":"Investigation complete; no suspect identified","date":"2025-07"},"persistent_id":"3ff703d79982206b6496cea8a647c01347c49481cf93e64816dc568557b768ec","id":129495647,"location_subtype":"","month":"2025-06"},{"category":"criminal-damage-arson","location_type":"Force","location":{"latitude":"51.468077","street":{"id":1683849,"name":"On or near Hospital"},"longitude":"-0.093916"},"context":"","outcome_status":{"category":"Status update unavailable","date":"2025-10"},"persistent_id":"61727b94d5c7a981875298776da1c1c8b68d4e37854eb2866351dad5f1301028","id":129543518,"location_subtype":"","month":"2025-06"},{"category":"criminal-damage-arson","location_type":"Force","location":{"latitude":"51.452931","street":{"id":1681977,"name":"On or near Parking Area"},"longitude":"-0.105413"},"context":"","outcome_status":{"category":"Awaiting court outcome","date":"2025-08"},"persistent_id":"0650958b2b0dc1ec9982f403e6955d6453d1ec15c5a1bc589d43c5e87564f3a6","id":129530479,"location_subtype":"","month":"2025-06"},{"category":"criminal-damage-arson","location_type":"Force","location":{"latitude":"51.461981","street":{"id":1681913,"name":"On or near Moorland Road"},"longitude":"-0.106190"},"context":"","outcome_status":{"category":"Investigation complete; no suspect identified","date":"2025-06"},"persistent_id":"a3e1b2f77d839a266705afdc29900539136527ef980dc612f0af7a6b4b34ef3b","id":129547010,"location_subtype":"","month":"2025-06"},{"category":"criminal-damage-arson","location_type":"Force","location":{"latitude":"51.469238","street":{"id":1682953,"name":"On or near Geoffrey Close"},"longitude":"-0.098950"},"context":"","outcome_status":{"category":"Investigation complete; no suspect identified","date":"2025-07"},"persistent_id":"fc00f0ff457b6357d85fb6c9ce90b0495914b597dc92dd52f153a31dee61cdb9","id":129535178,"location_subtype":"","month":"2025-06"},{"category":"criminal-damage-arson","location_type":"Force","location":{"latitude":"51.462778","street":{"id":1681596,"name":"On or near Tilia Walk"},"longitude":"-0.106503"},"context":"","outcome_status":{"category":"Investigation complete; no suspect identified","date":"2025-06"},"persistent_id":"5b4eaee7923c3a064068bc257d657b63b1d54d8feee8b3bda041d065d8176b9c","id":129474045,"location_subtype":"","month":"2025-06"},{"category":"criminal-damage-arson","location_type":"Force","location":{"latitude":"51.464557","street":{"id":1680118,"name":"On or near Bellefields Road"},"longitude":"-0.115902"},"context":"","outcome_status":{"category":"Investigation complete; no suspect identified","date":"2025-07"},"persistent_id":"8ea1b998260cc6ca058d90fb95b4fc86f646942fbff4cfcb4385cb3caab5cd7b","id":129532416,"location_subtype":"","month":"2025-06"},{"category":"criminal-damage-arson","location_type":"Force","location":{"latitude":"51.442153","street":{"id":1683928,"name":"On or near Cokers Lane"},"longitude":"-0.094017"},"context":"","outcome_status":{"category":"Investigation complete; no suspect identified","date":"2025-06"},"persistent_id":"29ab298bba71fe13b88c8fb1fb4d189ee9c5368b3c1d8223008e0e92a632586b","id":129467087,"location_subtype":"","month":"2025-06"},{"category":"criminal-damage-arson","location_type":"Force","location":{"latitude":"51.458020","street":{"id":1680410,"name":"On or near Effra Road"},"longitude":"-0.114818"},"context":"","outcome_status":{"category":"Awaiting court outcome","date":"2025-12"},"persistent_id":"0b79141d7090a2176f6dee13b7a2e9d2aeba6017acd7017ff3b1320603d11063","id":129489037,"location_subtype":"","month":"2025-06"},{"category":"criminal-damage-arson","location_type":"Force","location":{"latitude":"51.467373","street":{"id":1684282,"name":"On or near Denmark Hill"},"longitude":"-0.090994"},"context":"","outcome_status":{"category":"Investigation complete; no suspect identified","date":"2025-06"},"persistent_id":"ddfb52560aa52451c81a3580c79d0f633bb928d78301beb2777bfdaabf4e5ccf","id":129481168,"location_subtype":"","month":"2025-06"},{"category":"criminal-damage-arson","location_type":"Force","location":{"latitude":"51.468731","street":{"id":1681173,"name":"On or near Overton Road"},"longitude":"-0.109323"},"context":"","outcome_status":{"category":"Awaiting court outcome","date":"2025-12"},"persistent_id":"4ebd97da922ea9f53ed0e9a22d6c452b1e9d04a40f4c61a496090562a3712fba","id":129490058,"location_subtype":"","month":"2025-06"},{"category":"criminal-damage-arson","location_type":"Force","location":{"latitude":"51.459853","street":{"id":1679575,"name":"On or near Supermarket"},"longitude":"-0.119752"},"context":"","outcome_status":{"category":"Formal action is not in the public interest","date":"2025-09"},"persistent_id":"8009f3b5b8c7b452b02f9103334218d184074c3b07472c7a599b69e728121f09","id":129537390,"location_subtype":"","month":"2025-06"},{"category":"criminal-damage-arson","location_type":"Force","location":{"latitude":"51.463448","street":{"id":1680954,"name":"On or near Parking Area"},"longitude":"-0.111802"},"context":"","outcome_status":{"category":"Investigation complete; no suspect identified","date":"2025-06"},"persistent_id":"83c01670bc73d3d871e4ac356088db5ff6d094196dee3c7943e3928ab2f01bc9","id":129482846,"location_subtype":"","month":"2025-06"},{"category":"criminal-damage-arson","location_type":"Force","location":{"latitude":"51.455502","street":{"id":1679204,"name":"On or near Lambert Road"},"longitude":"-0.122652"},"context":"","outcome_status":{"category":"Unable to prosecute suspect","date":"2025-08"},"persistent_id":"710e02eba91f04397a4f2d56cfe766f8c147f88e0c9a3d0ad609a07c7df8cc55","id":129471972,"location_subtype":"","month":"2025-06"},{"category":"criminal-damage-arson","location_type":"Force","location":{"latitude":"51.464888","street":{"id":1680613,"name":"On or near Police Station"},"longitude":"-0.113038"},"context":"","outcome_status":{"category":"Court result unavailable","date":"2026-01"},"persistent_id":"1a2c26052be271e9e4b31a53f16fc9415412374623e560abc62fe4cc9408c17d","id":129545495,"location_subtype":"","month":"2025-06"},{"category":"criminal-damage-arson","location_type":"Force","location":{"latitude":"51.469215","street":{"id":1682224,"name":"On or near Minet Road"},"longitude":"-0.104206"},"context":"","outcome_status":{"category":"Investigation complete; no suspect identified","date":"2025-08"},"persistent_id":"561af52ad5406217935879eb58e32fcc6569920b30421c0a54943a513fffd1ff","id":129472613,"location_subtype":"","month":"2025-06"},{"category":"criminal-damage-arson","location_type":"Force","location":{"latitude":"51.455391","street":{"id":1682030,"name":"On or near Mumford Road"},"longitude":"-0.105182"},"context":"","outcome_status":{"category":"Investigation complete; no suspect identified","date":"2025-06"},"persistent_id":"7b37a382fa2a75fc03f780b74901b6fed70c39b5ddd0233c3189bbb60a0efa68","id":129505483,"location_subtype":"","month":"2025-06"},{"category":"criminal-damage-arson","location_type":"Force","location":{"latitude":"51.455146","street":{"id":1686242,"name":"On or near Colwell Road"},"longitude":"-0.077959"},"context":"","outcome_status":{"category":"Investigation complete; no suspect identified","date":"2025-08"},"persistent_id":"29a8c87c34ee0da2631ed566ed6401734f5af6186b63d235ccb9ee30567e7fd3","id":129522782,"location_subtype":"","month":"2025-06"},{"category":"criminal-damage-arson","location_type":"Force","location":{"latitude":"51.461526","street":{"id":1680490,"name":"On or near A2217"},"longitude":"-0.114213"},"context":"","outcome_status":{"category":"Unable to prosecute suspect","date":"2025-06"},"persistent_id":"a4ca78430019af93224dced160081b0d9a020f8df1275f38af3b295a0d8414f6","id":129535676,"location_subtype":"","month":"2025-06"},{"category":"criminal-damage-arson","location_type":"Force","location":{"latitude":"51.454622","street":{"id":1679557,"name":"On or near St Saviour's Road"},"longitude":"-0.120486"},"context":"","outcome_status":{"category":"Status update unavailable","date":"2025-10"},"persistent_id":"c933101ca6d3d500613e267e872ef2888a666d7710a22fa58de80c50348250f4","id":129475186,"location_subtype":"","month":"2025-06"},{"category":"criminal-damage-arson","location_type":"Force","location":{"latitude":"51.459998","street":{"id":1680037,"name":"On or near Nightclub"},"longitude":"-0.116895"},"context":"","outcome_status":{"category":"Unable to prosecute suspect","date":"2025-08"},"persistent_id":"93a09aaeb1f01d0b58ba7590e87aabc9b56fc0b8badb4d28e618270d8d5d247a","id":129490844,"location_subtype":"","month":"2025-06"},{"category":"criminal-damage-arson","location_type":"Force","location":{"latitude":"51.452931","street":{"id":1681977,"name":"On or near Parking Area"},"longitude":"-0.105413"},"context":"","outcome_status":{"category":"Status update unavailable","date":"2025-10"},"persistent_id":"98b57645eb36dbe89952fcb1545f7a444ee105889800ef260e0e38b357a2b2be","id":129511233,"location_subtype":"","month":"2025-06"},{"category":"criminal-damage-arson","location_type":"Force","location":{"latitude":"51.461392","street":{"id":1680859,"name":"On or near Vining Street"},"longitude":"-0.112002"},"context":"","outcome_status":{"category":"Status update unavailable","date":"2025-10"},"persistent_id":"162dddba877e17928b425fd8efc377badbf504550a359cd63aa1eb99c06ec9c5","id":129530766,"location_subtype":"","month":"2025-06"},{"category":"criminal-damage-arson","location_type":"Force","location":{"latitude":"51.453099","street":{"id":1682364,"name":"On or near Rymer Street"},"longitude":"-0.103550"},"context":"","outcome_status":{"category":"Investigation complete; no suspect identified","date":"2025-06"},"persistent_id":"bcf434023b785028e1fcdac5a0965017301c39607c9ac4091b34e9aed1b48d09","id":129509272,"location_subtype":"","month":"2025-06"},{"category":"criminal-damage-arson","location_type":"Force","location":{"latitude":"51.461601","street":{"id":1680298,"name":"On or near Nightclub"},"longitude":"-0.114944"},"context":"","outcome_status":{"category":"Investigation complete; no suspect identified","date":"2026-01"},"persistent_id":"5b36c4aa0e6e3695ab34eca2843f737b1e3284853a0bf05644c42dad1f9c834e","id":129517576,"location_subtype":"","month":"2025-06"},{"category":"criminal-damage-arson","location_type":"Force","location":{"latitude":"51.464888","street":{"id":1680613,"name":"On or near Police Station"},"longitude":"-0.113038"},"context":"","outcome_status":{"category":"Court result unavailable","date":"2026-01"},"persistent_id":"75db88a01400390ce8f89798e4ef4421ff1d6ebaf1cb43aec640a6cdeafe83c1","id":129536338,"location_subtype":"","month":"2025-06"},