[{"category":"anti-social-behaviour","location_type":"Force","location":{"latitude":"51.342118","street":{"id":1822240,"name":"On or near Downslands Road"},"longitude":"-1.990963"},"context":"","outcome_status":null,"persistent_id":"","id":133058434,"location_subtype":"","month":"2026-01"},{"category":"anti-social-behaviour","location_type":"Force","location":{"latitude":"51.349653","street":{"id":1822154,"name":"On or near Long Street"},"longitude":"-1.993188"},"context":"","outcome_status":null,"persistent_id":"","id":133061093,"location_subtype":"","month":"2026-01"},{"category":"anti-social-behaviour","location_type":"Force","location":{"latitude":"51.351091","street":{"id":1822332,"name":"On or near Longcroft Avenue"},"longitude":"-1.983495"},"context":"","outcome_status":null,"persistent_id":"","id":133060277,"location_subtype":"","month":"2026-01"},{"category":"anti-social-behaviour","location_type":"Force","location":{"latitude":"51.351020","street":{"id":1822222,"name":"On or near Sheep Street"},"longitude":"-1.991507"},"context":"","outcome_status":null,"persistent_id":"","id":133058880,"location_subtype":"","month":"2026-01"},{"category":"anti-social-behaviour","location_type":"Force","location":{"latitude":"51.349015","street":{"id":1822113,"name":"On or near Charles Morrison Close"},"longitude":"-1.995672"},"context":"","outcome_status":null,"persistent_id":"","id":133059539,"location_subtype":"","month":"2026-01"},{"category":"anti-social-behaviour","location_type":"Force","location":{"latitude":"51.339708","street":{"id":1822314,"name":"On or near The Old Farmhouse"},"longitude":"-1.985796"},"context":"","outcome_status":null,"persistent_id":"","id":133059700,"location_subtype":"","month":"2026-01"},{"category":"anti-social-behaviour","location_type":"Force","location":{"latitude":"51.347882","street":{"id":1822214,"name":"On or near Southgate Close"},"longitude":"-1.990962"},"context":"","outcome_status":null,"persistent_id":"","id":133059699,"location_subtype":"","month":"2026-01"},{"category":"anti-social-behaviour","location_type":"Force","location":{"latitude":"51.348503","street":{"id":1822134,"name":"On or near Hillworth Gardens"},"longitude":"-1.995212"},"context":"","outcome_status":null,"persistent_id":"","id":133059392,"location_subtype":"","month":"2026-01"},{"category":"anti-social-behaviour","location_type":"Force","location":{"latitude":"51.340967","street":{"id":1822213,"name":"On or near Downlands Road"},"longitude":"-1.989585"},"context":"","outcome_status":null,"persistent_id":"","id":133059244,"location_subtype":"","month":"2026-01"},{"category":"anti-social-behaviour","location_type":"Force","location":{"latitude":"51.348518","street":{"id":1822504,"name":"On or near Century Close"},"longitude":"-1.973100"},"context":"","outcome_status":null,"persistent_id":"","id":133059220,"location_subtype":"","month":"2026-01"},{"category":"anti-social-behaviour","location_type":"Force","location":{"latitude":"51.347882","street":{"id":1822214,"name":"On or near Southgate Close"},"longitude":"-1.990962"},"context":"","outcome_status":null,"persistent_id":"","id":133058726,"location_subtype":"","month":"2026-01"},{"category":"anti-social-behaviour","location_type":"Force","location":{"latitude":"51.349015","street":{"id":1822113,"name":"On or near Charles Morrison Close"},"longitude":"-1.995672"},"context":"","outcome_status":null,"persistent_id":"","id":133058715,"location_subtype":"","month":"2026-01"},{"category":"burglary","location_type":"Force","location":{"latitude":"51.349653","street":{"id":1822217,"name":"On or near Bridewell Street"},"longitude":"-1.992211"},"context":"","outcome_status":{"category":"Investigation complete; no suspect identified","date":"2026-01"},"persistent_id":"9fb2281397beeda86ff6bc1ab24df1135de0fec5324c1cc4fc1aacec73bb9978","id":133061447,"location_subtype":"","month":"2026-01"},{"category":"criminal-damage-arson","location_type":"Force","location":{"latitude":"51.349778","street":{"id":1822393,"name":"On or near Kingsley Gardens"},"longitude":"-1.979949"},"context":"","outcome_status":{"category":"Under investigation","date":"2026-01"},"persistent_id":"07f8d3581bfaa67312fbfcc695f62bbb48e0a37c8e67c01f74acc670f377baab","id":133062063,"location_subtype":"","month":"2026-01"},{"category":"criminal-damage-arson","location_type":"Force","location":{"latitude":"51.349653","street":{"id":1822217,"name":"On or near Bridewell Street"},"longitude":"-1.992211"},"context":"","outcome_status":{"category":"Investigation complete; no suspect identified","date":"2026-01"},"persistent_id":"024fb4169e64ca3c335094c62f77684153612bac71e6e5ee27bfb934c660607f","id":133059132,"location_subtype":"","month":"2026-01"},{"category":"criminal-damage-arson","location_type":"Force","location":{"latitude":"51.349364","street":{"id":1822402,"name":"On or near Owen Close"},"longitude":"-1.979260"},"context":"","outcome_status":{"category":"Under investigation","date":"2026-01"},"persistent_id":"ca0ccab0beee42d20433cc05ec79adfba405c97d35cace2193ba89aabf7a917c","id":133058591,"location_subtype":"","month":"2026-01"},{"category":"criminal-damage-arson","location_type":"Force","location":{"latitude":"51.341308","street":{"id":1822328,"name":"On or near Woodford Close"},"longitude":"-1.985523"},"context":"","outcome_status":{"category":"Investigation complete; no suspect identified","date":"2026-01"},"persistent_id":"865030f4558d3073b448e18105af7dc507c2a46dcdb21e56a57ff355b2743003","id":133058312,"location_subtype":"","month":"2026-01"},{"category":"criminal-damage-arson","location_type":"Force","location":{"latitude":"51.349015","street":{"id":1822113,"name":"On or near Charles Morrison Close"},"longitude":"-1.995672"},"context":"","outcome_status":{"category":"Under investigation","date":"2026-01"},"persistent_id":"ca7f92be6e9f7bfff3cbfc62f40810b4efee9f7d77a86c63ed0bf5387fcc60b5","id":133059929,"location_subtype":"","month":"2026-01"},{"category":"criminal-damage-arson","location_type":"Force","location":{"latitude":"51.347478","street":{"id":1822010,"name":"On or near The Moorlands"},"longitude":"-1.998788"},"context":"","outcome_status":{"category":"Investigation complete; no suspect identified","date":"2026-01"},"persistent_id":"419143d9c20cfd8507ae62026798a1edeab3441cb35d61ff6da6c56dd44e1c3b","id":133059414,"location_subtype":"","month":"2026-01"},{"category":"criminal-damage-arson","location_type":"Force","location":{"latitude":"51.347181","street":{"id":1821988,"name":"On or near Adlam Close"},"longitude":"-2.000410"},"context":"","outcome_status":{"category":"Under investigation","date":"2026-01"},"persistent_id":"74ef9ca6d990a8eafddefa992b9d06445d193e5727a35ac8fbb6777b5783ee0e","id":133061547,"location_subtype":"","month":"2026-01"},{"category":"criminal-damage-arson","location_type":"Force","location":{"latitude":"51.349778","street":{"id":1822393,"name":"On or near Kingsley Gardens"},"longitude":"-1.979949"},"context":"","outcome_status":{"category":"Investigation complete; no suspect identified","date":"2026-01"},"persistent_id":"0f0fe761289374723aee03d546dd1289204e8cac92ec7ffdacc6e31d13e53625","id":133061184,"location_subtype":"","month":"2026-01"},{"category":"criminal-damage-arson","location_type":"Force","location":{"latitude":"51.349778","street":{"id":1822393,"name":"On or near Kingsley Gardens"},"longitude":"-1.979949"},"context":"","outcome_status":{"category":"Under investigation","date":"2026-01"},"persistent_id":"76e677836730a2c67839c1ec623ef976bfa39eeae3db963e5fba5f19bcd55759","id":133062056,"location_subtype":"","month":"2026-01"},{"category":"criminal-damage-arson","location_type":"Force","location":{"latitude":"51.344627","street":{"id":1822313,"name":"On or near Radnor Close"},"longitude":"-1.986412"},"context":"","outcome_status":{"category":"Under investigation","date":"2026-01"},"persistent_id":"cd52cdf6ccd97a77d061566c7cf494469f951034d3f2379c10510e5c2e3d9756","id":133058596,"location_subtype":"","month":"2026-01"},{"category":"criminal-damage-arson","location_type":"Force","location":{"latitude":"51.349778","street":{"id":1822393,"name":"On or near Kingsley Gardens"},"longitude":"-1.979949"},"context":"","outcome_status":{"category":"Under investigation","date":"2026-01"},"persistent_id":"9e2c4afe5937b5be735f05a644c8f84d746b419ebda5ae77eb481d03544ef7a3","id":133062055,"location_subtype":"","month":"2026-01"},{"category":"drugs","location_type":"Force","location":{"latitude":"51.349950","street":{"id":1822246,"name":"On or near Southbroom Road"},"longitude":"-1.990029"},"context":"","outcome_status":{"category":"Under investigation","date":"2026-01"},"persistent_id":"bfabc54ba935f92c6a5d7055f226d9f9fd5712f0dc15cc85f26c2aada2e0f600","id":133059258,"location_subtype":"","month":"2026-01"},{"category":"drugs","location_type":"Force","location":{"latitude":"51.349950","street":{"id":1822246,"name":"On or near Southbroom Road"},"longitude":"-1.990029"},"context":"","outcome_status":{"category":"Under investigation","date":"2026-01"},"persistent_id":"9d5e66f631984854e3a6b76e28b3c34603d7ab7d33eb027789da14592fcfd56b","id":133059261,"location_subtype":"","month":"2026-01"},{"category":"other-theft","location_type":"Force","location":{"latitude":"51.348214","street":{"id":1822350,"name":"On or near Longcroft Road"},"longitude":"-1.982347"},"context":"","outcome_status":{"category":"Investigation complete; no suspect identified","date":"2026-01"},"persistent_id":"49598c03a1daab4c0ede1778304edee23b6f91b1e1d615a5750229d35b7f1508","id":133061541,"location_subtype":"","month":"2026-01"},{"category":"other-theft","location_type":"Force","location":{"latitude":"51.351091","street":{"id":1822332,"name":"On or near Longcroft Avenue"},"longitude":"-1.983495"},"context":"","outcome_status":{"category":"Under investigation","date":"2026-01"},"persistent_id":"7b4ba35fb8ffabf8e4f791d6e9e38d74f894e0dddd401fd4c8297c615460ed83","id":133058961,"location_subtype":"","month":"2026-01"},{"category":"public-order","location_type":"Force","location":{"latitude":"51.349778","street":{"id":1822393,"name":"On or near Kingsley Gardens"},"longitude":"-1.979949"},"context":"","outcome_status":{"category":"Awaiting court outcome","date":"2026-01"},"persistent_id":"b1474e5bbfb2d23195fe6c51d4c4707ccf6b8485077502be7ab1f5c867b4c35a","id":133062072,"location_subtype":"","month":"2026-01"},{"category":"public-order","location_type":"Force","location":{"latitude":"51.340967","street":{"id":1822213,"name":"On or near Downlands Road"},"longitude":"-1.989585"},"context":"","outcome_status":{"category":"Under investigation","date":"2026-01"},"persistent_id":"22cc63dc40c1f0ecc6179b03c9c568855bc28531ec1b010460aeae08dfe27760","id":133058510,"location_subtype":"","month":"2026-01"},{"category":"shoplifting","location_type":"Force","location":{"latitude":"51.348078","street":{"id":1822405,"name":"On or near Eastleigh Road"},"longitude":"-1.978930"},"context":"","outcome_status":{"category":"Under investigation","date":"2026-01"},"persistent_id":"f4d36115414311626f21106d17579820dc3afcdd85955914c23584b16ffa2c90","id":133060624,"location_subtype":"","month":"2026-01"},{"category":"violent-crime","location_type":"Force","location":{"latitude":"51.342386","street":{"id":1822423,"name":"On or near Massey Road"},"longitude":"-1.977267"},"context":"","outcome_status":{"category":"Under investigation","date":"2026-01"},"persistent_id":"eab537a0b9588e75f15319e62bfefe0958384ffdcb9ea2b5e341aa3f8b85da33","id":133061153,"location_subtype":"","month":"2026-01"},{"category":"violent-crime","location_type":"Force","location":{"latitude":"51.350273","street":{"id":1822379,"name":"On or near Kingsley Road"},"longitude":"-1.980896"},"context":"","outcome_status":{"category":"Under investigation","date":"2026-01"},"persistent_id":"1d5f28ef5afd33249084dc62162423e33fa0585cf0a5e6c36c8a0c6f30b0cd87","id":133061688,"location_subtype":"","month":"2026-01"},{"category":"violent-crime","location_type":"Force","location":{"latitude":"51.348132","street":{"id":1822385,"name":"On or near Pines Road"},"longitude":"-1.980079"},"context":"","outcome_status":{"category":"Under investigation","date":"2026-01"},"persistent_id":"4961d35f96bb63f6e19f6b7283c4671295c77cc180b8a39e24ebe12cd0b39525","id":133061079,"location_subtype":"","month":"2026-01"},{"category":"violent-crime","location_type":"Force","location":{"latitude":"51.345434","street":{"id":1822442,"name":"On or near Nursteed Close"},"longitude":"-1.976634"},"context":"","outcome_status":{"category":"Under investigation","date":"2026-01"},"persistent_id":"ae76ab7788d72fa60f004c747343bf4c3fc5b75b0e9400fead74d9d1d56c91cd","id":133058371,"location_subtype":"","month":"2026-01"},{"category":"violent-crime","location_type":"Force","location":{"latitude":"51.349950","street":{"id":1822246,"name":"On or near Southbroom Road"},"longitude":"-1.990029"},"context":"","outcome_status":{"category":"Under investigation","date":"2026-01"},"persistent_id":"85b35228c5c008f5707bd981f5718bde5e2c05f77e28ca34292962681cb72941","id":133061156,"location_subtype":"","month":"2026-01"},{"category":"violent-crime","location_type":"Force","location":{"latitude":"51.340967","street":{"id":1822213,"name":"On or near Downlands Road"},"longitude":"-1.989585"},"context":"","outcome_status":{"category":"Under investigation","date":"2026-01"},"persistent_id":"5cb1285b22afb694474e68e226c4ffb40074e87031754c541056a2bd67f35265","id":133061303,"location_subtype":"","month":"2026-01"},{"category":"violent-crime","location_type":"Force","location":{"latitude":"51.349653","street":{"id":1822217,"name":"On or near Bridewell Street"},"longitude":"-1.992211"},"context":"","outcome_status":{"category":"Under investigation","date":"2026-01"},"persistent_id":"bb2c96617baf77b03e9bd8c6956c1e4c5c0dce710fe3301616485f171285f567","id":133061368,"location_subtype":"","month":"2026-01"},{"category":"violent-crime","location_type":"Force","location":{"latitude":"51.349779","street":{"id":1822236,"name":"On or near Sutton Place"},"longitude":"-1.990976"},"context":"","outcome_status":{"category":"Under investigation","date":"2026-01"},"persistent_id":"efe4a269946707e3d1fe6218a32b066349b6b424769eb349f380c1a296b507cc","id":133061610,"location_subtype":"","month":"2026-01"},{"category":"violent-crime","location_type":"Force","location":{"latitude":"51.345434","street":{"id":1822442,"name":"On or near Nursteed Close"},"longitude":"-1.976634"},"context":"","outcome_status":{"category":"Under investigation","date":"2026-01"},"persistent_id":"3abf6a0b0aeafdbc24d7ba78061bfe9161710379144d72bdd656f6f3471a8f1e","id":133061620,"location_subtype":"","month":"2026-01"},{"category":"violent-crime","location_type":"Force","location":{"latitude":"51.345434","street":{"id":1822442,"name":"On or near Nursteed Close"},"longitude":"-1.976634"},"context":"","outcome_status":{"category":"Under investigation","date":"2026-01"},"persistent_id":"68b7d57251a7bece3a5026cd2cd3d60ec3dde2c948ff78abfcecc606935d2249","id":133062116,"location_subtype":"","month":"2026-01"},{"category":"violent-crime","location_type":"Force","location":{"latitude":"51.351091","street":{"id":1822332,"name":"On or near Longcroft Avenue"},"longitude":"-1.983495"},"context":"","outcome_status":{"category":"Under investigation","date":"2026-01"},"persistent_id":"d147fefd59785f319b19a6d0e51aac367759fdfbe4110d3d83736dd27f546a1f","id":133062082,"location_subtype":"","month":"2026-01"},{"category":"violent-crime","location_type":"Force","location":{"latitude":"51.351020","street":{"id":1822222,"name":"On or near Sheep Street"},"longitude":"-1.991507"},"context":"","outcome_status":{"category":"Under investigation","date":"2026-01"},"persistent_id":"19b0e2cb9248ffc678909fc4f7a5513e6d2249be2c53683a525b009de2822d50","id":133061883,"location_subtype":"","month":"2026-01"},{"category":"violent-crime","location_type":"Force","location":{"latitude":"51.348503","street":{"id":1822134,"name":"On or near Hillworth Gardens"},"longitude":"-1.995212"},"context":"","outcome_status":{"category":"Under investigation","date":"2026-01"},"persistent_id":"e6a235f457794cdda8a82a47ed639b485f415414fd156e8914cf4212ec360c30","id":133061683,"location_subtype":"","month":"2026-01"},{"category":"violent-crime","location_type":"Force","location":{"latitude":"51.349779","street":{"id":1822236,"name":"On or near Sutton Place"},"longitude":"-1.990976"},"context":"","outcome_status":{"category":"Under investigation","date":"2026-01"},"persistent_id":"da7a5a4ad927e0b957282503fd1b2f167d67d981c170de1aeee002f32bdae031","id":133061615,"location_subtype":"","month":"2026-01"},{"category":"violent-crime","location_type":"Force","location":{"latitude":"51.342386","street":{"id":1822423,"name":"On or near Massey Road"},"longitude":"-1.977267"},"context":"","outcome_status":{"category":"Under investigation","date":"2026-01"},"persistent_id":"986d5a9e7eb6edd72ac7be6bd3ce914a449f5b5c17ac0a53319e19c7187afaee","id":133061304,"location_subtype":"","month":"2026-01"},{"category":"violent-crime","location_type":"Force","location":{"latitude":"51.342386","street":{"id":1822423,"name":"On or near Massey Road"},"longitude":"-1.977267"},"context":"","outcome_status":{"category":"Under investigation","date":"2026-01"},"persistent_id":"d19348b320a414e7df285822b986b3f1e847af4a29d5d5ddb7558bfe4e0c567c","id":133061203,"location_subtype":"","month":"2026-01"},{"category":"violent-crime","location_type":"Force","location":{"latitude":"51.338683","street":{"id":1822326,"name":"On or near Wordsworth Way"},"longitude":"-1.985322"},"context":"","outcome_status":{"category":"Under investigation","date":"2026-01"},"persistent_id":"1739a6438f032cb386396b62d84ba0b5f5e775767c37c6f30202b5d5d18730f9","id":133058761,"location_subtype":"","month":"2026-01"},{"category":"violent-crime","location_type":"Force","location":{"latitude":"51.342118","street":{"id":1822240,"name":"On or near Downslands Road"},"longitude":"-1.990963"},"context":"","outcome_status":{"category":"Under investigation","date":"2026-01"},"persistent_id":"f622889e1d31ede091ce9e9300ab7c7f23fd484ae64f80edb497faf47e3b4215","id":133060805,"location_subtype":"","month":"2026-01"},{"category":"violent-crime","location_type":"Force","location":{"latitude":"51.348536","street":{"id":1822503,"name":"On or near Chivers Road"},"longitude":"-1.974033"},"context":"","outcome_status":{"category":"Under investigation","date":"2026-01"},"persistent_id":"8d145760fcc25c2c645cb3f867ba1706f2835d5e1ab000e91dcc07e95aa3917a","id":133060742,"location_subtype":"","month":"2026-01"},{"category":"violent-crime","location_type":"Force","location":{"latitude":"51.348536","street":{"id":1822503,"name":"On or near Chivers Road"},"longitude":"-1.974033"},"context":"","outcome_status":{"category":"Under investigation","date":"2026-01"},"persistent_id":"4ecc4b8d2a888eaa36cbd2bb96e28ed0d09f8621aa1c144599f860a2d5b8228f","id":133060730,"location_subtype":"","month":"2026-01"},{"category":"violent-crime","location_type":"Force","location":{"latitude":"51.348536","street":{"id":1822503,"name":"On or near Chivers Road"},"longitude":"-1.974033"},"context":"","outcome_status":{"category":"Under investigation","date":"2026-01"},"persistent_id":"52fc47bf449cf5d9ee8c6166dc3214587f2c3b0205bed45294429290377bd1b9","id":133061062,"location_subtype":"","month":"2026-01"},{"category":"violent-crime","location_type":"Force","location":{"latitude":"51.348536","street":{"id":1822503,"name":"On or near Chivers Road"},"longitude":"-1.974033"},"context":"","outcome_status":{"category":"Under investigation","date":"2026-01"},"persistent_id":"98760fa6445ca7eb291cad8eeaabe71feb3331235e7baa60b909d04baee2d4f7","id":133060471,"location_subtype":"","month":"2026-01"},{"category":"violent-crime","location_type":"Force","location":{"latitude":"51.342386","street":{"id":1822423,"name":"On or near Massey Road"},"longitude":"-1.977267"},"context":"","outcome_status":{"category":"Under investigation","date":"2026-01"},"persistent_id":"079f833e4a398cc38198e8fd8a942f79629d0702ba5bc2f444b19e3d183803be","id":133060090,"location_subtype":"","month":"2026-01"},{"category":"violent-crime","location_type":"Force","location":{"latitude":"51.348536","street":{"id":1822503,"name":"On or near Chivers Road"},"longitude":"-1.974033"},"context":"","outcome_status":{"category":"Under investigation","date":"2026-01"},"persistent_id":"512ace45aeb309cb41571fd8953df0695547f101c854861ed93121166e83eb27","id":133060361,"location_subtype":"","month":"2026-01"},{"category":"violent-crime","location_type":"Force","location":{"latitude":"51.348078","street":{"id":1822450,"name":"On or near Cromwell Road"},"longitude":"-1.976991"},"context":"","outcome_status":{"category":"Under investigation","date":"2026-01"},"persistent_id":"eb6893f8659b74a514b9633b722c8f384f1579b65f72c062b67e8025516a711b","id":133059814,"location_subtype":"","month":"2026-01"},{"category":"violent-crime","location_type":"Force","location":{"latitude":"51.350220","street":{"id":1822251,"name":"On or near Hare And Hounds Street"},"longitude":"-1.990790"},"context":"","outcome_status":{"category":"Under investigation","date":"2026-01"},"persistent_id":"4a97193ccc47d3507a25b5ff36ddb76139c96288fe2b1637ed474a8164e5b752","id":133059319,"location_subtype":"","month":"2026-01"},{"category":"violent-crime","location_type":"Force","location":{"latitude":"51.341714","street":{"id":1822117,"name":"On or near Woodland Way"},"longitude":"-1.993390"},"context":"","outcome_status":{"category":"Under investigation","date":"2026-01"},"persistent_id":"11bacdf8dc74e5acd09726c37f9fd55cf475e3dbec57b691f1d27fb751d09e09","id":133058931,"location_subtype":"","month":"2026-01"},{"category":"violent-crime","location_type":"Force","location":{"latitude":"51.349653","street":{"id":1822217,"name":"On or near Bridewell Street"},"longitude":"-1.992211"},"context":"","outcome_status":{"category":"Under investigation","date":"2026-01"},"persistent_id":"be9e51dd7aa10572212ef33aa5f2cfd34cd2e8bbcaf3d6a847e72f337f19e5ac","id":133058795,"location_subtype":"","month":"2026-01"},{"category":"violent-crime","location_type":"Force","location":{"latitude":"51.338116","street":{"id":1822308,"name":"On or near Parking Area"},"longitude":"-1.983657"},"context":"","outcome_status":{"category":"Under investigation","date":"2026-01"},"persistent_id":"9e7c0586bcd5ca4e764275947ac334eb3fbcbab768f22d4f3ca37c5463a05468","id":133058824,"location_subtype":"","month":"2026-01"},{"category":"violent-crime","location_type":"Force","location":{"latitude":"51.347882","street":{"id":1822214,"name":"On or near Southgate Close"},"longitude":"-1.990962"},"context":"","outcome_status":{"category":"Under investigation","date":"2026-01"},"persistent_id":"8b4d09a0317ad5ea46a8eba5ce66a92aa0b2c1b31d70d23960edf8d98490e299","id":133058268,"location_subtype":"","month":"2026-01"},{"category":"violent-crime","location_type":"Force","location":{"latitude":"51.349653","street":{"id":1822217,"name":"On or near Bridewell Street"},"longitude":"-1.992211"},"context":"","outcome_status":{"category":"Unable to prosecute suspect","date":"2026-01"},"persistent_id":"e4baa7eff1a69f036fd9920d0bd3f9987a193fd7c6a0aa18fa13debf1770a254","id":133061353,"location_subtype":"","month":"2026-01"},{"category":"violent-crime","location_type":"Force","location":{"latitude":"51.349015","street":{"id":1822113,"name":"On or near Charles Morrison Close"},"longitude":"-1.995672"},"context":"","outcome_status":{"category":"Investigation complete; no suspect identified","date":"2026-01"},"persistent_id":"450c9cab6780bdd4228db9a86d6d2f1efca44a60e9ab20772b4011699a901ac2","id":133060798,"location_subtype":"","month":"2026-01"},{"category":"other-crime","location_type":"Force","location":{"latitude":"51.351091","street":{"id":1822332,"name":"On or near Longcroft Avenue"},"longitude":"-1.983495"},"context":"","outcome_status":{"category":"Under investigation","date":"2026-01"},"persistent_id":"d550ceee58669699fbc94d90bfa233ecfedf32afd436f4d59be26cca19db068e","id":133058958,"location_subtype":"","month":"2026-01"},{"category":"other-crime","location_type":"Force","location":{"latitude":"51.350273","street":{"id":1822379,"name":"On or near Kingsley Road"},"longitude":"-1.980896"},"context":"","outcome_status":{"category":"Under investigation","date":"2026-01"},"persistent_id":"9e9bfee2f47bb24b9b91de7c7e5a3270824fb6a85db89d4ced60dc1094b6bf9f","id":133061687,"location_subtype":"","month":"2026-01"},{"category":"other-crime","location_type":"Force","location":{"latitude":"51.340967","street":{"id":1822213,"name":"On or near Downlands Road"},"longitude":"-1.989585"},"context":"","outcome_status":{"category":"Under investigation","date":"2026-01"},"persistent_id":"c15e1e4849d7c37f0eb3549d4c368585a6e355764bbcf0bd6221f117fd246522","id":133059418,"location_subtype":"","month":"2026-01"}]