[{"category":"anti-social-behaviour","location_type":"Force","location":{"latitude":"50.927711","street":{"id":1535596,"name":"On or near Riverside Place"},"longitude":"-1.789307"},"context":"","outcome_status":null,"persistent_id":"","id":130279480,"location_subtype":"","month":"2025-07"},{"category":"anti-social-behaviour","location_type":"Force","location":{"latitude":"50.927297","street":{"id":1535605,"name":"On or near Bridge Street"},"longitude":"-1.789195"},"context":"","outcome_status":null,"persistent_id":"","id":130262700,"location_subtype":"","month":"2025-07"},{"category":"anti-social-behaviour","location_type":"Force","location":{"latitude":"50.925256","street":{"id":1535555,"name":"On or near B3078"},"longitude":"-1.794170"},"context":"","outcome_status":null,"persistent_id":"","id":130256096,"location_subtype":"","month":"2025-07"},{"category":"anti-social-behaviour","location_type":"Force","location":{"latitude":"50.927135","street":{"id":1535581,"name":"On or near Supermarket"},"longitude":"-1.791749"},"context":"","outcome_status":null,"persistent_id":"","id":130277179,"location_subtype":"","month":"2025-07"},{"category":"anti-social-behaviour","location_type":"Force","location":{"latitude":"50.927711","street":{"id":1535596,"name":"On or near Riverside Place"},"longitude":"-1.789307"},"context":"","outcome_status":null,"persistent_id":"","id":130281554,"location_subtype":"","month":"2025-07"},{"category":"anti-social-behaviour","location_type":"Force","location":{"latitude":"50.926963","street":{"id":1535618,"name":"On or near Bridge Street"},"longitude":"-1.788172"},"context":"","outcome_status":null,"persistent_id":"","id":130264832,"location_subtype":"","month":"2025-07"},{"category":"anti-social-behaviour","location_type":"Force","location":{"latitude":"50.928974","street":{"id":1535485,"name":"On or near Station Road"},"longitude":"-1.806974"},"context":"","outcome_status":null,"persistent_id":"","id":130035072,"location_subtype":"","month":"2025-07"},{"category":"criminal-damage-arson","location_type":"Force","location":{"latitude":"50.926963","street":{"id":1535618,"name":"On or near Bridge Street"},"longitude":"-1.788172"},"context":"","outcome_status":{"category":"Investigation complete; no suspect identified","date":"2025-09"},"persistent_id":"e618700981664e244b6066a3b9e44d79999752b0d50d22bdf84ed922158ad996","id":130273232,"location_subtype":"","month":"2025-07"},{"category":"criminal-damage-arson","location_type":"Force","location":{"latitude":"50.928188","street":{"id":1535608,"name":"On or near Salisbury Street"},"longitude":"-1.789362"},"context":"","outcome_status":{"category":"Investigation complete; no suspect identified","date":"2025-08"},"persistent_id":"a28369e7202c8bef6aa831c1a7d656e856b5b2ec27ea12a4ba531912d0d62d1d","id":130282414,"location_subtype":"","month":"2025-07"},{"category":"criminal-damage-arson","location_type":"Force","location":{"latitude":"50.931741","street":{"id":1535538,"name":"On or near Meadow Avenue"},"longitude":"-1.795252"},"context":"","outcome_status":{"category":"Investigation complete; no suspect identified","date":"2025-07"},"persistent_id":"8a743b0df74a31e99cbe4c6866e6cde6f658a5762948993b3d545a090e0d0d7d","id":130262267,"location_subtype":"","month":"2025-07"},{"category":"criminal-damage-arson","location_type":"Force","location":{"latitude":"50.927135","street":{"id":1535581,"name":"On or near Supermarket"},"longitude":"-1.791749"},"context":"","outcome_status":{"category":"Unable to prosecute suspect","date":"2025-12"},"persistent_id":"3c52f091f3a9a0705d581ac6ee2079b5a7928e992068a315ba0f7d8461159573","id":130257226,"location_subtype":"","month":"2025-07"},{"category":"criminal-damage-arson","location_type":"Force","location":{"latitude":"50.927135","street":{"id":1535581,"name":"On or near Supermarket"},"longitude":"-1.791749"},"context":"","outcome_status":{"category":"Investigation complete; no suspect identified","date":"2025-07"},"persistent_id":"26057c9e77901badcfeff0934b3b0a22b0377c10248183ad8e532d275bcc7fbc","id":130260628,"location_subtype":"","month":"2025-07"},{"category":"criminal-damage-arson","location_type":"Force","location":{"latitude":"50.941743","street":{"id":1535503,"name":"On or near Fryern Court Road"},"longitude":"-1.796403"},"context":"","outcome_status":{"category":"Investigation complete; no suspect identified","date":"2025-08"},"persistent_id":"ecb6a99620d1c9a436f65a791c879a7f84a98ff6743b09c9f2c8a423396ed5f7","id":130282875,"location_subtype":"","month":"2025-07"},{"category":"criminal-damage-arson","location_type":"Force","location":{"latitude":"50.928856","street":{"id":1535589,"name":"On or near The Bartons"},"longitude":"-1.790995"},"context":"","outcome_status":{"category":"Investigation complete; no suspect identified","date":"2025-07"},"persistent_id":"4f1c9d2a739aea7b4ab40f6ddb0c0467fe3e1fff73306fea96c66f39067f3347","id":130256371,"location_subtype":"","month":"2025-07"},{"category":"criminal-damage-arson","location_type":"Force","location":{"latitude":"50.928856","street":{"id":1535589,"name":"On or near The Bartons"},"longitude":"-1.790995"},"context":"","outcome_status":{"category":"Investigation complete; no suspect identified","date":"2025-08"},"persistent_id":"d1347c00bcc1395180dfb9a342005a0a999b3606eaae22f4d923e585977558d3","id":130270631,"location_subtype":"","month":"2025-07"},{"category":"criminal-damage-arson","location_type":"Force","location":{"latitude":"50.932074","street":{"id":1535604,"name":"On or near Queens Gardens"},"longitude":"-1.790312"},"context":"","outcome_status":{"category":"Investigation complete; no suspect identified","date":"2025-07"},"persistent_id":"20921bb4dbf76a64845d544c07b5f88d8f61103b2870eb576ee11db6672d6e92","id":130266737,"location_subtype":"","month":"2025-07"},{"category":"other-theft","location_type":"Force","location":{"latitude":"50.935004","street":{"id":1535610,"name":"On or near Waverley Road"},"longitude":"-1.789346"},"context":"","outcome_status":{"category":"Unable to prosecute suspect","date":"2025-07"},"persistent_id":"1e29d8facccff9baae7774b0a1f45cb58decb20cd132049617ab35d60a9c35b0","id":130273953,"location_subtype":"","month":"2025-07"},{"category":"public-order","location_type":"Force","location":{"latitude":"50.929173","street":{"id":1535584,"name":"On or near Lower Bartons"},"longitude":"-1.792275"},"context":"","outcome_status":{"category":"Investigation complete; no suspect identified","date":"2025-09"},"persistent_id":"491c4db1b1a330ce0838abf78bfdcd2d1b3d02a91fd5b9bdbb431b6b1349fb28","id":130278386,"location_subtype":"","month":"2025-07"},{"category":"public-order","location_type":"Force","location":{"latitude":"50.927067","street":{"id":1535573,"name":"On or near High Street"},"longitude":"-1.791032"},"context":"","outcome_status":{"category":"Unable to prosecute suspect","date":"2025-08"},"persistent_id":"8c3946d94fa5a234444307a3261eae20078956141d87fe86bb7cb71f93dfeffc","id":130270813,"location_subtype":"","month":"2025-07"},{"category":"public-order","location_type":"Force","location":{"latitude":"50.926963","street":{"id":1535618,"name":"On or near Bridge Street"},"longitude":"-1.788172"},"context":"","outcome_status":{"category":"Unable to prosecute suspect","date":"2025-12"},"persistent_id":"a20ece13a79da4aa83900ce8d4c1e3754f9405a20cdc581579b34074e1e0c4f3","id":130278338,"location_subtype":"","month":"2025-07"},{"category":"public-order","location_type":"Force","location":{"latitude":"50.928871","street":{"id":1535623,"name":"On or near Manor Close"},"longitude":"-1.788918"},"context":"","outcome_status":{"category":"Unable to prosecute suspect","date":"2025-08"},"persistent_id":"47a3e016cb1b37e77fb324b8d7dcad586b095e931ba43c7ff9f620b25f249d01","id":130276639,"location_subtype":"","month":"2025-07"},{"category":"public-order","location_type":"Force","location":{"latitude":"50.926963","street":{"id":1535618,"name":"On or near Bridge Street"},"longitude":"-1.788172"},"context":"","outcome_status":{"category":"Unable to prosecute suspect","date":"2025-12"},"persistent_id":"9c5217ace95c7d5b86748f6750271e348b06db9042a17aa135055ff64438f722","id":130277031,"location_subtype":"","month":"2025-07"},{"category":"public-order","location_type":"Force","location":{"latitude":"50.934405","street":{"id":1535594,"name":"On or near Waverley Close"},"longitude":"-1.791497"},"context":"","outcome_status":{"category":"Unable to prosecute suspect","date":"2025-08"},"persistent_id":"cc01ef9f83822452b5a7da5a1025bb324ec3d6e1af5bf8b30ee2b1fde61c7c95","id":130279178,"location_subtype":"","month":"2025-07"},{"category":"public-order","location_type":"Force","location":{"latitude":"50.936359","street":{"id":1535606,"name":"On or near Burgate Fields"},"longitude":"-1.787532"},"context":"","outcome_status":{"category":"Investigation complete; no suspect identified","date":"2025-07"},"persistent_id":"a31d531b678b1320bd484d2bd2c87fe131ac14f0d7ecd9a2d385d2996139c64d","id":130256101,"location_subtype":"","month":"2025-07"},{"category":"public-order","location_type":"Force","location":{"latitude":"50.926963","street":{"id":1535618,"name":"On or near Bridge Street"},"longitude":"-1.788172"},"context":"","outcome_status":{"category":"Further action is not in the public interest","date":"2025-07"},"persistent_id":"3706c09b72f1d81ca28e9a34138787e1678c200de0798271949b00bcfc3b55b0","id":130268160,"location_subtype":"","month":"2025-07"},{"category":"shoplifting","location_type":"Force","location":{"latitude":"50.928188","street":{"id":1535608,"name":"On or near Salisbury Street"},"longitude":"-1.789362"},"context":"","outcome_status":{"category":"Unable to prosecute suspect","date":"2025-08"},"persistent_id":"d5ecbce65fbae38c1d2bdc29cfe14afa4dac04d18857dc0356aea05e97b3ac10","id":130282788,"location_subtype":"","month":"2025-07"},{"category":"vehicle-crime","location_type":"Force","location":{"latitude":"50.927564","street":{"id":1535568,"name":"On or near Parking Area"},"longitude":"-1.792524"},"context":"","outcome_status":{"category":"Investigation complete; no suspect identified","date":"2025-07"},"persistent_id":"c56e036034806f26184c8915d668ecbb9cc2ee40c44c62067304666c05ebb709","id":130281361,"location_subtype":"","month":"2025-07"},{"category":"violent-crime","location_type":"Force","location":{"latitude":"50.939993","street":{"id":1535504,"name":"On or near Puddleslosh Lane"},"longitude":"-1.798403"},"context":"","outcome_status":{"category":"Unable to prosecute suspect","date":"2025-10"},"persistent_id":"e1981057e71a60ec35d9b3c07fda22f3ca6d79706b6bf0026a36f50cae41cb11","id":130277726,"location_subtype":"","month":"2025-07"},{"category":"violent-crime","location_type":"Force","location":{"latitude":"50.934747","street":{"id":1535522,"name":"On or near Sharpley Close"},"longitude":"-1.796277"},"context":"","outcome_status":{"category":"Status update unavailable","date":"2025-11"},"persistent_id":"a71e226f121b1a11d0e9a3940c2a5beef50b1dd91b2bc891a1c0ff66c2e892c9","id":130273528,"location_subtype":"","month":"2025-07"},{"category":"violent-crime","location_type":"Force","location":{"latitude":"50.929173","street":{"id":1535584,"name":"On or near Lower Bartons"},"longitude":"-1.792275"},"context":"","outcome_status":{"category":"Unable to prosecute suspect","date":"2025-12"},"persistent_id":"fdcf23f8ddf7af34b46e056312f724845afbbe3209bd48af5d6e9d802ec9943a","id":130271777,"location_subtype":"","month":"2025-07"},{"category":"violent-crime","location_type":"Force","location":{"latitude":"50.936359","street":{"id":1535606,"name":"On or near Burgate Fields"},"longitude":"-1.787532"},"context":"","outcome_status":{"category":"Unable to prosecute suspect","date":"2025-08"},"persistent_id":"fffca3dda3c753f60b3a99d7b59e3606c2284362e2b72266439f5b7f443b4ebe","id":130258556,"location_subtype":"","month":"2025-07"},{"category":"violent-crime","location_type":"Force","location":{"latitude":"50.926592","street":{"id":1535516,"name":"On or near Flaxfields End"},"longitude":"-1.796996"},"context":"","outcome_status":{"category":"Court result unavailable","date":"2026-01"},"persistent_id":"9d4ec061547fb4f8d328662d14096a2fa2163eef06bf9192380ff133ea4003e2","id":130255247,"location_subtype":"","month":"2025-07"},{"category":"violent-crime","location_type":"Force","location":{"latitude":"50.927135","street":{"id":1535581,"name":"On or near Supermarket"},"longitude":"-1.791749"},"context":"","outcome_status":{"category":"Unable to prosecute suspect","date":"2025-07"},"persistent_id":"2368d3965f709bef213766c55d5f62c189b4c570e13b82fa2558b3ca4bdc4608","id":130255511,"location_subtype":"","month":"2025-07"},{"category":"violent-crime","location_type":"Force","location":{"latitude":"50.936359","street":{"id":1535606,"name":"On or near Burgate Fields"},"longitude":"-1.787532"},"context":"","outcome_status":{"category":"Unable to prosecute suspect","date":"2025-07"},"persistent_id":"8077b6a96343d76f21182eeddaaa101febed5c61dd8944ac22d9f9ba3b2893ba","id":130256098,"location_subtype":"","month":"2025-07"},{"category":"violent-crime","location_type":"Force","location":{"latitude":"50.928188","street":{"id":1535608,"name":"On or near Salisbury Street"},"longitude":"-1.789362"},"context":"","outcome_status":{"category":"Unable to prosecute suspect","date":"2025-08"},"persistent_id":"46eba205ea0d37659005550deb2058c4b3ea2147144074d7a05951160a3e6eff","id":130270151,"location_subtype":"","month":"2025-07"},{"category":"violent-crime","location_type":"Force","location":{"latitude":"50.928188","street":{"id":1535608,"name":"On or near Salisbury Street"},"longitude":"-1.789362"},"context":"","outcome_status":{"category":"Unable to prosecute suspect","date":"2025-08"},"persistent_id":"3074dc315ec255ac44745f44fea77a3575700ba629398051faa448306d4058b4","id":130270125,"location_subtype":"","month":"2025-07"},{"category":"violent-crime","location_type":"Force","location":{"latitude":"50.926592","street":{"id":1535516,"name":"On or near Flaxfields End"},"longitude":"-1.796996"},"context":"","outcome_status":{"category":"Unable to prosecute suspect","date":"2025-07"},"persistent_id":"05a72331f00a952b2c9e5903b96beabc665b926718103da73b7ccb91cf44d8e0","id":130256372,"location_subtype":"","month":"2025-07"},{"category":"violent-crime","location_type":"Force","location":{"latitude":"50.936359","street":{"id":1535606,"name":"On or near Burgate Fields"},"longitude":"-1.787532"},"context":"","outcome_status":{"category":"Unable to prosecute suspect","date":"2025-07"},"persistent_id":"f0fa59483bbdf62ed4b2aa2664250912cdf014863ca4f919afb161a5982b28f3","id":130258852,"location_subtype":"","month":"2025-07"},{"category":"violent-crime","location_type":"Force","location":{"latitude":"50.927564","street":{"id":1535568,"name":"On or near Parking Area"},"longitude":"-1.792524"},"context":"","outcome_status":{"category":"Investigation complete; no suspect identified","date":"2025-08"},"persistent_id":"c1816a677a62468637f92a019605868c97203b0eff219065a12876a2c6e653aa","id":130272310,"location_subtype":"","month":"2025-07"},{"category":"violent-crime","location_type":"Force","location":{"latitude":"50.926963","street":{"id":1535618,"name":"On or near Bridge Street"},"longitude":"-1.788172"},"context":"","outcome_status":{"category":"Investigation complete; no suspect identified","date":"2025-07"},"persistent_id":"6526b6d0ca6ee1f03881cfadcdb9481a9e0262bde9383a2fa9ac3bbf46fd686e","id":130264200,"location_subtype":"","month":"2025-07"},{"category":"violent-crime","location_type":"Force","location":{"latitude":"50.926870","street":{"id":1535491,"name":"On or near Ashburn Place"},"longitude":"-1.802103"},"context":"","outcome_status":{"category":"Unable to prosecute suspect","date":"2025-07"},"persistent_id":"802a82e8ce57a08f25184f60f633c9356674450c0b6442a9bf6bca82f8d80ab3","id":130267049,"location_subtype":"","month":"2025-07"},{"category":"violent-crime","location_type":"Force","location":{"latitude":"50.934747","street":{"id":1535522,"name":"On or near Sharpley Close"},"longitude":"-1.796277"},"context":"","outcome_status":{"category":"Action to be taken by another organisation","date":"2025-07"},"persistent_id":"cf45bb6b5c4f980e93f0d92368450d71b3b5ff9ee2f6a53e25a751d1496f2480","id":130275954,"location_subtype":"","month":"2025-07"},{"category":"violent-crime","location_type":"Force","location":{"latitude":"50.938922","street":{"id":1535567,"name":"On or near Caspars Way"},"longitude":"-1.793014"},"context":"","outcome_status":{"category":"Unable to prosecute suspect","date":"2025-08"},"persistent_id":"5adcad639aad52ff6c6ba6532b15a471ee1c381666d9227afc1e61cbc44b14f0","id":130283269,"location_subtype":"","month":"2025-07"},{"category":"violent-crime","location_type":"Force","location":{"latitude":"50.931554","street":{"id":1535518,"name":"On or near Oaklands Close"},"longitude":"-1.796305"},"context":"","outcome_status":{"category":"Status update unavailable","date":"2025-11"},"persistent_id":"0164523d00ffcc73d717e192eb36a3b0583023cff20db2bd3fa5020600f8200e","id":130260980,"location_subtype":"","month":"2025-07"},{"category":"violent-crime","location_type":"Force","location":{"latitude":"50.929173","street":{"id":1535584,"name":"On or near Lower Bartons"},"longitude":"-1.792275"},"context":"","outcome_status":{"category":"Unable to prosecute suspect","date":"2025-09"},"persistent_id":"4ec5d5202d00debc7f4765faa32588cb27fe4fc4cb05b75c2f9bb459c9f1a080","id":130259596,"location_subtype":"","month":"2025-07"},{"category":"violent-crime","location_type":"Force","location":{"latitude":"50.926812","street":{"id":1535554,"name":"On or near Shaftesbury Street"},"longitude":"-1.794306"},"context":"","outcome_status":{"category":"Unable to prosecute suspect","date":"2025-09"},"persistent_id":"73f7648fa0090e1b9e03be937d17547626021296f11c99d30ea4153a8d6c1828","id":130261143,"location_subtype":"","month":"2025-07"}]