[{"category":"anti-social-behaviour","location_type":"Force","location":{"latitude":"54.885366","street":{"id":1886941,"name":"On or near Hemming Street"},"longitude":"-1.367598"},"context":"","outcome_status":null,"persistent_id":"","id":128929437,"location_subtype":"","month":"2025-06"},{"category":"anti-social-behaviour","location_type":"Force","location":{"latitude":"54.895270","street":{"id":1886719,"name":"On or near Marion Street"},"longitude":"-1.372791"},"context":"","outcome_status":null,"persistent_id":"","id":128932314,"location_subtype":"","month":"2025-06"},{"category":"anti-social-behaviour","location_type":"Force","location":{"latitude":"54.895953","street":{"id":1886647,"name":"On or near Villette Brook Street"},"longitude":"-1.374543"},"context":"","outcome_status":null,"persistent_id":"","id":128932310,"location_subtype":"","month":"2025-06"},{"category":"anti-social-behaviour","location_type":"Force","location":{"latitude":"54.874771","street":{"id":1886720,"name":"On or near Leechmere Way"},"longitude":"-1.372751"},"context":"","outcome_status":null,"persistent_id":"","id":128932164,"location_subtype":"","month":"2025-06"},{"category":"anti-social-behaviour","location_type":"Force","location":{"latitude":"54.897175","street":{"id":1886303,"name":"On or near The Avenue"},"longitude":"-1.385158"},"context":"","outcome_status":null,"persistent_id":"","id":128932160,"location_subtype":"","month":"2025-06"},{"category":"anti-social-behaviour","location_type":"Force","location":{"latitude":"54.897175","street":{"id":1886303,"name":"On or near The Avenue"},"longitude":"-1.385158"},"context":"","outcome_status":null,"persistent_id":"","id":128932156,"location_subtype":"","month":"2025-06"},{"category":"anti-social-behaviour","location_type":"Force","location":{"latitude":"54.874771","street":{"id":1886720,"name":"On or near Leechmere Way"},"longitude":"-1.372751"},"context":"","outcome_status":null,"persistent_id":"","id":128932146,"location_subtype":"","month":"2025-06"},{"category":"anti-social-behaviour","location_type":"Force","location":{"latitude":"54.898033","street":{"id":1886905,"name":"On or near Barnabas Place"},"longitude":"-1.368476"},"context":"","outcome_status":null,"persistent_id":"","id":128932139,"location_subtype":"","month":"2025-06"},{"category":"anti-social-behaviour","location_type":"Force","location":{"latitude":"54.883610","street":{"id":1886891,"name":"On or near Kitchener Terrace"},"longitude":"-1.368483"},"context":"","outcome_status":null,"persistent_id":"","id":128931756,"location_subtype":"","month":"2025-06"},{"category":"anti-social-behaviour","location_type":"Force","location":{"latitude":"54.891443","street":{"id":1886790,"name":"On or near Hunter Terrace"},"longitude":"-1.371448"},"context":"","outcome_status":null,"persistent_id":"","id":128931350,"location_subtype":"","month":"2025-06"},{"category":"anti-social-behaviour","location_type":"Force","location":{"latitude":"54.886184","street":{"id":1886511,"name":"On or near Sea View Road West"},"longitude":"-1.377983"},"context":"","outcome_status":null,"persistent_id":"","id":128931115,"location_subtype":"","month":"2025-06"},{"category":"anti-social-behaviour","location_type":"Force","location":{"latitude":"54.872326","street":{"id":1886529,"name":"On or near Brick Row"},"longitude":"-1.377776"},"context":"","outcome_status":null,"persistent_id":"","id":128931105,"location_subtype":"","month":"2025-06"},{"category":"anti-social-behaviour","location_type":"Force","location":{"latitude":"54.896651","street":{"id":1886746,"name":"On or near Guildford Street"},"longitude":"-1.372333"},"context":"","outcome_status":null,"persistent_id":"","id":128930972,"location_subtype":"","month":"2025-06"},{"category":"anti-social-behaviour","location_type":"Force","location":{"latitude":"54.895270","street":{"id":1886719,"name":"On or near Marion Street"},"longitude":"-1.372791"},"context":"","outcome_status":null,"persistent_id":"","id":128930969,"location_subtype":"","month":"2025-06"},{"category":"anti-social-behaviour","location_type":"Force","location":{"latitude":"54.872326","street":{"id":1886529,"name":"On or near Brick Row"},"longitude":"-1.377776"},"context":"","outcome_status":null,"persistent_id":"","id":128930962,"location_subtype":"","month":"2025-06"},{"category":"anti-social-behaviour","location_type":"Force","location":{"latitude":"54.895270","street":{"id":1886719,"name":"On or near Marion Street"},"longitude":"-1.372791"},"context":"","outcome_status":null,"persistent_id":"","id":128930574,"location_subtype":"","month":"2025-06"},{"category":"anti-social-behaviour","location_type":"Force","location":{"latitude":"54.881388","street":{"id":1886682,"name":"On or near Supermarket"},"longitude":"-1.373241"},"context":"","outcome_status":null,"persistent_id":"","id":128930575,"location_subtype":"","month":"2025-06"},{"category":"anti-social-behaviour","location_type":"Force","location":{"latitude":"54.892389","street":{"id":1886191,"name":"On or near Willow Bank Road"},"longitude":"-1.387632"},"context":"","outcome_status":null,"persistent_id":"","id":128930643,"location_subtype":"","month":"2025-06"},{"category":"anti-social-behaviour","location_type":"Force","location":{"latitude":"54.899109","street":{"id":1886919,"name":"On or near Teasdale Street"},"longitude":"-1.368100"},"context":"","outcome_status":null,"persistent_id":"","id":128930705,"location_subtype":"","month":"2025-06"},{"category":"anti-social-behaviour","location_type":"Force","location":{"latitude":"54.894231","street":{"id":1886270,"name":"On or near Ashbrooke Road"},"longitude":"-1.385858"},"context":"","outcome_status":null,"persistent_id":"","id":128930708,"location_subtype":"","month":"2025-06"},{"category":"anti-social-behaviour","location_type":"Force","location":{"latitude":"54.881388","street":{"id":1886682,"name":"On or near Supermarket"},"longitude":"-1.373241"},"context":"","outcome_status":null,"persistent_id":"","id":128931255,"location_subtype":"","month":"2025-06"},{"category":"anti-social-behaviour","location_type":"Force","location":{"latitude":"54.873729","street":{"id":1886823,"name":"On or near Rye View Road"},"longitude":"-1.369339"},"context":"","outcome_status":null,"persistent_id":"","id":128930186,"location_subtype":"","month":"2025-06"},{"category":"anti-social-behaviour","location_type":"Force","location":{"latitude":"54.895270","street":{"id":1886719,"name":"On or near Marion Street"},"longitude":"-1.372791"},"context":"","outcome_status":null,"persistent_id":"","id":128930401,"location_subtype":"","month":"2025-06"},{"category":"anti-social-behaviour","location_type":"Force","location":{"latitude":"54.891019","street":{"id":1886894,"name":"On or near Ashby Street"},"longitude":"-1.367572"},"context":"","outcome_status":null,"persistent_id":"","id":128930402,"location_subtype":"","month":"2025-06"},{"category":"anti-social-behaviour","location_type":"Force","location":{"latitude":"54.894472","street":{"id":1886810,"name":"On or near Hyde Street"},"longitude":"-1.369779"},"context":"","outcome_status":null,"persistent_id":"","id":128930488,"location_subtype":"","month":"2025-06"},{"category":"anti-social-behaviour","location_type":"Force","location":{"latitude":"54.886283","street":{"id":1885994,"name":"On or near Witton Court"},"longitude":"-1.395939"},"context":"","outcome_status":null,"persistent_id":"","id":128930958,"location_subtype":"","month":"2025-06"},{"category":"anti-social-behaviour","location_type":"Force","location":{"latitude":"54.872326","street":{"id":1886529,"name":"On or near Brick Row"},"longitude":"-1.377776"},"context":"","outcome_status":null,"persistent_id":"","id":128930485,"location_subtype":"","month":"2025-06"},{"category":"anti-social-behaviour","location_type":"Force","location":{"latitude":"54.874279","street":{"id":1886114,"name":"On or near The Maltings"},"longitude":"-1.390851"},"context":"","outcome_status":null,"persistent_id":"","id":128929845,"location_subtype":"","month":"2025-06"},{"category":"anti-social-behaviour","location_type":"Force","location":{"latitude":"54.881388","street":{"id":1886682,"name":"On or near Supermarket"},"longitude":"-1.373241"},"context":"","outcome_status":null,"persistent_id":"","id":128929764,"location_subtype":"","month":"2025-06"},{"category":"anti-social-behaviour","location_type":"Force","location":{"latitude":"54.894326","street":{"id":1887002,"name":"On or near Promenade"},"longitude":"-1.364184"},"context":"","outcome_status":null,"persistent_id":"","id":128929688,"location_subtype":"","month":"2025-06"},{"category":"anti-social-behaviour","location_type":"Force","location":{"latitude":"54.892185","street":{"id":1886380,"name":"On or near Further/higher Educational Building"},"longitude":"-1.379341"},"context":"","outcome_status":null,"persistent_id":"","id":128929680,"location_subtype":"","month":"2025-06"},{"category":"anti-social-behaviour","location_type":"Force","location":{"latitude":"54.895270","street":{"id":1886719,"name":"On or near Marion Street"},"longitude":"-1.372791"},"context":"","outcome_status":null,"persistent_id":"","id":128929518,"location_subtype":"","month":"2025-06"},{"category":"anti-social-behaviour","location_type":"Force","location":{"latitude":"54.894472","street":{"id":1886810,"name":"On or near Hyde Street"},"longitude":"-1.369779"},"context":"","outcome_status":null,"persistent_id":"","id":128929443,"location_subtype":"","month":"2025-06"},{"category":"anti-social-behaviour","location_type":"Force","location":{"latitude":"54.899156","street":{"id":1886906,"name":"On or near Noble Terrace"},"longitude":"-1.368474"},"context":"","outcome_status":null,"persistent_id":"","id":128929442,"location_subtype":"","month":"2025-06"},{"category":"anti-social-behaviour","location_type":"Force","location":{"latitude":"54.892970","street":{"id":1887012,"name":"On or near Parking Area"},"longitude":"-1.360978"},"context":"","outcome_status":null,"persistent_id":"","id":128929301,"location_subtype":"","month":"2025-06"},{"category":"anti-social-behaviour","location_type":"Force","location":{"latitude":"54.893864","street":{"id":1886545,"name":"On or near Manila Street"},"longitude":"-1.375510"},"context":"","outcome_status":null,"persistent_id":"","id":128930103,"location_subtype":"","month":"2025-06"},{"category":"anti-social-behaviour","location_type":"Force","location":{"latitude":"54.895270","street":{"id":1886719,"name":"On or near Marion Street"},"longitude":"-1.372791"},"context":"","outcome_status":null,"persistent_id":"","id":128929776,"location_subtype":"","month":"2025-06"},{"category":"burglary","location_type":"Force","location":{"latitude":"54.885819","street":{"id":1886892,"name":"On or near Ryhope Road"},"longitude":"-1.368215"},"context":"","outcome_status":{"category":"Status update unavailable","date":"2025-10"},"persistent_id":"90c54edfc8d3aca1a61e9099b4c64a5095cf42fb93cc2872a53ce7566be00a05","id":128928990,"location_subtype":"","month":"2025-06"},{"category":"burglary","location_type":"Force","location":{"latitude":"54.892709","street":{"id":1886158,"name":"On or near Tunstall Park"},"longitude":"-1.390527"},"context":"","outcome_status":{"category":"Investigation complete; no suspect identified","date":"2025-07"},"persistent_id":"2f9987ccc7bfabae6d43a8ff4fd46f9fefda9ad41e97c67ba82125029ac6e03c","id":128928471,"location_subtype":"","month":"2025-06"},{"category":"burglary","location_type":"Force","location":{"latitude":"54.898350","street":{"id":1886827,"name":"On or near Athol Road"},"longitude":"-1.370763"},"context":"","outcome_status":{"category":"Investigation complete; no suspect identified","date":"2025-06"},"persistent_id":"25de07294ac94844574a2a9e8c246c3e589769c4ff7afe4c0b3f0d1a42f5c8dc","id":128928683,"location_subtype":"","month":"2025-06"},{"category":"burglary","location_type":"Force","location":{"latitude":"54.895270","street":{"id":1886719,"name":"On or near Marion Street"},"longitude":"-1.372791"},"context":"","outcome_status":{"category":"Investigation complete; no suspect identified","date":"2025-06"},"persistent_id":"df590d920665f36869f945f5c4ca1d4d3099fff078602a291bb23b97bdd36659","id":128896905,"location_subtype":"","month":"2025-06"},{"category":"burglary","location_type":"Force","location":{"latitude":"54.898350","street":{"id":1886827,"name":"On or near Athol Road"},"longitude":"-1.370763"},"context":"","outcome_status":{"category":"Investigation complete; no suspect identified","date":"2025-07"},"persistent_id":"4df51dc51ae405d9e0119f0fea21b48e3173668480d40242ab7d88ee1d885a98","id":128928286,"location_subtype":"","month":"2025-06"},{"category":"burglary","location_type":"Force","location":{"latitude":"54.896611","street":{"id":1886599,"name":"On or near Beaumont Street"},"longitude":"-1.374985"},"context":"","outcome_status":{"category":"Status update unavailable","date":"2025-10"},"persistent_id":"511a72cd3a0d7f2c93c2c7cecaca2cfacd39bffb790f0e76d68b8ae9a385fa23","id":128903901,"location_subtype":"","month":"2025-06"},{"category":"burglary","location_type":"Force","location":{"latitude":"54.896697","street":{"id":1886882,"name":"On or near Rosalie Terrace"},"longitude":"-1.369136"},"context":"","outcome_status":{"category":"Investigation complete; no suspect identified","date":"2025-07"},"persistent_id":"8fc6bbe4c48888383388dedfb6e9ec211adb4bc8ee5df971a46eee29a4269878","id":128901946,"location_subtype":"","month":"2025-06"},{"category":"burglary","location_type":"Force","location":{"latitude":"54.895039","street":{"id":1886690,"name":"On or near Ernest Street"},"longitude":"-1.373403"},"context":"","outcome_status":{"category":"Investigation complete; no suspect identified","date":"2025-07"},"persistent_id":"a8b98d9802272bdd7c1dee3778455632af0459fbcb0faa01b682ea404a4fb224","id":128925910,"location_subtype":"","month":"2025-06"},{"category":"burglary","location_type":"Force","location":{"latitude":"54.892709","street":{"id":1886158,"name":"On or near Tunstall Park"},"longitude":"-1.390527"},"context":"","outcome_status":{"category":"Awaiting court outcome","date":"2025-10"},"persistent_id":"b3f42cd92dd0441bb5136037ed3521bad68da3ee8574bf8423c470555c6c619b","id":128925781,"location_subtype":"","month":"2025-06"},{"category":"burglary","location_type":"Force","location":{"latitude":"54.895039","street":{"id":1886690,"name":"On or near Ernest Street"},"longitude":"-1.373403"},"context":"","outcome_status":{"category":"Status update unavailable","date":"2025-10"},"persistent_id":"73aefa5c14f516539c3cfcb66dbd4ca18f9edc0366bf7ae2df8214f00f7e8752","id":128925654,"location_subtype":"","month":"2025-06"},{"category":"burglary","location_type":"Force","location":{"latitude":"54.889683","street":{"id":1886952,"name":"On or near Hastings Terrace"},"longitude":"-1.366517"},"context":"","outcome_status":{"category":"Investigation complete; no suspect identified","date":"2025-09"},"persistent_id":"2ff87548b72f59f3841a6588402ed27bac7bb7b5473114afa433a7f3bb5dc5ef","id":128924099,"location_subtype":"","month":"2025-06"},{"category":"burglary","location_type":"Force","location":{"latitude":"54.899030","street":{"id":1886923,"name":"On or near Ridley Terrace"},"longitude":"-1.368289"},"context":"","outcome_status":{"category":"Investigation complete; no suspect identified","date":"2025-07"},"persistent_id":"e1fc9dc85d0754dcd35033a84de0caaddb4e4cdeca93f52aea13421e1fba2af6","id":128890205,"location_subtype":"","month":"2025-06"},{"category":"burglary","location_type":"Force","location":{"latitude":"54.894472","street":{"id":1886810,"name":"On or near Hyde Street"},"longitude":"-1.369779"},"context":"","outcome_status":{"category":"Investigation complete; no suspect identified","date":"2025-07"},"persistent_id":"c62d19454e74e8ceed40842b70a0572a27a5fc7db46e97df36858a548800861d","id":128926829,"location_subtype":"","month":"2025-06"},{"category":"burglary","location_type":"Force","location":{"latitude":"54.895270","street":{"id":1886719,"name":"On or near Marion Street"},"longitude":"-1.372791"},"context":"","outcome_status":{"category":"Awaiting court outcome","date":"2025-10"},"persistent_id":"b4adfccb11dd675a4037a4aca07b469f87deacde8f78449c839c571975bc7d29","id":128927546,"location_subtype":"","month":"2025-06"},{"category":"burglary","location_type":"Force","location":{"latitude":"54.896223","street":{"id":1886306,"name":"On or near The Grove"},"longitude":"-1.385266"},"context":"","outcome_status":{"category":"Investigation complete; no suspect identified","date":"2025-06"},"persistent_id":"41c3e1844b9bb2e3224feef7518286615bfda49d830b52ef84af1383e7b88d6f","id":128928742,"location_subtype":"","month":"2025-06"},{"category":"criminal-damage-arson","location_type":"Force","location":{"latitude":"54.897276","street":{"id":1886509,"name":"On or near Mowbray Close"},"longitude":"-1.378467"},"context":"","outcome_status":{"category":"Investigation complete; no suspect identified","date":"2025-06"},"persistent_id":"9a4b661d9151a2eb320e64251a2133096361ae62cc4b76a7a8cbe1b403af2a1f","id":128923445,"location_subtype":"","month":"2025-06"},{"category":"criminal-damage-arson","location_type":"Force","location":{"latitude":"54.898350","street":{"id":1886827,"name":"On or near Athol Road"},"longitude":"-1.370763"},"context":"","outcome_status":{"category":"Investigation complete; no suspect identified","date":"2025-06"},"persistent_id":"979487b37d28fa9954b47b370352783b1958a8feaf84be328f29baeb38176682","id":128926194,"location_subtype":"","month":"2025-06"},{"category":"criminal-damage-arson","location_type":"Force","location":{"latitude":"54.896223","street":{"id":1886306,"name":"On or near The Grove"},"longitude":"-1.385266"},"context":"","outcome_status":{"category":"Investigation complete; no suspect identified","date":"2025-06"},"persistent_id":"8f30703334d04a971a7fbd94ae49876917d1b7da331f35d0f7d58b934d14614c","id":128912663,"location_subtype":"","month":"2025-06"},{"category":"criminal-damage-arson","location_type":"Force","location":{"latitude":"54.896013","street":{"id":1886747,"name":"On or near Capulet Terrace"},"longitude":"-1.372359"},"context":"","outcome_status":{"category":"Status update unavailable","date":"2025-10"},"persistent_id":"0e24f3d4a0e64d6cb99188ea5d55d5738a6b00d7c0fabd42b8d2b816755b8530","id":128927487,"location_subtype":"","month":"2025-06"},{"category":"criminal-damage-arson","location_type":"Force","location":{"latitude":"54.884316","street":{"id":1886441,"name":"On or near Hill View Square"},"longitude":"-1.379960"},"context":"","outcome_status":{"category":"Investigation complete; no suspect identified","date":"2025-06"},"persistent_id":"e7bce6beeaabc80829ad63b0f2e5f2277875741796cad4ee7b0d6ef4f3707818","id":128927586,"location_subtype":"","month":"2025-06"},{"category":"criminal-damage-arson","location_type":"Force","location":{"latitude":"54.883493","street":{"id":1886432,"name":"On or near Harcourt Road"},"longitude":"-1.380705"},"context":"","outcome_status":{"category":"Investigation complete; no suspect identified","date":"2025-06"},"persistent_id":"08d17dca310bcc9b40acde23befb71d3b56850b715c14d49fe2acdab073c6380","id":128911990,"location_subtype":"","month":"2025-06"},{"category":"criminal-damage-arson","location_type":"Force","location":{"latitude":"54.886767","street":{"id":1886456,"name":"On or near Moorhill Court"},"longitude":"-1.377771"},"context":"","outcome_status":{"category":"Investigation complete; no suspect identified","date":"2025-06"},"persistent_id":"9e54b8faab29ae18a780474c9e71c3e7ffa5c1292457718ef383cb8b56736d69","id":128905463,"location_subtype":"","month":"2025-06"},{"category":"criminal-damage-arson","location_type":"Force","location":{"latitude":"54.891092","street":{"id":1886256,"name":"On or near Ashbrooke Cross"},"longitude":"-1.387121"},"context":"","outcome_status":{"category":"Investigation complete; no suspect identified","date":"2025-06"},"persistent_id":"838fbbefcff2f1006b44ab2d82a62fdcee961d82eb11b0040273557368d22cb0","id":128911317,"location_subtype":"","month":"2025-06"},{"category":"criminal-damage-arson","location_type":"Force","location":{"latitude":"54.898204","street":{"id":1886267,"name":"On or near Azalea Avenue"},"longitude":"-1.386140"},"context":"","outcome_status":{"category":"Status update unavailable","date":"2025-10"},"persistent_id":"58de536afd968e2c46a526bf5b2a4b92522370220dc6697c7fe32bd29c96c329","id":128916581,"location_subtype":"","month":"2025-06"},{"category":"criminal-damage-arson","location_type":"Force","location":{"latitude":"54.875384","street":{"id":1886740,"name":"On or near Lilian Avenue"},"longitude":"-1.371432"},"context":"","outcome_status":{"category":"Status update unavailable","date":"2025-10"},"persistent_id":"3cd33d29bd197a0309b9d3b9c51dfad72a57aeaea5870d4af604dd04b647c554","id":128914339,"location_subtype":"","month":"2025-06"},{"category":"criminal-damage-arson","location_type":"Force","location":{"latitude":"54.893419","street":{"id":1886899,"name":"On or near Corporation Road"},"longitude":"-1.367675"},"context":"","outcome_status":{"category":"Status update unavailable","date":"2025-10"},"persistent_id":"9f7fab16acc35a950815ca28ff44bfc5a35caba7038ba8257b358e2f0200de28","id":128891415,"location_subtype":"","month":"2025-06"},{"category":"criminal-damage-arson","location_type":"Force","location":{"latitude":"54.898251","street":{"id":1886950,"name":"On or near Mainsforth Terrace"},"longitude":"-1.367209"},"context":"","outcome_status":{"category":"Status update unavailable","date":"2025-10"},"persistent_id":"794a384423f3d473cce7dc1f78195233b2fb26dc8bbde1351ccc318fde917cae","id":128913284,"location_subtype":"","month":"2025-06"},{"category":"criminal-damage-arson","location_type":"Force","location":{"latitude":"54.894472","street":{"id":1886810,"name":"On or near Hyde Street"},"longitude":"-1.369779"},"context":"","outcome_status":{"category":"Investigation complete; no suspect identified","date":"2025-06"},"persistent_id":"57af48ab8d2a8e61f15a197a8eeda27111cc894dfd309f23054cacf4cfd1700d","id":128891039,"location_subtype":"","month":"2025-06"},{"category":"criminal-damage-arson","location_type":"Force","location":{"latitude":"54.896013","street":{"id":1886747,"name":"On or near Capulet Terrace"},"longitude":"-1.372359"},"context":"","outcome_status":{"category":"Status update unavailable","date":"2025-10"},"persistent_id":"b78c7be6c15777ba73ad5b7276a24c4e69f6a15df5d9a953c91fbdd4eca7c090","id":128928738,"location_subtype":"","month":"2025-06"},{"category":"criminal-damage-arson","location_type":"Force","location":{"latitude":"54.898350","street":{"id":1886827,"name":"On or near Athol Road"},"longitude":"-1.370763"},"context":"","outcome_status":{"category":"Investigation complete; no suspect identified","date":"2025-06"},"persistent_id":"dd9a23dc28accb4c1166d7e76ef4eec4bfe5a74050d27cfd60fd9297cbf81d40","id":128926081,"location_subtype":"","month":"2025-06"},{"category":"drugs","location_type":"Force","location":{"latitude":"54.895039","street":{"id":1886690,"name":"On or near Ernest Street"},"longitude":"-1.373403"},"context":"","outcome_status":{"category":"Court result unavailable","date":"2025-12"},"persistent_id":"103010e3400117d78696ec1cf7dc6ad396a00eb8c0e782e3879dfeb186424b4e","id":128895514,"location_subtype":"","month":"2025-06"},{"category":"drugs","location_type":"Force","location":{"latitude":"54.887259","street":{"id":1886838,"name":"On or near Balmoral Terrace"},"longitude":"-1.368722"},"context":"","outcome_status":{"category":"Investigation complete; no suspect identified","date":"2025-06"},"persistent_id":"c0ad9cd320ede71487ad944059fbb6fc94f08e0076eaa3bcc196d5c3e6d617a0","id":128909020,"location_subtype":"","month":"2025-06"},{"category":"drugs","location_type":"Force","location":{"latitude":"54.876674","street":{"id":1887059,"name":"On or near Marine Drive"},"longitude":"-1.361874"},"context":"","outcome_status":{"category":"Status update unavailable","date":"2025-10"},"persistent_id":"affdc2a9c1909cbff02774c183c00581ce4e5380f13eb0b39634c1852fdefa7e","id":128906182,"location_subtype":"","month":"2025-06"},{"category":"drugs","location_type":"Force","location":{"latitude":"54.896262","street":{"id":1886501,"name":"On or near Ashburne Court"},"longitude":"-1.378826"},"context":"","outcome_status":{"category":"Status update unavailable","date":"2025-10"},"persistent_id":"d97226f0b6a4813128080c75051f7fd6383b68a88daabb55b38cbb905b853e50","id":128898333,"location_subtype":"","month":"2025-06"},{"category":"drugs","location_type":"Force","location":{"latitude":"54.893864","street":{"id":1886545,"name":"On or near Manila Street"},"longitude":"-1.375510"},"context":"","outcome_status":{"category":"Status update unavailable","date":"2025-10"},"persistent_id":"55db17d803ae23796d3f8f7483b903f3e6492c8dc910b3a789cb0e939cba5d73","id":128898321,"location_subtype":"","month":"2025-06"},{"category":"drugs","location_type":"Force","location":{"latitude":"54.898846","street":{"id":1886347,"name":"On or near Parking Area"},"longitude":"-1.383292"},"context":"","outcome_status":{"category":"Status update unavailable","date":"2025-10"},"persistent_id":"cb751b2bc6cba001d84190b2f6f883a0b94586dc3ec9d4b4868c596ab07bc504","id":128924258,"location_subtype":"","month":"2025-06"},{"category":"drugs","location_type":"Force","location":{"latitude":"54.898223","street":{"id":1886855,"name":"On or near Tower Street"},"longitude":"-1.368722"},"context":"","outcome_status":{"category":"Status update unavailable","date":"2025-10"},"persistent_id":"bda51b754948159da97aaac736c017ac1e484e57b0d3874a469f322dfedff2b3","id":128900486,"location_subtype":"","month":"2025-06"},{"category":"drugs","location_type":"Force","location":{"latitude":"54.894177","street":{"id":1886763,"name":"On or near Tel-el-kebir Road"},"longitude":"-1.371826"},"context":"","outcome_status":{"category":"Investigation complete; no suspect identified","date":"2025-06"},"persistent_id":"42893527c863dd781e435a9a37253e922b0eb8abec8e1bd0a288864c99d1b806","id":128895378,"location_subtype":"","month":"2025-06"},{"category":"drugs","location_type":"Force","location":{"latitude":"54.890515","street":{"id":1886085,"name":"On or near Hillside Gardens"},"longitude":"-1.392041"},"context":"","outcome_status":{"category":"Investigation complete; no suspect identified","date":"2025-08"},"persistent_id":"35d9c89a69b92ee8de1713002f8d372868c6781431de5b371e77636a22bee93f","id":128904331,"location_subtype":"","month":"2025-06"},{"category":"other-theft","location_type":"Force","location":{"latitude":"54.883618","street":{"id":1886794,"name":"On or near Grangemere Close"},"longitude":"-1.370166"},"context":"","outcome_status":{"category":"Status update unavailable","date":"2025-10"},"persistent_id":"16d09c444b54bb44d31355ddf64172464b4916f3e7d39b51600569c9ba55f1c8","id":128898308,"location_subtype":"","month":"2025-06"},{"category":"other-theft","location_type":"Force","location":{"latitude":"54.894177","street":{"id":1886763,"name":"On or near Tel-el-kebir Road"},"longitude":"-1.371826"},"context":"","outcome_status":{"category":"Investigation complete; no suspect identified","date":"2025-06"},"persistent_id":"a5ad85e974531df4017c2d131589e9800fe6eabad48dd72eeae9ddbce31cb849","id":128899055,"location_subtype":"","month":"2025-06"},{"category":"other-theft","location_type":"Force","location":{"latitude":"54.898350","street":{"id":1886827,"name":"On or near Athol Road"},"longitude":"-1.370763"},"context":"","outcome_status":{"category":"Status update unavailable","date":"2025-10"},"persistent_id":"ee177139195e813b96ffd4f085fd38f22ecf6eef94bfed2dea19ea0f6212571b","id":128897439,"location_subtype":"","month":"2025-06"},{"category":"other-theft","location_type":"Force","location":{"latitude":"54.883974","street":{"id":1886474,"name":"On or near Hill View Road"},"longitude":"-1.378126"},"context":"","outcome_status":{"category":"Status update unavailable","date":"2025-10"},"persistent_id":"5e65b0690d4b099f5d0c285ffe9573910b0b22489ea6c60ad6d8ce52391368c7","id":128899145,"location_subtype":"","month":"2025-06"},{"category":"other-theft","location_type":"Force","location":{"latitude":"54.892736","street":{"id":1886587,"name":"On or near Petrol Station"},"longitude":"-1.376479"},"context":"","outcome_status":{"category":"Investigation complete; no suspect identified","date":"2025-07"},"persistent_id":"9c2adbd1986875386e3d9e1197ec931986298c1ca8ecfae1e7120352f16f6dc3","id":128907148,"location_subtype":"","month":"2025-06"},{"category":"other-theft","location_type":"Force","location":{"latitude":"54.896611","street":{"id":1886599,"name":"On or near Beaumont Street"},"longitude":"-1.374985"},"context":"","outcome_status":{"category":"Status update unavailable","date":"2025-10"},"persistent_id":"d0517fe7e5a24c2b4ae74712a60dcacced8235571dfa61e4b83ad22cecd43d69","id":128908699,"location_subtype":"","month":"2025-06"},{"category":"other-theft","location_type":"Force","location":{"latitude":"54.881388","street":{"id":1886682,"name":"On or near Supermarket"},"longitude":"-1.373241"},"context":"","outcome_status":{"category":"Awaiting court outcome","date":"2025-08"},"persistent_id":"9b54f1b4a036f490312ffe7a43b0b0f8b9c2ded515b649b9984335c28d81727f","id":128909393,"location_subtype":"","month":"2025-06"},{"category":"other-theft","location_type":"Force","location":{"latitude":"54.896651","street":{"id":1886746,"name":"On or near Guildford Street"},"longitude":"-1.372333"},"context":"","outcome_status":{"category":"Investigation complete; no suspect identified","date":"2025-06"},"persistent_id":"5b5b140a290423bb51bf3c031068e6228fb51525c9a139d9a8a3f1116fece9c3","id":128913952,"location_subtype":"","month":"2025-06"},{"category":"other-theft","location_type":"Force","location":{"latitude":"54.896262","street":{"id":1886501,"name":"On or near Ashburne Court"},"longitude":"-1.378826"},"context":"","outcome_status":{"category":"Investigation complete; no suspect identified","date":"2025-06"},"persistent_id":"38744e727cbb7832008aec73d2936370af3c98c4fee8d3e37d1325e3af0d26ac","id":128919923,"location_subtype":"","month":"2025-06"},{"category":"other-theft","location_type":"Force","location":{"latitude":"54.875982","street":{"id":1886592,"name":"On or near Linskell"},"longitude":"-1.375834"},"context":"","outcome_status":{"category":"Status update unavailable","date":"2025-10"},"persistent_id":"b5ea4a5664269c142cc5c03245211d12223f9e5715235392ea9e14ecf4547c63","id":128925537,"location_subtype":"","month":"2025-06"},{"category":"other-theft","location_type":"Force","location":{"latitude":"54.882991","street":{"id":1886563,"name":"On or near Westheath Avenue"},"longitude":"-1.375772"},"context":"","outcome_status":{"category":"Status update unavailable","date":"2025-10"},"persistent_id":"a9665cfbc70643163c2fc0d3cec333cbca48007d9af75b9bd8f0feb379f44641","id":128927937,"location_subtype":"","month":"2025-06"},{"category":"other-theft","location_type":"Force","location":{"latitude":"54.883974","street":{"id":1886474,"name":"On or near Hill View Road"},"longitude":"-1.378126"},"context":"","outcome_status":{"category":"Status update unavailable","date":"2025-10"},"persistent_id":"e35b2b174af74a5cd547e423463e47565d9f60591b1898c0ac4f048a03d6cc7c","id":128928128,"location_subtype":"","month":"2025-06"},{"category":"other-theft","location_type":"Force","location":{"latitude":"54.898919","street":{"id":1886811,"name":"On or near Gray Road"},"longitude":"-1.371160"},"context":"","outcome_status":{"category":"Investigation complete; no suspect identified","date":"2025-06"},"persistent_id":"04332377294ab9c3343664bceced53ce33f38114ce6d8df393bbbf360d3bf23b","id":128905342,"location_subtype":"","month":"2025-06"},{"category":"other-theft","location_type":"Force","location":{"latitude":"54.881881","street":{"id":1887091,"name":"On or near Acklam Avenue"},"longitude":"-1.360888"},"context":"","outcome_status":{"category":"Investigation complete; no suspect identified","date":"2025-06"},"persistent_id":"1fd3320f8cde812ad178a98d557c82683e35a3fab6078ed9c959f0d3e3c400ad","id":128923764,"location_subtype":"","month":"2025-06"},{"category":"other-theft","location_type":"Force","location":{"latitude":"54.896013","street":{"id":1886747,"name":"On or near Capulet Terrace"},"longitude":"-1.372359"},"context":"","outcome_status":{"category":"Investigation complete; no suspect identified","date":"2025-06"},"persistent_id":"5c1b474abdecf9fcd11d4567cff6600da279821f049ce3816a4d2f87cd7d18ae","id":128901782,"location_subtype":"","month":"2025-06"},{"category":"possession-of-weapons","location_type":"Force","location":{"latitude":"54.875854","street":{"id":1886964,"name":"On or near Queen Street"},"longitude":"-1.364926"},"context":"","outcome_status":{"category":"Court result unavailable","date":"2025-12"},"persistent_id":"c26cd5ec5be0fdde4f7822715b661c992399b66007869a739e7b2f0571596f1b","id":128906230,"location_subtype":"","month":"2025-06"},{"category":"possession-of-weapons","location_type":"Force","location":{"latitude":"54.898846","street":{"id":1886347,"name":"On or near Parking Area"},"longitude":"-1.383292"},"context":"","outcome_status":{"category":"Investigation complete; no suspect identified","date":"2025-08"},"persistent_id":"cf9923e06cf765f7fcc7c4825ce063916b27411651cadb452f13c1ed2f52b037","id":128896638,"location_subtype":"","month":"2025-06"},{"category":"public-order","location_type":"Force","location":{"latitude":"54.872253","street":{"id":1886275,"name":"On or near Tunstall Bank"},"longitude":"-1.384696"},"context":"","outcome_status":{"category":"Court result unavailable","date":"2025-12"},"persistent_id":"0533c85bb7825728baedc9beaf070d51cbb4a58d4a555311b6c5fcbcdb2ddaa9","id":128923113,"location_subtype":"","month":"2025-06"},{"category":"public-order","location_type":"Force","location":{"latitude":"54.872326","street":{"id":1886529,"name":"On or near Brick Row"},"longitude":"-1.377776"},"context":"","outcome_status":{"category":"Investigation complete; no suspect identified","date":"2025-06"},"persistent_id":"6e1b3479aa2f667eb1ce1af143d1148e4659359a19723c926edff83f5ab276fb","id":128899316,"location_subtype":"","month":"2025-06"},{"category":"public-order","location_type":"Force","location":{"latitude":"54.895039","street":{"id":1886690,"name":"On or near Ernest Street"},"longitude":"-1.373403"},"context":"","outcome_status":{"category":"Status update unavailable","date":"2025-10"},"persistent_id":"d99b75ff03e88de333bee4f17d26a573670c6dc2803a74d856b17d9ca27d9ff9","id":128895596,"location_subtype":"","month":"2025-06"},{"category":"public-order","location_type":"Force","location":{"latitude":"54.885836","street":{"id":1886036,"name":"On or near Harperley Drive"},"longitude":"-1.394605"},"context":"","outcome_status":{"category":"Status update unavailable","date":"2025-10"},"persistent_id":"90c5e71348fb789dada76a95dedde074d9666070a38f6e8d40560bf609279100","id":128894616,"location_subtype":"","month":"2025-06"},{"category":"public-order","location_type":"Force","location":{"latitude":"54.898223","street":{"id":1886855,"name":"On or near Tower Street"},"longitude":"-1.368722"},"context":"","outcome_status":{"category":"Investigation complete; no suspect identified","date":"2025-06"},"persistent_id":"78f243d832d4761a2d9f7d74cd92e8d82fc28f0a11e1eb3ba19cfe1d1703e26e","id":128922309,"location_subtype":"","month":"2025-06"},{"category":"public-order","location_type":"Force","location":{"latitude":"54.898223","street":{"id":1886855,"name":"On or near Tower Street"},"longitude":"-1.368722"},"context":"","outcome_status":{"category":"Status update unavailable","date":"2025-10"},"persistent_id":"d0d6678aad364a59dfd9374bd9a69114c4a7e18981407892783f02a18b303156","id":128904172,"location_subtype":"","month":"2025-06"},{"category":"robbery","location_type":"Force","location":{"latitude":"54.884335","street":{"id":1886113,"name":"On or near Myrella Crescent"},"longitude":"-1.387224"},"context":"","outcome_status":{"category":"Status update unavailable","date":"2025-10"},"persistent_id":"a6e083e8636fdc14a724f6cf5e1c6e392e71334fa2ed75b929dbf4a4640ec04a","id":128888577,"location_subtype":"","month":"2025-06"},{"category":"robbery","location_type":"Force","location":{"latitude":"54.885022","street":{"id":1886957,"name":"On or near Carnegie Street"},"longitude":"-1.367074"},"context":"","outcome_status":{"category":"Court result unavailable","date":"2026-01"},"persistent_id":"ddeaa1e9adae91dce5a7e6e20f2e7ac8bc0bbd33dd27b30d87a6aa6d72f1b8f6","id":128889937,"location_subtype":"","month":"2025-06"},{"category":"robbery","location_type":"Force","location":{"latitude":"54.892723","street":{"id":1886713,"name":"On or near Percy Terrace"},"longitude":"-1.372223"},"context":"","outcome_status":{"category":"Investigation complete; no suspect identified","date":"2025-08"},"persistent_id":"c951718b5e576790b5d299f0dc50db78d04c0d853d83e46454074639bae77ce0","id":128888671,"location_subtype":"","month":"2025-06"},{"category":"shoplifting","location_type":"Force","location":{"latitude":"54.897462","street":{"id":1886937,"name":"On or near St Barnabas Way"},"longitude":"-1.367612"},"context":"","outcome_status":{"category":"Status update unavailable","date":"2025-10"},"persistent_id":"e4b043cedd95a3bff7f1ef6951c1b5c1da12f591fc587906c950d9cf2960fe59","id":128890287,"location_subtype":"","month":"2025-06"},{"category":"shoplifting","location_type":"Force","location":{"latitude":"54.894582","street":{"id":1886653,"name":"On or near Villette Road"},"longitude":"-1.373613"},"context":"","outcome_status":{"category":"Investigation complete; no suspect identified","date":"2025-06"},"persistent_id":"5ed14eec8788d6c8774835ed54c1f3cf401781a160f565dbbb99de6bd849f0d2","id":128924607,"location_subtype":"","month":"2025-06"},{"category":"shoplifting","location_type":"Force","location":{"latitude":"54.894582","street":{"id":1886653,"name":"On or near Villette Road"},"longitude":"-1.373613"},"context":"","outcome_status":{"category":"Investigation complete; no suspect identified","date":"2025-06"},"persistent_id":"6feaab7dc60256012efff52034f046f54f331450f826d14d123ebf5dbda32b07","id":128924666,"location_subtype":"","month":"2025-06"},{"category":"shoplifting","location_type":"Force","location":{"latitude":"54.894582","street":{"id":1886653,"name":"On or near Villette Road"},"longitude":"-1.373613"},"context":"","outcome_status":{"category":"Investigation complete; no suspect identified","date":"2025-06"},"persistent_id":"333425feb40a96a0e0275dccb013c383c96d8e077b76f6aaa44b5ad72971d0bf","id":128915637,"location_subtype":"","month":"2025-06"},{"category":"shoplifting","location_type":"Force","location":{"latitude":"54.881388","street":{"id":1886682,"name":"On or near Supermarket"},"longitude":"-1.373241"},"context":"","outcome_status":{"category":"Investigation complete; no suspect identified","date":"2025-07"},"persistent_id":"2edd92b53f5dae55a6c4ed20a1ba010dc22b20a3eda672326590a0573278d874","id":128928562,"location_subtype":"","month":"2025-06"},{"category":"shoplifting","location_type":"Force","location":{"latitude":"54.897462","street":{"id":1886937,"name":"On or near St Barnabas Way"},"longitude":"-1.367612"},"context":"","outcome_status":{"category":"Status update unavailable","date":"2025-10"},"persistent_id":"dfbeea7c3378a0da240e76efcdc314f5655207552ed18cda05decad3260dc399","id":128904356,"location_subtype":"","month":"2025-06"},{"category":"shoplifting","location_type":"Force","location":{"latitude":"54.895039","street":{"id":1886690,"name":"On or near Ernest Street"},"longitude":"-1.373403"},"context":"","outcome_status":{"category":"Status update unavailable","date":"2025-10"},"persistent_id":"c872de44d71e3e1cf66bedadf20b7dd4964c2047392beae28f41a3db7f55a042","id":128903669,"location_subtype":"","month":"2025-06"},{"category":"shoplifting","location_type":"Force","location":{"latitude":"54.886511","street":{"id":1886266,"name":"On or near Laurel Grove"},"longitude":"-1.385788"},"context":"","outcome_status":{"category":"Court result unavailable","date":"2026-01"},"persistent_id":"70109018b6520b8d8fa7190406244adbd340e270c7fc91e543252cac286bd03c","id":128906193,"location_subtype":"","month":"2025-06"},{"category":"shoplifting","location_type":"Force","location":{"latitude":"54.892736","street":{"id":1886587,"name":"On or near Petrol Station"},"longitude":"-1.376479"},"context":"","outcome_status":{"category":"Investigation complete; no suspect identified","date":"2025-09"},"persistent_id":"a1f27bcc3bb21f6790d58189d29db92a3dcc421162ac033fd5fba992c932fcaf","id":128923985,"location_subtype":"","month":"2025-06"},{"category":"shoplifting","location_type":"Force","location":{"latitude":"54.894582","street":{"id":1886653,"name":"On or near Villette Road"},"longitude":"-1.373613"},"context":"","outcome_status":{"category":"Investigation complete; no suspect identified","date":"2025-06"},"persistent_id":"86b44563ef44bc080d79954503f01aaa12edf17d41c21041753a8fbe61f6a12f","id":128921076,"location_subtype":"","month":"2025-06"},{"category":"shoplifting","location_type":"Force","location":{"latitude":"54.892736","street":{"id":1886587,"name":"On or near Petrol Station"},"longitude":"-1.376479"},"context":"","outcome_status":{"category":"Investigation complete; no suspect identified","date":"2025-09"},"persistent_id":"c38347114ad1b35e3c1c643c88c9a69caa5e73c9abb07544952dd144640e2cfc","id":128925289,"location_subtype":"","month":"2025-06"},{"category":"shoplifting","location_type":"Force","location":{"latitude":"54.894582","street":{"id":1886653,"name":"On or near Villette Road"},"longitude":"-1.373613"},"context":"","outcome_status":{"category":"Court result unavailable","date":"2025-12"},"persistent_id":"c8bdb8500c2979cf2361b514dc95576371bd5aceb56bd1bb0f00ee3fe7479b1f","id":128903763,"location_subtype":"","month":"2025-06"},{"category":"theft-from-the-person","location_type":"Force","location":{"latitude":"54.875375","street":{"id":1886870,"name":"On or near Lynden Road"},"longitude":"-1.367817"},"context":"","outcome_status":{"category":"Status update unavailable","date":"2025-10"},"persistent_id":"0e0d4da90a2ff87de3b588e330c10d3abe7bcc002c57ea13a28b4753e19c6f5d","id":128903402,"location_subtype":"","month":"2025-06"},{"category":"vehicle-crime","location_type":"Force","location":{"latitude":"54.894177","street":{"id":1886763,"name":"On or near Tel-el-kebir Road"},"longitude":"-1.371826"},"context":"","outcome_status":{"category":"Investigation complete; no suspect identified","date":"2025-06"},"persistent_id":"7cc02c45b49324dcf27c50150c8075906abeeeadea40f210bd9628936983f155","id":128919019,"location_subtype":"","month":"2025-06"},{"category":"vehicle-crime","location_type":"Force","location":{"latitude":"54.893914","street":{"id":1886137,"name":"On or near Belle Vue Road"},"longitude":"-1.390727"},"context":"","outcome_status":{"category":"Investigation complete; no suspect identified","date":"2025-06"},"persistent_id":"77b8c2391722982ae435dcd201bc41f9d4050f096786b2f8cda1c6531e6f1af7","id":128903299,"location_subtype":"","month":"2025-06"},{"category":"vehicle-crime","location_type":"Force","location":{"latitude":"54.891757","street":{"id":1885977,"name":"On or near Audley Gardens"},"longitude":"-1.396154"},"context":"","outcome_status":{"category":"Investigation complete; no suspect identified","date":"2025-06"},"persistent_id":"a4598829d01454ca1d5b15c0663ae748df6be7b1d34181158c282fd6f79c9463","id":128898948,"location_subtype":"","month":"2025-06"},{"category":"vehicle-crime","location_type":"Force","location":{"latitude":"54.887259","street":{"id":1886838,"name":"On or near Balmoral Terrace"},"longitude":"-1.368722"},"context":"","outcome_status":{"category":"Investigation complete; no suspect identified","date":"2025-06"},"persistent_id":"65e1f8e7fd8b6697248b1ba569c6d014d7210277bf63b08905c61d6fc38dc01d","id":128925751,"location_subtype":"","month":"2025-06"},{"category":"vehicle-crime","location_type":"Force","location":{"latitude":"54.889020","street":{"id":1886132,"name":"On or near Larkfield Road"},"longitude":"-1.389772"},"context":"","outcome_status":{"category":"Status update unavailable","date":"2025-10"},"persistent_id":"263f443c81f6a154111e54e484b01949f68a0d07ad05f86f2d0341158d5e214f","id":128900506,"location_subtype":"","month":"2025-06"},{"category":"vehicle-crime","location_type":"Force","location":{"latitude":"54.891757","street":{"id":1885977,"name":"On or near Audley Gardens"},"longitude":"-1.396154"},"context":"","outcome_status":{"category":"Status update unavailable","date":"2025-10"},"persistent_id":"b61edcf38a2e94ee27d244785c415bd075942a7370078d05b42a85d88cd028ec","id":128904645,"location_subtype":"","month":"2025-06"},{"category":"violent-crime","location_type":"Force","location":{"latitude":"54.885670","street":{"id":1887004,"name":"On or near Margaret Street"},"longitude":"-1.361997"},"context":"","outcome_status":{"category":"Status update unavailable","date":"2025-10"},"persistent_id":"52a8ab674d69fe55de502e37422f999a564c39806d6448dd46d66627d0daf542","id":128923857,"location_subtype":"","month":"2025-06"},{"category":"violent-crime","location_type":"Force","location":{"latitude":"54.891913","street":{"id":1886834,"name":"On or near Hastings Street"},"longitude":"-1.370193"},"context":"","outcome_status":{"category":"Investigation complete; no suspect identified","date":"2025-06"},"persistent_id":"c2e11c0c9ab62062694a01334193424c4fe9edf9958ba7989c5c4b3160db44b2","id":128894530,"location_subtype":"","month":"2025-06"},{"category":"violent-crime","location_type":"Force","location":{"latitude":"54.889683","street":{"id":1886952,"name":"On or near Hastings Terrace"},"longitude":"-1.366517"},"context":"","outcome_status":{"category":"Investigation complete; no suspect identified","date":"2025-06"},"persistent_id":"554969cbe1cf99788e35dd6b56fd638c3648ac7daeaaead6db3e761bb826ad98","id":128894190,"location_subtype":"","month":"2025-06"},{"category":"violent-crime","location_type":"Force","location":{"latitude":"54.885277","street":{"id":1886801,"name":"On or near Weybourne Square"},"longitude":"-1.371091"},"context":"","outcome_status":{"category":"Status update unavailable","date":"2025-10"},"persistent_id":"17e7bd5448da500944b6305fdfe163c438d8cfa1eb8b7fea5785da0a17b53f4f","id":128893387,"location_subtype":"","month":"2025-06"},{"category":"violent-crime","location_type":"Force","location":{"latitude":"54.898319","street":{"id":1886453,"name":"On or near Mowbray Road"},"longitude":"-1.378732"},"context":"","outcome_status":{"category":"Status update unavailable","date":"2025-10"},"persistent_id":"0eca8c5bd135f9db80a0f2b10ee8e1cde241b54d55ddd87751ccafcb87c30399","id":128926172,"location_subtype":"","month":"2025-06"},{"category":"violent-crime","location_type":"Force","location":{"latitude":"54.898350","street":{"id":1886827,"name":"On or near Athol Road"},"longitude":"-1.370763"},"context":"","outcome_status":{"category":"Status update unavailable","date":"2025-10"},"persistent_id":"1cec8b56720be1e51fe19fc90c2c30c9254568874dd0771fae39ddb1074aed05","id":128927422,"location_subtype":"","month":"2025-06"},{"category":"violent-crime","location_type":"Force","location":{"latitude":"54.882991","street":{"id":1886563,"name":"On or near Westheath Avenue"},"longitude":"-1.375772"},"context":"","outcome_status":{"category":"Status update unavailable","date":"2025-10"},"persistent_id":"00edd7dcc9ddd426b2b94cdf1d621a71fdacac6dd1e4c40cfcd0919505dcbbfb","id":128927427,"location_subtype":"","month":"2025-06"},{"category":"violent-crime","location_type":"Force","location":{"latitude":"54.895263","street":{"id":1886298,"name":"On or near West Lawn"},"longitude":"-1.385655"},"context":"","outcome_status":{"category":"Status update unavailable","date":"2025-10"},"persistent_id":"40699db44971e62a714cd1cab2e8552c3f156a1c12c8c985e5a8800b79101527","id":128892705,"location_subtype":"","month":"2025-06"},{"category":"violent-crime","location_type":"Force","location":{"latitude":"54.896752","street":{"id":1886123,"name":"On or near Brookside Gardens"},"longitude":"-1.390372"},"context":"","outcome_status":{"category":"Status update unavailable","date":"2025-10"},"persistent_id":"64f156de7a6cad3b3382eba100f67478b9956951826f568e1cf801246e2f3088","id":128927796,"location_subtype":"","month":"2025-06"},{"category":"violent-crime","location_type":"Force","location":{"latitude":"54.889683","street":{"id":1886952,"name":"On or near Hastings Terrace"},"longitude":"-1.366517"},"context":"","outcome_status":{"category":"Status update unavailable","date":"2025-10"},"persistent_id":"875370a91c358b051b0a57105228a250457dac57f9a699d0fd19b1ec5da5a6a7","id":128928221,"location_subtype":"","month":"2025-06"},{"category":"violent-crime","location_type":"Force","location":{"latitude":"54.876595","street":{"id":1886932,"name":"On or near Lyngrove"},"longitude":"-1.367517"},"context":"","outcome_status":{"category":"Investigation complete; no suspect identified","date":"2025-07"},"persistent_id":"06475cf7663e3a3faa2ee08439d7ecfa5c4bc711ee2363ee2bf312067edc21e8","id":128892493,"location_subtype":"","month":"2025-06"},{"category":"violent-crime","location_type":"Force","location":{"latitude":"54.875177","street":{"id":1886614,"name":"On or near Attlee Grove"},"longitude":"-1.373025"},"context":"","outcome_status":{"category":"Status update unavailable","date":"2025-10"},"persistent_id":"2dd49a02347759e8babd2abd0a5f4dc507efee4ce67c0f475069d61554bab470","id":128928282,"location_subtype":"","month":"2025-06"},{"category":"violent-crime","location_type":"Force","location":{"latitude":"54.896223","street":{"id":1886306,"name":"On or near The Grove"},"longitude":"-1.385266"},"context":"","outcome_status":{"category":"Status update unavailable","date":"2025-10"},"persistent_id":"8ba57bbd114f0374ecbedf000a0016b2ad3890eca1aa23516c1d81901a2111a8","id":128892248,"location_subtype":"","month":"2025-06"},{"category":"violent-crime","location_type":"Force","location":{"latitude":"54.893479","street":{"id":1886792,"name":"On or near Fuller Road"},"longitude":"-1.370558"},"context":"","outcome_status":{"category":"Status update unavailable","date":"2025-10"},"persistent_id":"97b54db98623b7b7a78d5df6a314a70781bf2cc92814f3788151a9e7712db269","id":128928410,"location_subtype":"","month":"2025-06"},{"category":"violent-crime","location_type":"Force","location":{"latitude":"54.893479","street":{"id":1886792,"name":"On or near Fuller Road"},"longitude":"-1.370558"},"context":"","outcome_status":{"category":"Status update unavailable","date":"2025-10"},"persistent_id":"b9129c615968fcf734290f085df275f08efc28e2c9d6ea539e34af03c8624d59","id":128928414,"location_subtype":"","month":"2025-06"},{"category":"violent-crime","location_type":"Force","location":{"latitude":"54.899159","street":{"id":1886325,"name":"On or near Carlyon Street"},"longitude":"-1.384785"},"context":"","outcome_status":{"category":"Status update unavailable","date":"2025-10"},"persistent_id":"22d21a5061d8b8d1ff52f3291a3d1bcbfde22fff0d689801c6244c1eb786f4b3","id":128891953,"location_subtype":"","month":"2025-06"},{"category":"violent-crime","location_type":"Force","location":{"latitude":"54.883411","street":{"id":1886738,"name":"On or near Whitemere Close"},"longitude":"-1.371744"},"context":"","outcome_status":{"category":"Status update unavailable","date":"2025-10"},"persistent_id":"b0f97c9f47084339878f5362091b1fa1084b08c3ef60ea134a04c256e37c2c97","id":128928590,"location_subtype":"","month":"2025-06"},{"category":"violent-crime","location_type":"Force","location":{"latitude":"54.893479","street":{"id":1886792,"name":"On or near Fuller Road"},"longitude":"-1.370558"},"context":"","outcome_status":{"category":"Status update unavailable","date":"2025-10"},"persistent_id":"b44be8f93880164c107740a3a8406935c36afbed157d7ff0f8159a6400bed440","id":128890839,"location_subtype":"","month":"2025-06"},{"category":"violent-crime","location_type":"Force","location":{"latitude":"54.895082","street":{"id":1886322,"name":"On or near Corby Gate"},"longitude":"-1.383521"},"context":"","outcome_status":{"category":"Status update unavailable","date":"2025-10"},"persistent_id":"a7d03b5514e99bb9c225d8ff2084186deaea6d0f33fb2cbba0aecf8aae760260","id":128890621,"location_subtype":"","month":"2025-06"},{"category":"violent-crime","location_type":"Force","location":{"latitude":"54.899237","street":{"id":1886539,"name":"On or near Toward Road"},"longitude":"-1.377221"},"context":"","outcome_status":{"category":"Offender given a caution","date":"2025-10"},"persistent_id":"99fbe7cb2f63066ba89ab7fe24c46574a87dff249090580482a28aa4765d532c","id":128890510,"location_subtype":"","month":"2025-06"},{"category":"violent-crime","location_type":"Force","location":{"latitude":"54.895993","street":{"id":1886668,"name":"On or near Edith Street"},"longitude":"-1.373606"},"context":"","outcome_status":{"category":"Status update unavailable","date":"2025-10"},"persistent_id":"c00484ffa41a4eb94eeaebdead6d4ef7519e7f3b9bde789aa00f7583cec9e258","id":128890295,"location_subtype":"","month":"2025-06"},{"category":"violent-crime","location_type":"Force","location":{"latitude":"54.896223","street":{"id":1886306,"name":"On or near The Grove"},"longitude":"-1.385266"},"context":"","outcome_status":{"category":"Investigation complete; no suspect identified","date":"2025-07"},"persistent_id":"c19c157aa33f471ee78cdf013070be772d46bdcff9145906113518f14fa357b4","id":128889509,"location_subtype":"","month":"2025-06"},{"category":"violent-crime","location_type":"Force","location":{"latitude":"54.878181","street":{"id":1886430,"name":"On or near Sandsay Close"},"longitude":"-1.378745"},"context":"","outcome_status":{"category":"Investigation complete; no suspect identified","date":"2026-01"},"persistent_id":"f3d4668419540294499fbe780de38b96fc3320a5694d861368a42d422ff10a7d","id":128888018,"location_subtype":"","month":"2025-06"},{"category":"violent-crime","location_type":"Force","location":{"latitude":"54.885584","street":{"id":1886706,"name":"On or near Wroxham Court"},"longitude":"-1.373238"},"context":"","outcome_status":{"category":"Status update unavailable","date":"2025-10"},"persistent_id":"6a02b0fe1dd1a48e9365e4a68a6607057c4171911baeb01d43ef6c0dee2dab0e","id":128887688,"location_subtype":"","month":"2025-06"},{"category":"violent-crime","location_type":"Force","location":{"latitude":"54.883974","street":{"id":1886474,"name":"On or near Hill View Road"},"longitude":"-1.378126"},"context":"","outcome_status":{"category":"Status update unavailable","date":"2025-10"},"persistent_id":"b99f7f779d2576c7e7a1e8227059e97df5b9fcb41dd52fbbcf85563e05984afd","id":128925993,"location_subtype":"","month":"2025-06"},{"category":"violent-crime","location_type":"Force","location":{"latitude":"54.891336","street":{"id":1886567,"name":"On or near Belford Terrace"},"longitude":"-1.376719"},"context":"","outcome_status":{"category":"Status update unavailable","date":"2025-10"},"persistent_id":"0806c964c666771506e51d01511b4e75050219dff9f22eeaba91773e27ef73db","id":128924750,"location_subtype":"","month":"2025-06"},{"category":"violent-crime","location_type":"Force","location":{"latitude":"54.894582","street":{"id":1886653,"name":"On or near Villette Road"},"longitude":"-1.373613"},"context":"","outcome_status":{"category":"Investigation complete; no suspect identified","date":"2025-08"},"persistent_id":"e8c16944f4f4237eca00b7856bc2e4496cdb679110329dd5ad9264e88b251637","id":128923332,"location_subtype":"","month":"2025-06"},{"category":"violent-crime","location_type":"Force","location":{"latitude":"54.897175","street":{"id":1886303,"name":"On or near The Avenue"},"longitude":"-1.385158"},"context":"","outcome_status":{"category":"Status update unavailable","date":"2025-10"},"persistent_id":"e876923b578f24fbe17d8348bfbc7dec0205bea9e094b48b161fb1818108e538","id":128906167,"location_subtype":"","month":"2025-06"},{"category":"violent-crime","location_type":"Force","location":{"latitude":"54.891019","street":{"id":1886894,"name":"On or near Ashby Street"},"longitude":"-1.367572"},"context":"","outcome_status":{"category":"Status update unavailable","date":"2025-10"},"persistent_id":"8b5dcc5c8908e0cbc31c1c992546955b63642e51921001a05236e3541e23b3e8","id":128905935,"location_subtype":"","month":"2025-06"},{"category":"violent-crime","location_type":"Force","location":{"latitude":"54.891019","street":{"id":1886894,"name":"On or near Ashby Street"},"longitude":"-1.367572"},"context":"","outcome_status":{"category":"Investigation complete; no suspect identified","date":"2025-07"},"persistent_id":"701f45e043b802b3f7981b0d6933cc46a43baa1c49de3d22d0690739af0ea927","id":128904360,"location_subtype":"","month":"2025-06"},{"category":"violent-crime","location_type":"Force","location":{"latitude":"54.896223","street":{"id":1886306,"name":"On or near The Grove"},"longitude":"-1.385266"},"context":"","outcome_status":{"category":"Status update unavailable","date":"2025-10"},"persistent_id":"428be6ad00d2aeaa08094efc5017ae546b03b108837d415df0b026f7b97af4d0","id":128903606,"location_subtype":"","month":"2025-06"},{"category":"violent-crime","location_type":"Force","location":{"latitude":"54.895993","street":{"id":1886668,"name":"On or near Edith Street"},"longitude":"-1.373606"},"context":"","outcome_status":{"category":"Investigation complete; no suspect identified","date":"2025-08"},"persistent_id":"d0bceae6e82317691ffb35c1b8625f84b04bf0d76b599e2048481bb0bcb3a40d","id":128903239,"location_subtype":"","month":"2025-06"},{"category":"violent-crime","location_type":"Force","location":{"latitude":"54.898319","street":{"id":1886453,"name":"On or near Mowbray Road"},"longitude":"-1.378732"},"context":"","outcome_status":{"category":"Investigation complete; no suspect identified","date":"2025-06"},"persistent_id":"81fc530f4baf4e05723d019b89d252e423cd2eea0c329ac9309685c9c6ec45cb","id":128924107,"location_subtype":"","month":"2025-06"},{"category":"violent-crime","location_type":"Force","location":{"latitude":"54.883726","street":{"id":1887039,"name":"On or near St Aidan's Avenue"},"longitude":"-1.363228"},"context":"","outcome_status":{"category":"Court result unavailable","date":"2025-12"},"persistent_id":"958971597dfae43d76e482ac53c239af03eb95393ce5b14bc687369a6149e366","id":128905448,"location_subtype":"","month":"2025-06"},{"category":"violent-crime","location_type":"Force","location":{"latitude":"54.896611","street":{"id":1886599,"name":"On or near Beaumont Street"},"longitude":"-1.374985"},"context":"","outcome_status":{"category":"Status update unavailable","date":"2025-10"},"persistent_id":"cb0a636b327e450bf7f516c9acd6123f2b0ae82315cd2eb34f39064065a7e7f7","id":128900944,"location_subtype":"","month":"2025-06"},{"category":"violent-crime","location_type":"Force","location":{"latitude":"54.897445","street":{"id":1886718,"name":"On or near Hendon Valley Road"},"longitude":"-1.372898"},"context":"","outcome_status":{"category":"Investigation complete; no suspect identified","date":"2026-01"},"persistent_id":"d766453f97057b5de0fa38d2d97068a0b22699bca3fe35ed2ec494994106f8b1","id":128903912,"location_subtype":"","month":"2025-06"},{"category":"violent-crime","location_type":"Force","location":{"latitude":"54.895082","street":{"id":1886322,"name":"On or near Corby Gate"},"longitude":"-1.383521"},"context":"","outcome_status":{"category":"Investigation complete; no suspect identified","date":"2025-11"},"persistent_id":"c97067250dcb25320a9b3e92eb996eb815b224956dcfe14e8e20b994ade9e453","id":128905898,"location_subtype":"","month":"2025-06"},{"category":"violent-crime","location_type":"Force","location":{"latitude":"54.899159","street":{"id":1886856,"name":"On or near Noble Street"},"longitude":"-1.368988"},"context":"","outcome_status":{"category":"Status update unavailable","date":"2025-10"},"persistent_id":"6c4fcedb5958b9ab1cfe27302334804882c6e760aaf82d7dab5855bca53a278e","id":128906308,"location_subtype":"","month":"2025-06"},{"category":"violent-crime","location_type":"Force","location":{"latitude":"54.893864","street":{"id":1886545,"name":"On or near Manila Street"},"longitude":"-1.375510"},"context":"","outcome_status":{"category":"Investigation complete; no suspect identified","date":"2025-07"},"persistent_id":"dff8a97357e1e403abb566f2196b91d97e4176ee128eb865a434500a3112ca4c","id":128927408,"location_subtype":"","month":"2025-06"},{"category":"violent-crime","location_type":"Force","location":{"latitude":"54.899173","street":{"id":1886766,"name":"On or near Suffolk Street"},"longitude":"-1.371623"},"context":"","outcome_status":{"category":"Status update unavailable","date":"2025-10"},"persistent_id":"7bb1f31b49b20f1a2136374e419e3e7daed03f4a1ef2cc943be859dc35ebab17","id":128909258,"location_subtype":"","month":"2025-06"},{"category":"violent-crime","location_type":"Force","location":{"latitude":"54.896651","street":{"id":1886746,"name":"On or near Guildford Street"},"longitude":"-1.372333"},"context":"","outcome_status":{"category":"Status update unavailable","date":"2025-10"},"persistent_id":"218fcaa398c986c50577dcf350dbea62c09856e357d3955c82c0be7a8a7f30ed","id":128910074,"location_subtype":"","month":"2025-06"},{"category":"violent-crime","location_type":"Force","location":{"latitude":"54.885819","street":{"id":1886892,"name":"On or near Ryhope Road"},"longitude":"-1.368215"},"context":"","outcome_status":{"category":"Investigation complete; no suspect identified","date":"2025-10"},"persistent_id":"8b313aa0cb2ba151e82024fb7a92d04eec1ad4dad8f1e30f366f7262d33c64eb","id":128896473,"location_subtype":"","month":"2025-06"},{"category":"violent-crime","location_type":"Force","location":{"latitude":"54.894472","street":{"id":1886810,"name":"On or near Hyde Street"},"longitude":"-1.369779"},"context":"","outcome_status":{"category":"Status update unavailable","date":"2025-10"},"persistent_id":"5d6e5b7e175fb9f546a3f752c29ca1ad2b373c8b93b4b6c9a9aa9ead0efcaecb","id":128911934,"location_subtype":"","month":"2025-06"},{"category":"violent-crime","location_type":"Force","location":{"latitude":"54.897633","street":{"id":1886809,"name":"On or near Buddle Terrace"},"longitude":"-1.371024"},"context":"","outcome_status":{"category":"Status update unavailable","date":"2025-10"},"persistent_id":"44aee64bb0d34d92e0d7d5e3d47d70ead366f6b71bb2a333b83dee0e9f986f66","id":128895719,"location_subtype":"","month":"2025-06"},{"category":"violent-crime","location_type":"Force","location":{"latitude":"54.895082","street":{"id":1886322,"name":"On or near Corby Gate"},"longitude":"-1.383521"},"context":"","outcome_status":{"category":"Investigation complete; no suspect identified","date":"2025-08"},"persistent_id":"730d105c4e63ce96cd4f99dfe03ee019d83dc4f99d51578eb4354f29b6415f2e","id":128912229,"location_subtype":"","month":"2025-06"},{"category":"violent-crime","location_type":"Force","location":{"latitude":"54.897445","street":{"id":1886718,"name":"On or near Hendon Valley Road"},"longitude":"-1.372898"},"context":"","outcome_status":{"category":"Status update unavailable","date":"2025-10"},"persistent_id":"2ac9223e0f8de1d34f76dc2b8db9995a21929168cb1fd56bd1c241951bb4a1ea","id":128913560,"location_subtype":"","month":"2025-06"},{"category":"violent-crime","location_type":"Force","location":{"latitude":"54.898251","street":{"id":1886950,"name":"On or near Mainsforth Terrace"},"longitude":"-1.367209"},"context":"","outcome_status":{"category":"Status update unavailable","date":"2025-10"},"persistent_id":"256008d94af983bbef29e712c4b136e40d1c64a8637615c30889d4ec93b51ef0","id":128913649,"location_subtype":"","month":"2025-06"},{"category":"violent-crime","location_type":"Force","location":{"latitude":"54.884335","street":{"id":1886113,"name":"On or near Myrella Crescent"},"longitude":"-1.387224"},"context":"","outcome_status":{"category":"Investigation complete; no suspect identified","date":"2025-10"},"persistent_id":"351e8faaae00887882d69b01b51d22c9273a60c94ab0bdf8585ede261061a0c8","id":128888358,"location_subtype":"","month":"2025-06"},{"category":"violent-crime","location_type":"Force","location":{"latitude":"54.891913","street":{"id":1886834,"name":"On or near Hastings Street"},"longitude":"-1.370193"},"context":"","outcome_status":{"category":"Investigation complete; no suspect identified","date":"2025-06"},"persistent_id":"24df0cac32426fbd96b73e3375e1f87794805e6fe19efdc5d1217e267d1a9c3e","id":128894555,"location_subtype":"","month":"2025-06"},{"category":"violent-crime","location_type":"Force","location":{"latitude":"54.875854","street":{"id":1886964,"name":"On or near Queen Street"},"longitude":"-1.364926"},"context":"","outcome_status":{"category":"Status update unavailable","date":"2025-10"},"persistent_id":"b0b4ea798d7b2ef914655ecb30f86e331395ce25e7822d04c402363e40dca898","id":128914703,"location_subtype":"","month":"2025-06"},{"category":"violent-crime","location_type":"Force","location":{"latitude":"54.875854","street":{"id":1886964,"name":"On or near Queen Street"},"longitude":"-1.364926"},"context":"","outcome_status":{"category":"Court result unavailable","date":"2025-12"},"persistent_id":"17fc111e9038dd9434caca2c8ca4114934f31572c76312f45a8b5e7223cbe15f","id":128914675,"location_subtype":"","month":"2025-06"},{"category":"violent-crime","location_type":"Force","location":{"latitude":"54.899156","street":{"id":1886906,"name":"On or near Noble Terrace"},"longitude":"-1.368474"},"context":"","outcome_status":{"category":"Investigation complete; no suspect identified","date":"2025-08"},"persistent_id":"905b07b6aa095147d8b217fb9946a8ca1f72ecf03e1b0470440b38140346296c","id":128915015,"location_subtype":"","month":"2025-06"},{"category":"violent-crime","location_type":"Force","location":{"latitude":"54.875854","street":{"id":1886964,"name":"On or near Queen Street"},"longitude":"-1.364926"},"context":"","outcome_status":{"category":"Status update unavailable","date":"2025-10"},"persistent_id":"21f2abf4a6811e9a95cb377e45de9c147e4c0b61dcf90166db185ee5ada739e6","id":128915805,"location_subtype":"","month":"2025-06"},{"category":"violent-crime","location_type":"Force","location":{"latitude":"54.875854","street":{"id":1886964,"name":"On or near Queen Street"},"longitude":"-1.364926"},"context":"","outcome_status":{"category":"Status update unavailable","date":"2025-10"},"persistent_id":"50fb6142317e2478346e3e9042160918a34995d403eb588f33234261c7fcbea0","id":128916796,"location_subtype":"","month":"2025-06"},{"category":"violent-crime","location_type":"Force","location":{"latitude":"54.891019","street":{"id":1886894,"name":"On or near Ashby Street"},"longitude":"-1.367572"},"context":"","outcome_status":{"category":"Status update unavailable","date":"2025-10"},"persistent_id":"9fcef8c9ccc75a63dcdc039e269de193984edb77d60e744eff3c89439f114c45","id":128917531,"location_subtype":"","month":"2025-06"},{"category":"violent-crime","location_type":"Force","location":{"latitude":"54.883974","street":{"id":1886474,"name":"On or near Hill View Road"},"longitude":"-1.378126"},"context":"","outcome_status":{"category":"Status update unavailable","date":"2025-10"},"persistent_id":"86fb685f139cc8c9eb166b7d47b82c816e03c1cc96a5e7e1da436e120bbacf7c","id":128917933,"location_subtype":"","month":"2025-06"},{"category":"violent-crime","location_type":"Force","location":{"latitude":"54.897324","street":{"id":1886171,"name":"On or near Thornhill Gardens"},"longitude":"-1.389787"},"context":"","outcome_status":{"category":"Investigation complete; no suspect identified","date":"2025-09"},"persistent_id":"0b286bf17da578d6edbdb48f2797733c7e0fab51cd38b94cf7bd06e817d451bc","id":128918222,"location_subtype":"","month":"2025-06"},{"category":"violent-crime","location_type":"Force","location":{"latitude":"54.883411","street":{"id":1886738,"name":"On or near Whitemere Close"},"longitude":"-1.371744"},"context":"","outcome_status":{"category":"Investigation complete; no suspect identified","date":"2025-07"},"persistent_id":"d936a80e6a1db28c71db6157d168f244a8c63446485b4032976a360e694cfe1e","id":128919302,"location_subtype":"","month":"2025-06"},{"category":"violent-crime","location_type":"Force","location":{"latitude":"54.896651","street":{"id":1886746,"name":"On or near Guildford Street"},"longitude":"-1.372333"},"context":"","outcome_status":{"category":"Status update unavailable","date":"2025-10"},"persistent_id":"ca7eadc2d6760d3c575960e9119196ecc76eba3bd38a5a5a80f61c7b9c4d1a54","id":128919619,"location_subtype":"","month":"2025-06"},{"category":"violent-crime","location_type":"Force","location":{"latitude":"54.898204","street":{"id":1886267,"name":"On or near Azalea Avenue"},"longitude":"-1.386140"},"context":"","outcome_status":{"category":"Investigation complete; no suspect identified","date":"2025-08"},"persistent_id":"18fb1ae7b4c3f419214c3707d241c9378db28d549b4e984ca7131585071b729b","id":128926920,"location_subtype":"","month":"2025-06"},{"category":"violent-crime","location_type":"Force","location":{"latitude":"54.893479","street":{"id":1886792,"name":"On or near Fuller Road"},"longitude":"-1.370558"},"context":"","outcome_status":{"category":"Court result unavailable","date":"2025-12"},"persistent_id":"28f0cb1478593a568de1f75d355d2f45f68183700fb0bf062cc2029b4ab128dc","id":128920697,"location_subtype":"","month":"2025-06"},{"category":"violent-crime","location_type":"Force","location":{"latitude":"54.884062","street":{"id":1886887,"name":"On or near Windermere Street"},"longitude":"-1.369053"},"context":"","outcome_status":{"category":"Status update unavailable","date":"2025-10"},"persistent_id":"23a2173310fae5af63900d1710fb2b0ee41f2e6e21de5fd17fc1d45206f4cb5f","id":128920486,"location_subtype":"","month":"2025-06"},{"category":"violent-crime","location_type":"Force","location":{"latitude":"54.898350","street":{"id":1886827,"name":"On or near Athol Road"},"longitude":"-1.370763"},"context":"","outcome_status":{"category":"Status update unavailable","date":"2025-10"},"persistent_id":"b4995efa3cba024e875a37c2276b98d59320cce540476279eca924cee9a6618d","id":128921829,"location_subtype":"","month":"2025-06"},{"category":"violent-crime","location_type":"Force","location":{"latitude":"54.872253","street":{"id":1886275,"name":"On or near Tunstall Bank"},"longitude":"-1.384696"},"context":"","outcome_status":{"category":"Court result unavailable","date":"2025-12"},"persistent_id":"e1aa0f9dfe980bba53e916f0d7a095a044ae1ba605072c2e3fb823b7b02f0441","id":128923110,"location_subtype":"","month":"2025-06"},{"category":"violent-crime","location_type":"Force","location":{"latitude":"54.889683","street":{"id":1886952,"name":"On or near Hastings Terrace"},"longitude":"-1.366517"},"context":"","outcome_status":{"category":"Investigation complete; no suspect identified","date":"2025-06"},"persistent_id":"ed3fb21812aa6ecae2516bbe389ff820ec582f762183fa964c373568c5ff01c2","id":128921483,"location_subtype":"","month":"2025-06"},{"category":"violent-crime","location_type":"Force","location":{"latitude":"54.897445","street":{"id":1886718,"name":"On or near Hendon Valley Road"},"longitude":"-1.372898"},"context":"","outcome_status":{"category":"Investigation complete; no suspect identified","date":"2026-01"},"persistent_id":"c7b9f15b3c973a611425581b2c866e115bbd7d7792a4cbf3c9ca529062785eb1","id":128899232,"location_subtype":"","month":"2025-06"},{"category":"violent-crime","location_type":"Force","location":{"latitude":"54.898204","street":{"id":1886267,"name":"On or near Azalea Avenue"},"longitude":"-1.386140"},"context":"","outcome_status":{"category":"Status update unavailable","date":"2025-10"},"persistent_id":"8eeb1b9daef6f6106a84e7ef150961e6b4ea06f166741423858d44d67719070b","id":128899674,"location_subtype":"","month":"2025-06"},{"category":"violent-crime","location_type":"Force","location":{"latitude":"54.898204","street":{"id":1886267,"name":"On or near Azalea Avenue"},"longitude":"-1.386140"},"context":"","outcome_status":{"category":"Status update unavailable","date":"2025-10"},"persistent_id":"905fcf26ce1b0902ba5206ad2621dcdccf2dcadf573c283309062f25ce4267c7","id":128899683,"location_subtype":"","month":"2025-06"},{"category":"violent-crime","location_type":"Force","location":{"latitude":"54.899196","street":{"id":1886566,"name":"On or near St Lucia Close"},"longitude":"-1.376098"},"context":"","outcome_status":{"category":"Status update unavailable","date":"2025-10"},"persistent_id":"f42810ad1799a703a58ad9f2ba68fd916a33a35f1285d5cfc75e24b48fd05d50","id":128900882,"location_subtype":"","month":"2025-06"},{"category":"violent-crime","location_type":"Force","location":{"latitude":"54.895953","street":{"id":1886647,"name":"On or near Villette Brook Street"},"longitude":"-1.374543"},"context":"","outcome_status":{"category":"Status update unavailable","date":"2025-10"},"persistent_id":"fafe8aa3bf927c5cacbac12207e74dce0b1e41e45a0dc0d22036aba5d43d8539","id":128896806,"location_subtype":"","month":"2025-06"},{"category":"violent-crime","location_type":"Force","location":{"latitude":"54.892639","street":{"id":1886503,"name":"On or near Montpellier Terrace"},"longitude":"-1.376823"},"context":"","outcome_status":{"category":"Investigation complete; no suspect identified","date":"2025-06"},"persistent_id":"1f3a81104ace7c09931f334109b27c4651f6f415034ae143219024b7db746d67","id":128926881,"location_subtype":"","month":"2025-06"},{"category":"violent-crime","location_type":"Force","location":{"latitude":"54.883726","street":{"id":1887039,"name":"On or near St Aidan's Avenue"},"longitude":"-1.363228"},"context":"","outcome_status":{"category":"Investigation complete; no suspect identified","date":"2025-06"},"persistent_id":"60e392dbacb98188d7d47a58bf29fbdfc1de40d07a01cd5ebd2d29cdfe8d2bc0","id":128927576,"location_subtype":"","month":"2025-06"},{"category":"violent-crime","location_type":"Force","location":{"latitude":"54.899109","street":{"id":1886919,"name":"On or near Teasdale Street"},"longitude":"-1.368100"},"context":"","outcome_status":{"category":"Investigation complete; no suspect identified","date":"2025-06"},"persistent_id":"76d38a940551ac74e0d2ce2a81e58947e6059fecf2e7002b6ed4d6bb59d6c18a","id":128900664,"location_subtype":"","month":"2025-06"},{"category":"violent-crime","location_type":"Force","location":{"latitude":"54.890761","street":{"id":1885930,"name":"On or near Shirley Gardens"},"longitude":"-1.398273"},"context":"","outcome_status":{"category":"Investigation complete; no suspect identified","date":"2025-06"},"persistent_id":"57a36414e650a1718f1e88a79bdc30f28485e3e64807f3591001b29073dbdb23","id":128928336,"location_subtype":"","month":"2025-06"},{"category":"violent-crime","location_type":"Force","location":{"latitude":"54.885754","street":{"id":1886969,"name":"On or near Ryhope Street"},"longitude":"-1.366096"},"context":"","outcome_status":{"category":"Status update unavailable","date":"2025-10"},"persistent_id":"4a83b9e79c5afdd25b30b46e744c080ad463a2271b36f09b3e81b9d3019b2a6f","id":128892476,"location_subtype":"","month":"2025-06"},{"category":"violent-crime","location_type":"Force","location":{"latitude":"54.885733","street":{"id":1886972,"name":"On or near Grange Street South"},"longitude":"-1.365566"},"context":"","outcome_status":{"category":"Court result unavailable","date":"2025-12"},"persistent_id":"fe91128c6641644afb8ca4ae659698b45e995b2401c706a83d8227426e160b1f","id":128928733,"location_subtype":"","month":"2025-06"},{"category":"violent-crime","location_type":"Force","location":{"latitude":"54.875854","street":{"id":1886964,"name":"On or near Queen Street"},"longitude":"-1.364926"},"context":"","outcome_status":{"category":"Investigation complete; no suspect identified","date":"2025-06"},"persistent_id":"9414a2132f23ebdea0f651cae5fbae3daf37c1671670b64dc3812327b32428fd","id":128914667,"location_subtype":"","month":"2025-06"},{"category":"violent-crime","location_type":"Force","location":{"latitude":"54.897175","street":{"id":1886303,"name":"On or near The Avenue"},"longitude":"-1.385158"},"context":"","outcome_status":{"category":"Investigation complete; no suspect identified","date":"2025-06"},"persistent_id":"d2db06ea418db205ba4f25457c64a986a194b519dee00598a2fbc994ccd8acc4","id":128916464,"location_subtype":"","month":"2025-06"},{"category":"violent-crime","location_type":"Force","location":{"latitude":"54.892756","street":{"id":1886896,"name":"On or near Canon Cockin Street"},"longitude":"-1.368137"},"context":"","outcome_status":{"category":"Investigation complete; no suspect identified","date":"2025-06"},"persistent_id":"ba2d1a2fcb4bc055da3e31b654791f3637959cb2c476a00a2837d2c28138621e","id":128918101,"location_subtype":"","month":"2025-06"},{"category":"violent-crime","location_type":"Force","location":{"latitude":"54.893479","street":{"id":1886792,"name":"On or near Fuller Road"},"longitude":"-1.370558"},"context":"","outcome_status":{"category":"Court result unavailable","date":"2025-12"},"persistent_id":"921a9d883a29d14bb652ca6d7c0277cbfa822fe55b6333e46c3fc7f6bc7056bf","id":128921135,"location_subtype":"","month":"2025-06"},{"category":"violent-crime","location_type":"Force","location":{"latitude":"54.884062","street":{"id":1886887,"name":"On or near Windermere Street"},"longitude":"-1.369053"},"context":"","outcome_status":{"category":"Investigation complete; no suspect identified","date":"2025-08"},"persistent_id":"33957a49ee2dc073b703398c10f560d5bf03a1195b254aadffa83962d3b3d0cb","id":128925679,"location_subtype":"","month":"2025-06"},{"category":"violent-crime","location_type":"Force","location":{"latitude":"54.875375","street":{"id":1886870,"name":"On or near Lynden Road"},"longitude":"-1.367817"},"context":"","outcome_status":{"category":"Investigation complete; no suspect identified","date":"2025-07"},"persistent_id":"d1716c60c52cacdc7311a825c87fc66ee33595e37c7be6fb064d4aeb4619d19a","id":128898001,"location_subtype":"","month":"2025-06"},{"category":"violent-crime","location_type":"Force","location":{"latitude":"54.886184","street":{"id":1886511,"name":"On or near Sea View Road West"},"longitude":"-1.377983"},"context":"","outcome_status":{"category":"Status update unavailable","date":"2025-10"},"persistent_id":"18ba17bb2fecc8778effbdc8d8ef355f79b4d1ef4cd7d2acaa15deceef05750f","id":128897666,"location_subtype":"","month":"2025-06"},{"category":"other-crime","location_type":"Force","location":{"latitude":"54.896013","street":{"id":1886747,"name":"On or near Capulet Terrace"},"longitude":"-1.372359"},"context":"","outcome_status":{"category":"Status update unavailable","date":"2025-10"},"persistent_id":"fd22ad6b583383629964bbe4e980d464ce4b71f365ac425e61b652550d1b402d","id":128927519,"location_subtype":"","month":"2025-06"},{"category":"other-crime","location_type":"Force","location":{"latitude":"54.894472","street":{"id":1886810,"name":"On or near Hyde Street"},"longitude":"-1.369779"},"context":"","outcome_status":{"category":"Court result unavailable","date":"2025-12"},"persistent_id":"454b00aef6da68fbfeace58a8501be98c47a15152665a7526518e5f789c87f6b","id":128901509,"location_subtype":"","month":"2025-06"},{"category":"other-crime","location_type":"Force","location":{"latitude":"54.877511","street":{"id":1887073,"name":"On or near Salterfen Road"},"longitude":"-1.360521"},"context":"","outcome_status":{"category":"Status update unavailable","date":"2025-10"},"persistent_id":"949a5328270b14b8a6153d49db7f2214b0783e370223395fdc60bc8e292feae2","id":128896614,"location_subtype":"","month":"2025-06"},{"category":"other-crime","location_type":"Force","location":{"latitude":"54.886336","street":{"id":1886208,"name":"On or near Greybourne Gardens"},"longitude":"-1.388565"},"context":"","outcome_status":{"category":"Status update unavailable","date":"2025-10"},"persistent_id":"99cd31c7b73da6c864bc95f7fcf7aa140296ecc7d3fff9043c5fdbc4f3e5101d","id":128897563,"location_subtype":"","month":"2025-06"},{"category":"other-crime","location_type":"Force","location":{"latitude":"54.889020","street":{"id":1886132,"name":"On or near Larkfield Road"},"longitude":"-1.389772"},"context":"","outcome_status":{"category":"Investigation complete; no suspect identified","date":"2025-06"},"persistent_id":"76f92fa46f38ce1b8a8836c23a920dd3dc36af7d0994e902bd1c5f62a66a42bc","id":128892805,"location_subtype":"","month":"2025-06"},{"category":"other-crime","location_type":"Force","location":{"latitude":"54.896013","street":{"id":1886747,"name":"On or near Capulet Terrace"},"longitude":"-1.372359"},"context":"","outcome_status":{"category":"Status update unavailable","date":"2025-10"},"persistent_id":"5b0806fb003da4f14f9769af1e698a4cf7e868a712cf0505d84667000f9892e9","id":128927673,"location_subtype":"","month":"2025-06"}]