[{"category":"anti-social-behaviour","location_type":"Force","location":{"latitude":"51.570468","street":{"id":2141662,"name":"On or near Gateway"},"longitude":"0.463309"},"context":"","outcome_status":null,"persistent_id":"","id":130478763,"location_subtype":"","month":"2025-08"},{"category":"anti-social-behaviour","location_type":"Force","location":{"latitude":"51.571155","street":{"id":2142295,"name":"On or near Brownlow Green"},"longitude":"0.478962"},"context":"","outcome_status":null,"persistent_id":"","id":130478872,"location_subtype":"","month":"2025-08"},{"category":"anti-social-behaviour","location_type":"Force","location":{"latitude":"51.570413","street":{"id":2142488,"name":"On or near Gibcracks"},"longitude":"0.485098"},"context":"","outcome_status":null,"persistent_id":"","id":130478924,"location_subtype":"","month":"2025-08"},{"category":"anti-social-behaviour","location_type":"Force","location":{"latitude":"51.571345","street":{"id":2142052,"name":"On or near Clickett End"},"longitude":"0.472521"},"context":"","outcome_status":null,"persistent_id":"","id":130478492,"location_subtype":"","month":"2025-08"},{"category":"anti-social-behaviour","location_type":"Force","location":{"latitude":"51.564078","street":{"id":2142432,"name":"On or near North Crockerford"},"longitude":"0.484868"},"context":"","outcome_status":null,"persistent_id":"","id":130478367,"location_subtype":"","month":"2025-08"},{"category":"anti-social-behaviour","location_type":"Force","location":{"latitude":"51.572111","street":{"id":2142394,"name":"On or near Chittock Mead"},"longitude":"0.483488"},"context":"","outcome_status":null,"persistent_id":"","id":130478915,"location_subtype":"","month":"2025-08"},{"category":"anti-social-behaviour","location_type":"Force","location":{"latitude":"51.569623","street":{"id":2141484,"name":"On or near Shopping Area"},"longitude":"0.457942"},"context":"","outcome_status":null,"persistent_id":"","id":130478790,"location_subtype":"","month":"2025-08"},{"category":"anti-social-behaviour","location_type":"Force","location":{"latitude":"51.584927","street":{"id":2141649,"name":"On or near Festival Way"},"longitude":"0.465131"},"context":"","outcome_status":null,"persistent_id":"","id":130479177,"location_subtype":"","month":"2025-08"},{"category":"anti-social-behaviour","location_type":"Force","location":{"latitude":"51.566676","street":{"id":2141661,"name":"On or near Witchards"},"longitude":"0.463177"},"context":"","outcome_status":null,"persistent_id":"","id":130478077,"location_subtype":"","month":"2025-08"},{"category":"anti-social-behaviour","location_type":"Force","location":{"latitude":"51.569623","street":{"id":2141484,"name":"On or near Shopping Area"},"longitude":"0.457942"},"context":"","outcome_status":null,"persistent_id":"","id":130478079,"location_subtype":"","month":"2025-08"},{"category":"anti-social-behaviour","location_type":"Force","location":{"latitude":"51.575838","street":{"id":2142733,"name":"On or near Jordan Way"},"longitude":"0.492625"},"context":"","outcome_status":null,"persistent_id":"","id":130478092,"location_subtype":"","month":"2025-08"},{"category":"anti-social-behaviour","location_type":"Force","location":{"latitude":"51.568814","street":{"id":2141524,"name":"On or near Southernhay"},"longitude":"0.459410"},"context":"","outcome_status":null,"persistent_id":"","id":130478096,"location_subtype":"","month":"2025-08"},{"category":"anti-social-behaviour","location_type":"Force","location":{"latitude":"51.577409","street":{"id":2142738,"name":"On or near Bronte Drive"},"longitude":"0.492336"},"context":"","outcome_status":null,"persistent_id":"","id":130478097,"location_subtype":"","month":"2025-08"},{"category":"anti-social-behaviour","location_type":"Force","location":{"latitude":"51.569050","street":{"id":2141575,"name":"On or near Parking Area"},"longitude":"0.461054"},"context":"","outcome_status":null,"persistent_id":"","id":130478103,"location_subtype":"","month":"2025-08"},{"category":"anti-social-behaviour","location_type":"Force","location":{"latitude":"51.571404","street":{"id":2141496,"name":"On or near Great Oaks"},"longitude":"0.458583"},"context":"","outcome_status":null,"persistent_id":"","id":130477937,"location_subtype":"","month":"2025-08"},{"category":"anti-social-behaviour","location_type":"Force","location":{"latitude":"51.584927","street":{"id":2141649,"name":"On or near Festival Way"},"longitude":"0.465131"},"context":"","outcome_status":null,"persistent_id":"","id":130477944,"location_subtype":"","month":"2025-08"},{"category":"anti-social-behaviour","location_type":"Force","location":{"latitude":"51.571177","street":{"id":2141490,"name":"On or near Parking Area"},"longitude":"0.457806"},"context":"","outcome_status":null,"persistent_id":"","id":130478243,"location_subtype":"","month":"2025-08"},{"category":"anti-social-behaviour","location_type":"Force","location":{"latitude":"51.584927","street":{"id":2141649,"name":"On or near Festival Way"},"longitude":"0.465131"},"context":"","outcome_status":null,"persistent_id":"","id":130478898,"location_subtype":"","month":"2025-08"},{"category":"anti-social-behaviour","location_type":"Force","location":{"latitude":"51.575838","street":{"id":2142733,"name":"On or near Jordan Way"},"longitude":"0.492625"},"context":"","outcome_status":null,"persistent_id":"","id":130478251,"location_subtype":"","month":"2025-08"},{"category":"anti-social-behaviour","location_type":"Force","location":{"latitude":"51.569623","street":{"id":2141484,"name":"On or near Shopping Area"},"longitude":"0.457942"},"context":"","outcome_status":null,"persistent_id":"","id":130477987,"location_subtype":"","month":"2025-08"},{"category":"anti-social-behaviour","location_type":"Force","location":{"latitude":"51.583097","street":{"id":2142426,"name":"On or near Sports/recreation Area"},"longitude":"0.484953"},"context":"","outcome_status":null,"persistent_id":"","id":130478003,"location_subtype":"","month":"2025-08"},{"category":"anti-social-behaviour","location_type":"Force","location":{"latitude":"51.583399","street":{"id":2142464,"name":"On or near Battleswick"},"longitude":"0.487669"},"context":"","outcome_status":null,"persistent_id":"","id":130478024,"location_subtype":"","month":"2025-08"},{"category":"anti-social-behaviour","location_type":"Force","location":{"latitude":"51.574365","street":{"id":2142702,"name":"On or near Kennet Way"},"longitude":"0.492140"},"context":"","outcome_status":null,"persistent_id":"","id":130478045,"location_subtype":"","month":"2025-08"},{"category":"anti-social-behaviour","location_type":"Force","location":{"latitude":"51.572705","street":{"id":2142468,"name":"On or near Little Chittock"},"longitude":"0.484343"},"context":"","outcome_status":null,"persistent_id":"","id":130478048,"location_subtype":"","month":"2025-08"},{"category":"anti-social-behaviour","location_type":"Force","location":{"latitude":"51.571045","street":{"id":2141535,"name":"On or near North Gunnels"},"longitude":"0.459805"},"context":"","outcome_status":null,"persistent_id":"","id":130479082,"location_subtype":"","month":"2025-08"},{"category":"anti-social-behaviour","location_type":"Force","location":{"latitude":"51.569623","street":{"id":2141484,"name":"On or near Shopping Area"},"longitude":"0.457942"},"context":"","outcome_status":null,"persistent_id":"","id":130479083,"location_subtype":"","month":"2025-08"},{"category":"anti-social-behaviour","location_type":"Force","location":{"latitude":"51.581791","street":{"id":2141292,"name":"On or near Howard Chase"},"longitude":"0.453442"},"context":"","outcome_status":null,"persistent_id":"","id":130479158,"location_subtype":"","month":"2025-08"},{"category":"anti-social-behaviour","location_type":"Force","location":{"latitude":"51.569623","street":{"id":2141484,"name":"On or near Shopping Area"},"longitude":"0.457942"},"context":"","outcome_status":null,"persistent_id":"","id":130478049,"location_subtype":"","month":"2025-08"},{"category":"anti-social-behaviour","location_type":"Force","location":{"latitude":"51.571045","street":{"id":2141535,"name":"On or near North Gunnels"},"longitude":"0.459805"},"context":"","outcome_status":null,"persistent_id":"","id":130478052,"location_subtype":"","month":"2025-08"},{"category":"anti-social-behaviour","location_type":"Force","location":{"latitude":"51.575838","street":{"id":2142733,"name":"On or near Jordan Way"},"longitude":"0.492625"},"context":"","outcome_status":null,"persistent_id":"","id":130478057,"location_subtype":"","month":"2025-08"},{"category":"anti-social-behaviour","location_type":"Force","location":{"latitude":"51.568760","street":{"id":2141506,"name":"On or near Basildon Bus Station"},"longitude":"0.458974"},"context":"","outcome_status":null,"persistent_id":"","id":130479185,"location_subtype":"","month":"2025-08"},{"category":"anti-social-behaviour","location_type":"Force","location":{"latitude":"51.586694","street":{"id":2142290,"name":"On or near Braeburn Way"},"longitude":"0.482392"},"context":"","outcome_status":null,"persistent_id":"","id":130478916,"location_subtype":"","month":"2025-08"},{"category":"anti-social-behaviour","location_type":"Force","location":{"latitude":"51.570509","street":{"id":2142213,"name":"On or near Clayburn Circle"},"longitude":"0.476747"},"context":"","outcome_status":null,"persistent_id":"","id":130479073,"location_subtype":"","month":"2025-08"},{"category":"anti-social-behaviour","location_type":"Force","location":{"latitude":"51.563796","street":{"id":2142304,"name":"On or near Highlands Avenue"},"longitude":"0.478633"},"context":"","outcome_status":null,"persistent_id":"","id":130479102,"location_subtype":"","month":"2025-08"},{"category":"anti-social-behaviour","location_type":"Force","location":{"latitude":"51.568359","street":{"id":2142316,"name":"On or near Gordon Road"},"longitude":"0.479748"},"context":"","outcome_status":null,"persistent_id":"","id":130479114,"location_subtype":"","month":"2025-08"},{"category":"anti-social-behaviour","location_type":"Force","location":{"latitude":"51.584927","street":{"id":2141649,"name":"On or near Festival Way"},"longitude":"0.465131"},"context":"","outcome_status":null,"persistent_id":"","id":130478064,"location_subtype":"","month":"2025-08"},{"category":"anti-social-behaviour","location_type":"Force","location":{"latitude":"51.579011","street":{"id":2142267,"name":"On or near Quilters Close"},"longitude":"0.478725"},"context":"","outcome_status":null,"persistent_id":"","id":130479164,"location_subtype":"","month":"2025-08"},{"category":"anti-social-behaviour","location_type":"Force","location":{"latitude":"51.564782","street":{"id":2142109,"name":"On or near Clay Hill Road"},"longitude":"0.473666"},"context":"","outcome_status":null,"persistent_id":"","id":130479173,"location_subtype":"","month":"2025-08"},{"category":"anti-social-behaviour","location_type":"Force","location":{"latitude":"51.570413","street":{"id":2142488,"name":"On or near Gibcracks"},"longitude":"0.485098"},"context":"","outcome_status":null,"persistent_id":"","id":130479174,"location_subtype":"","month":"2025-08"},{"category":"anti-social-behaviour","location_type":"Force","location":{"latitude":"51.569265","street":{"id":2141781,"name":"On or near Sports/recreation Area"},"longitude":"0.466724"},"context":"","outcome_status":null,"persistent_id":"","id":130479190,"location_subtype":"","month":"2025-08"},{"category":"anti-social-behaviour","location_type":"Force","location":{"latitude":"51.567363","street":{"id":2142731,"name":"On or near Marney Drive"},"longitude":"0.491541"},"context":"","outcome_status":null,"persistent_id":"","id":130479199,"location_subtype":"","month":"2025-08"},{"category":"anti-social-behaviour","location_type":"Force","location":{"latitude":"51.570579","street":{"id":2142369,"name":"On or near Beatty Lane"},"longitude":"0.481095"},"context":"","outcome_status":null,"persistent_id":"","id":130478067,"location_subtype":"","month":"2025-08"},{"category":"anti-social-behaviour","location_type":"Force","location":{"latitude":"51.563037","street":{"id":2142405,"name":"On or near Dewsgreen"},"longitude":"0.482632"},"context":"","outcome_status":null,"persistent_id":"","id":130479235,"location_subtype":"","month":"2025-08"},{"category":"anti-social-behaviour","location_type":"Force","location":{"latitude":"51.577171","street":{"id":2142667,"name":"On or near Stephenson Drive"},"longitude":"0.489595"},"context":"","outcome_status":null,"persistent_id":"","id":130479249,"location_subtype":"","month":"2025-08"},{"category":"anti-social-behaviour","location_type":"Force","location":{"latitude":"51.571045","street":{"id":2141535,"name":"On or near North Gunnels"},"longitude":"0.459805"},"context":"","outcome_status":null,"persistent_id":"","id":130479264,"location_subtype":"","month":"2025-08"},{"category":"anti-social-behaviour","location_type":"Force","location":{"latitude":"51.568242","street":{"id":2142688,"name":"On or near Luncies Road"},"longitude":"0.490377"},"context":"","outcome_status":null,"persistent_id":"","id":130478149,"location_subtype":"","month":"2025-08"},{"category":"anti-social-behaviour","location_type":"Force","location":{"latitude":"51.572700","street":{"id":2142305,"name":"On or near Heron Dale"},"longitude":"0.480749"},"context":"","outcome_status":null,"persistent_id":"","id":130479291,"location_subtype":"","month":"2025-08"},{"category":"anti-social-behaviour","location_type":"Force","location":{"latitude":"51.584927","street":{"id":2141649,"name":"On or near Festival Way"},"longitude":"0.465131"},"context":"","outcome_status":null,"persistent_id":"","id":130478162,"location_subtype":"","month":"2025-08"},{"category":"anti-social-behaviour","location_type":"Force","location":{"latitude":"51.568814","street":{"id":2141524,"name":"On or near Southernhay"},"longitude":"0.459410"},"context":"","outcome_status":null,"persistent_id":"","id":130478163,"location_subtype":"","month":"2025-08"},{"category":"anti-social-behaviour","location_type":"Force","location":{"latitude":"51.584927","street":{"id":2141649,"name":"On or near Festival Way"},"longitude":"0.465131"},"context":"","outcome_status":null,"persistent_id":"","id":130479331,"location_subtype":"","month":"2025-08"},{"category":"anti-social-behaviour","location_type":"Force","location":{"latitude":"51.569623","street":{"id":2141484,"name":"On or near Shopping Area"},"longitude":"0.457942"},"context":"","outcome_status":null,"persistent_id":"","id":130478193,"location_subtype":"","month":"2025-08"},{"category":"anti-social-behaviour","location_type":"Force","location":{"latitude":"51.575838","street":{"id":2142733,"name":"On or near Jordan Way"},"longitude":"0.492625"},"context":"","outcome_status":null,"persistent_id":"","id":130478270,"location_subtype":"","month":"2025-08"},{"category":"anti-social-behaviour","location_type":"Force","location":{"latitude":"51.571177","street":{"id":2141490,"name":"On or near Parking Area"},"longitude":"0.457806"},"context":"","outcome_status":null,"persistent_id":"","id":130478489,"location_subtype":"","month":"2025-08"},{"category":"anti-social-behaviour","location_type":"Force","location":{"latitude":"51.576792","street":{"id":2142676,"name":"On or near Blackwater Way"},"longitude":"0.489661"},"context":"","outcome_status":null,"persistent_id":"","id":130478519,"location_subtype":"","month":"2025-08"},{"category":"anti-social-behaviour","location_type":"Force","location":{"latitude":"51.568753","street":{"id":2141360,"name":"On or near Fodderwick"},"longitude":"0.455886"},"context":"","outcome_status":null,"persistent_id":"","id":130478535,"location_subtype":"","month":"2025-08"},{"category":"anti-social-behaviour","location_type":"Force","location":{"latitude":"51.574365","street":{"id":2142702,"name":"On or near Kennet Way"},"longitude":"0.492140"},"context":"","outcome_status":null,"persistent_id":"","id":130478304,"location_subtype":"","month":"2025-08"},{"category":"anti-social-behaviour","location_type":"Force","location":{"latitude":"51.569623","street":{"id":2141484,"name":"On or near Shopping Area"},"longitude":"0.457942"},"context":"","outcome_status":null,"persistent_id":"","id":130479141,"location_subtype":"","month":"2025-08"},{"category":"anti-social-behaviour","location_type":"Force","location":{"latitude":"51.569623","street":{"id":2141484,"name":"On or near Shopping Area"},"longitude":"0.457942"},"context":"","outcome_status":null,"persistent_id":"","id":130478309,"location_subtype":"","month":"2025-08"},{"category":"anti-social-behaviour","location_type":"Force","location":{"latitude":"51.569050","street":{"id":2141575,"name":"On or near Parking Area"},"longitude":"0.461054"},"context":"","outcome_status":null,"persistent_id":"","id":130478315,"location_subtype":"","month":"2025-08"},{"category":"anti-social-behaviour","location_type":"Force","location":{"latitude":"51.577413","street":{"id":2142714,"name":"On or near Britten Avenue"},"longitude":"0.491311"},"context":"","outcome_status":null,"persistent_id":"","id":130478340,"location_subtype":"","month":"2025-08"},{"category":"anti-social-behaviour","location_type":"Force","location":{"latitude":"51.578592","street":{"id":2142457,"name":"On or near Pankhurst Drive"},"longitude":"0.486179"},"context":"","outcome_status":null,"persistent_id":"","id":130478849,"location_subtype":"","month":"2025-08"},{"category":"anti-social-behaviour","location_type":"Force","location":{"latitude":"51.568109","street":{"id":2141452,"name":"On or near Basildon"},"longitude":"0.457453"},"context":"","outcome_status":null,"persistent_id":"","id":130478580,"location_subtype":"","month":"2025-08"},{"category":"anti-social-behaviour","location_type":"Force","location":{"latitude":"51.569623","street":{"id":2141484,"name":"On or near Shopping Area"},"longitude":"0.457942"},"context":"","outcome_status":null,"persistent_id":"","id":130478602,"location_subtype":"","month":"2025-08"},{"category":"anti-social-behaviour","location_type":"Force","location":{"latitude":"51.570468","street":{"id":2141662,"name":"On or near Gateway"},"longitude":"0.463309"},"context":"","outcome_status":null,"persistent_id":"","id":130478604,"location_subtype":"","month":"2025-08"},{"category":"anti-social-behaviour","location_type":"Force","location":{"latitude":"51.584927","street":{"id":2141649,"name":"On or near Festival Way"},"longitude":"0.465131"},"context":"","outcome_status":null,"persistent_id":"","id":130478605,"location_subtype":"","month":"2025-08"},{"category":"anti-social-behaviour","location_type":"Force","location":{"latitude":"51.573798","street":{"id":2141812,"name":"On or near Short Acre"},"longitude":"0.467906"},"context":"","outcome_status":null,"persistent_id":"","id":130478413,"location_subtype":"","month":"2025-08"},{"category":"anti-social-behaviour","location_type":"Force","location":{"latitude":"51.569623","street":{"id":2141484,"name":"On or near Shopping Area"},"longitude":"0.457942"},"context":"","outcome_status":null,"persistent_id":"","id":130478420,"location_subtype":"","month":"2025-08"},{"category":"anti-social-behaviour","location_type":"Force","location":{"latitude":"51.564610","street":{"id":2142381,"name":"On or near Redgrave Road"},"longitude":"0.481838"},"context":"","outcome_status":null,"persistent_id":"","id":130478432,"location_subtype":"","month":"2025-08"},{"category":"anti-social-behaviour","location_type":"Force","location":{"latitude":"51.584927","street":{"id":2141649,"name":"On or near Festival Way"},"longitude":"0.465131"},"context":"","outcome_status":null,"persistent_id":"","id":130478439,"location_subtype":"","month":"2025-08"},{"category":"anti-social-behaviour","location_type":"Force","location":{"latitude":"51.571638","street":{"id":2141448,"name":"On or near Police Station"},"longitude":"0.457283"},"context":"","outcome_status":null,"persistent_id":"","id":130478698,"location_subtype":"","month":"2025-08"},{"category":"anti-social-behaviour","location_type":"Force","location":{"latitude":"51.569623","street":{"id":2141484,"name":"On or near Shopping Area"},"longitude":"0.457942"},"context":"","outcome_status":null,"persistent_id":"","id":130478466,"location_subtype":"","month":"2025-08"},{"category":"anti-social-behaviour","location_type":"Force","location":{"latitude":"51.582385","street":{"id":2142504,"name":"On or near Whitmore Court"},"longitude":"0.486271"},"context":"","outcome_status":null,"persistent_id":"","id":130478479,"location_subtype":"","month":"2025-08"},{"category":"anti-social-behaviour","location_type":"Force","location":{"latitude":"51.564636","street":{"id":2142314,"name":"On or near Pitseaville Grove"},"longitude":"0.480613"},"context":"","outcome_status":null,"persistent_id":"","id":130478480,"location_subtype":"","month":"2025-08"},{"category":"anti-social-behaviour","location_type":"Force","location":{"latitude":"51.566473","street":{"id":2142026,"name":"On or near Mistley Path"},"longitude":"0.472372"},"context":"","outcome_status":null,"persistent_id":"","id":130478804,"location_subtype":"","month":"2025-08"},{"category":"anti-social-behaviour","location_type":"Force","location":{"latitude":"51.574365","street":{"id":2142702,"name":"On or near Kennet Way"},"longitude":"0.492140"},"context":"","outcome_status":null,"persistent_id":"","id":130479000,"location_subtype":"","month":"2025-08"},{"category":"anti-social-behaviour","location_type":"Force","location":{"latitude":"51.571394","street":{"id":2141570,"name":"On or near Parking Area"},"longitude":"0.461180"},"context":"","outcome_status":null,"persistent_id":"","id":130479002,"location_subtype":"","month":"2025-08"},{"category":"anti-social-behaviour","location_type":"Force","location":{"latitude":"51.577759","street":{"id":2142615,"name":"On or near Austen Road"},"longitude":"0.488573"},"context":"","outcome_status":null,"persistent_id":"","id":130478720,"location_subtype":"","month":"2025-08"},{"category":"anti-social-behaviour","location_type":"Force","location":{"latitude":"51.577693","street":{"id":2142766,"name":"On or near Walton Avenue"},"longitude":"0.493390"},"context":"","outcome_status":null,"persistent_id":"","id":130478740,"location_subtype":"","month":"2025-08"},{"category":"anti-social-behaviour","location_type":"Force","location":{"latitude":"51.571155","street":{"id":2142295,"name":"On or near Brownlow Green"},"longitude":"0.478962"},"context":"","outcome_status":null,"persistent_id":"","id":130478865,"location_subtype":"","month":"2025-08"},{"category":"bicycle-theft","location_type":"Force","location":{"latitude":"51.584927","street":{"id":2141649,"name":"On or near Festival Way"},"longitude":"0.465131"},"context":"","outcome_status":{"category":"Investigation complete; no suspect identified","date":"2025-09"},"persistent_id":"4a73cdceaeaae0e1d0cf40ea1367efaa120dc3c1f5c44ad3d24beccd56aa8807","id":130477167,"location_subtype":"","month":"2025-08"},{"category":"bicycle-theft","location_type":"Force","location":{"latitude":"51.590386","street":{"id":2142081,"name":"On or near Supermarket"},"longitude":"0.476489"},"context":"","outcome_status":{"category":"Investigation complete; no suspect identified","date":"2025-09"},"persistent_id":"f2532d1c3c77e30287b76356aeaf68b30bf11463ee582b32efd6dff601b5f180","id":130468193,"location_subtype":"","month":"2025-08"},{"category":"bicycle-theft","location_type":"Force","location":{"latitude":"51.574365","street":{"id":2142702,"name":"On or near Kennet Way"},"longitude":"0.492140"},"context":"","outcome_status":{"category":"Unable to prosecute suspect","date":"2025-08"},"persistent_id":"963ba2b2a779f8d8333d6f953e7f854605128c9e723b883e443075f5138a279b","id":130465654,"location_subtype":"","month":"2025-08"},{"category":"bicycle-theft","location_type":"Force","location":{"latitude":"51.574365","street":{"id":2142702,"name":"On or near Kennet Way"},"longitude":"0.492140"},"context":"","outcome_status":{"category":"Investigation complete; no suspect identified","date":"2025-08"},"persistent_id":"e47047c8bac5a89fb256528307511344ddc10b7aacbfeef0e51663d37ea1a757","id":130467768,"location_subtype":"","month":"2025-08"},{"category":"bicycle-theft","location_type":"Force","location":{"latitude":"51.574365","street":{"id":2142702,"name":"On or near Kennet Way"},"longitude":"0.492140"},"context":"","outcome_status":{"category":"Investigation complete; no suspect identified","date":"2025-08"},"persistent_id":"e007dbcab4128263398e54515b6492e367f4a442f9c1530693f7369fe6073bd2","id":130472689,"location_subtype":"","month":"2025-08"},{"category":"burglary","location_type":"Force","location":{"latitude":"51.576575","street":{"id":2142264,"name":"On or near Cattawade Link"},"longitude":"0.477799"},"context":"","outcome_status":{"category":"Investigation complete; no suspect identified","date":"2025-10"},"persistent_id":"b99d7a2c2332f8a4fab5d7dd396a95a1f9499411a591e58079a51ffe4db249ef","id":130477911,"location_subtype":"","month":"2025-08"},{"category":"burglary","location_type":"Force","location":{"latitude":"51.564078","street":{"id":2142432,"name":"On or near North Crockerford"},"longitude":"0.484868"},"context":"","outcome_status":{"category":"Status update unavailable","date":"2025-12"},"persistent_id":"fd79ee2d90a23bd2a658ed7ffed77455c107a9d514b3b3c66d8181d93229782d","id":130476758,"location_subtype":"","month":"2025-08"},{"category":"burglary","location_type":"Force","location":{"latitude":"51.569623","street":{"id":2141484,"name":"On or near Shopping Area"},"longitude":"0.457942"},"context":"","outcome_status":{"category":"Investigation complete; no suspect identified","date":"2025-08"},"persistent_id":"7535c8c32443386695dd9f239664c20e4e8234ffb9d939f5db9ba34eea6d2924","id":130469012,"location_subtype":"","month":"2025-08"},{"category":"burglary","location_type":"Force","location":{"latitude":"51.577989","street":{"id":2142634,"name":"On or near Newton Road"},"longitude":"0.489192"},"context":"","outcome_status":{"category":"Investigation complete; no suspect identified","date":"2025-08"},"persistent_id":"6c7c1d54494db515d953e043d90eb9270450dabb868e5a8035d9056cd6731210","id":130467775,"location_subtype":"","month":"2025-08"},{"category":"burglary","location_type":"Force","location":{"latitude":"51.571045","street":{"id":2141535,"name":"On or near North Gunnels"},"longitude":"0.459805"},"context":"","outcome_status":{"category":"Investigation complete; no suspect identified","date":"2025-09"},"persistent_id":"835745a75aecc153d38aedec274b86c7d320d0a497666c1f6c6c108823a71b98","id":130472276,"location_subtype":"","month":"2025-08"},{"category":"burglary","location_type":"Force","location":{"latitude":"51.564433","street":{"id":2142133,"name":"On or near Collingwood Road"},"longitude":"0.476172"},"context":"","outcome_status":{"category":"Investigation complete; no suspect identified","date":"2025-10"},"persistent_id":"6128105a8708fbd1d0a2c05da1c522c03490eb0b780cbc281c089a1e9666d883","id":130466509,"location_subtype":"","month":"2025-08"},{"category":"burglary","location_type":"Force","location":{"latitude":"51.578493","street":{"id":2141592,"name":"On or near Perry Green"},"longitude":"0.463181"},"context":"","outcome_status":{"category":"Investigation complete; no suspect identified","date":"2025-08"},"persistent_id":"3d4ccbba7f698d36a9075488137ab71ce70cd02a188a9714ab62bed2dafa0a7f","id":130472684,"location_subtype":"","month":"2025-08"},{"category":"burglary","location_type":"Force","location":{"latitude":"51.583097","street":{"id":2142426,"name":"On or near Sports/recreation Area"},"longitude":"0.484953"},"context":"","outcome_status":{"category":"Unable to prosecute suspect","date":"2025-11"},"persistent_id":"a7fa1837b4a4803274c0b8f7bf1a12cc67e0a3e52eab34f9fe1bb0594d3df8ae","id":130469776,"location_subtype":"","month":"2025-08"},{"category":"criminal-damage-arson","location_type":"Force","location":{"latitude":"51.568753","street":{"id":2141360,"name":"On or near Fodderwick"},"longitude":"0.455886"},"context":"","outcome_status":{"category":"Unable to prosecute suspect","date":"2025-09"},"persistent_id":"adaf20cbe04319742e5a737d135046740539f4a6b18177b551e0378c5d7c9a32","id":130471910,"location_subtype":"","month":"2025-08"},{"category":"criminal-damage-arson","location_type":"Force","location":{"latitude":"51.582385","street":{"id":2142504,"name":"On or near Whitmore Court"},"longitude":"0.486271"},"context":"","outcome_status":{"category":"Status update unavailable","date":"2025-12"},"persistent_id":"be4449b7a6a24ce0afaf475e73a0289fcfff3c69075b2e5fe01427efd3b1e524","id":130473917,"location_subtype":"","month":"2025-08"},{"category":"criminal-damage-arson","location_type":"Force","location":{"latitude":"51.575598","street":{"id":2141691,"name":"On or near Honeypot Lane"},"longitude":"0.464005"},"context":"","outcome_status":{"category":"Unable to prosecute suspect","date":"2025-10"},"persistent_id":"2c0f40e5677df313d936baa80e20eb6fe7ab6af65135f212b97ffcb8a84f2e98","id":130468598,"location_subtype":"","month":"2025-08"},{"category":"criminal-damage-arson","location_type":"Force","location":{"latitude":"51.563247","street":{"id":2141669,"name":"On or near Peregrine Close"},"longitude":"0.465444"},"context":"","outcome_status":{"category":"Investigation complete; no suspect identified","date":"2025-09"},"persistent_id":"96dcbfbe9b2bbf2606822d05462d52a8976ac643ef95d99fe729e12659f956b5","id":130477583,"location_subtype":"","month":"2025-08"},{"category":"criminal-damage-arson","location_type":"Force","location":{"latitude":"51.569050","street":{"id":2141575,"name":"On or near Parking Area"},"longitude":"0.461054"},"context":"","outcome_status":{"category":"Investigation complete; no suspect identified","date":"2025-08"},"persistent_id":"40c173c7e50bfee77cf12e0a67be1c74c7898cb0bc1d1829b6e02f4e9d093bd0","id":130472303,"location_subtype":"","month":"2025-08"},{"category":"criminal-damage-arson","location_type":"Force","location":{"latitude":"51.572705","street":{"id":2142468,"name":"On or near Little Chittock"},"longitude":"0.484343"},"context":"","outcome_status":{"category":"Local resolution","date":"2025-08"},"persistent_id":"2e980d10a7982e74cae63e888323b88a499b407129bd6917de85ac72abb7d92e","id":130470255,"location_subtype":"","month":"2025-08"},{"category":"criminal-damage-arson","location_type":"Force","location":{"latitude":"51.571720","street":{"id":2141635,"name":"On or near Southern Close"},"longitude":"0.463651"},"context":"","outcome_status":{"category":"Investigation complete; no suspect identified","date":"2025-08"},"persistent_id":"1853591c7973fff0e8fbf03e0a9cdfeac59c3e3f4e04c9c68c6b7f4c75b2662b","id":130469811,"location_subtype":"","month":"2025-08"},{"category":"criminal-damage-arson","location_type":"Force","location":{"latitude":"51.572615","street":{"id":2142087,"name":"On or near Napier Close"},"longitude":"0.474105"},"context":"","outcome_status":{"category":"Investigation complete; no suspect identified","date":"2025-08"},"persistent_id":"6a36012e3f681e6446b0ba9c33105c1aabfe6745ab7a34da535f5a0c51b1b635","id":130465183,"location_subtype":"","month":"2025-08"},{"category":"criminal-damage-arson","location_type":"Force","location":{"latitude":"51.569136","street":{"id":2142765,"name":"On or near Rippleside"},"longitude":"0.492735"},"context":"","outcome_status":{"category":"Unable to prosecute suspect","date":"2025-09"},"persistent_id":"df3600a0fdc78ccb18ff4a77948befeeb43e9cbb4ab0584863211f0b807751c6","id":130470697,"location_subtype":"","month":"2025-08"},{"category":"criminal-damage-arson","location_type":"Force","location":{"latitude":"51.564910","street":{"id":2142287,"name":"On or near Berdens"},"longitude":"0.478290"},"context":"","outcome_status":{"category":"Investigation complete; no suspect identified","date":"2025-08"},"persistent_id":"5b45514ed0104c47f371698d6e3bcc66021722fe5b39a8b99030d23697d66b19","id":130469417,"location_subtype":"","month":"2025-08"},{"category":"criminal-damage-arson","location_type":"Force","location":{"latitude":"51.574365","street":{"id":2142702,"name":"On or near Kennet Way"},"longitude":"0.492140"},"context":"","outcome_status":{"category":"Investigation complete; no suspect identified","date":"2025-08"},"persistent_id":"61f76419d63340c52c9fd24dca778a25b9a78f4dfacfa28ae60f60d113e62de7","id":130471496,"location_subtype":"","month":"2025-08"},{"category":"criminal-damage-arson","location_type":"Force","location":{"latitude":"51.567475","street":{"id":2142106,"name":"On or near Sports/recreation Area"},"longitude":"0.476023"},"context":"","outcome_status":{"category":"Investigation complete; no suspect identified","date":"2025-08"},"persistent_id":"ff41f72bd3ff0dd2e2816f84a7222965021d25d06807e2f7a746ad12c87afdc0","id":130471105,"location_subtype":"","month":"2025-08"},{"category":"criminal-damage-arson","location_type":"Force","location":{"latitude":"51.574365","street":{"id":2142702,"name":"On or near Kennet Way"},"longitude":"0.492140"},"context":"","outcome_status":{"category":"Awaiting court outcome","date":"2025-08"},"persistent_id":"223121b663416c6ea3260959f7186964e269cc8f08f0da5e74086afda671323b","id":130468602,"location_subtype":"","month":"2025-08"},{"category":"criminal-damage-arson","location_type":"Force","location":{"latitude":"51.563796","street":{"id":2142304,"name":"On or near Highlands Avenue"},"longitude":"0.478633"},"context":"","outcome_status":{"category":"Unable to prosecute suspect","date":"2025-08"},"persistent_id":"0c1388c52362c24362d8f22fab8ad25d6843d3477ab1d8d559cd78e4ca456bb6","id":130468600,"location_subtype":"","month":"2025-08"},{"category":"criminal-damage-arson","location_type":"Force","location":{"latitude":"51.584927","street":{"id":2141649,"name":"On or near Festival Way"},"longitude":"0.465131"},"context":"","outcome_status":{"category":"Unable to prosecute suspect","date":"2025-09"},"persistent_id":"d7f43dcae451ce8fe76a6b312d8d3795a0c64efc87d07f82332c7c1d5a50ed3e","id":130475494,"location_subtype":"","month":"2025-08"},{"category":"criminal-damage-arson","location_type":"Force","location":{"latitude":"51.567363","street":{"id":2142731,"name":"On or near Marney Drive"},"longitude":"0.491541"},"context":"","outcome_status":{"category":"Unable to prosecute suspect","date":"2025-08"},"persistent_id":"6dede34de9838b83cacdef66e43a4e354877e5d790094e9511f5266edd2216a0","id":130467790,"location_subtype":"","month":"2025-08"},{"category":"criminal-damage-arson","location_type":"Force","location":{"latitude":"51.577507","street":{"id":2141688,"name":"On or near Waldringfield"},"longitude":"0.463863"},"context":"","outcome_status":{"category":"Unable to prosecute suspect","date":"2025-08"},"persistent_id":"c693d8b7904330f94bb4d2639530efcd6e7e739e225418b794057531c38b6c40","id":130467788,"location_subtype":"","month":"2025-08"},{"category":"criminal-damage-arson","location_type":"Force","location":{"latitude":"51.569134","street":{"id":2141504,"name":"On or near Market Square"},"longitude":"0.458749"},"context":"","outcome_status":{"category":"Investigation complete; no suspect identified","date":"2025-10"},"persistent_id":"5a8ceb45e5e1674b20d8683da53040f6f8bf5a896de5a45423d4a9d692774cfb","id":130476368,"location_subtype":"","month":"2025-08"},{"category":"criminal-damage-arson","location_type":"Force","location":{"latitude":"51.563796","street":{"id":2142304,"name":"On or near Highlands Avenue"},"longitude":"0.478633"},"context":"","outcome_status":{"category":"Investigation complete; no suspect identified","date":"2025-08"},"persistent_id":"74224aa98bddb67afe61bbe23ce6de6cacab03ab174f316db1be35e8a2ae25d2","id":130475143,"location_subtype":"","month":"2025-08"},{"category":"criminal-damage-arson","location_type":"Force","location":{"latitude":"51.583008","street":{"id":2141897,"name":"On or near Cranes Farm Road"},"longitude":"0.470859"},"context":"","outcome_status":{"category":"Investigation complete; no suspect identified","date":"2025-08"},"persistent_id":"2899ebe3f101f0ce670bc7234bc1a00a9d45ddcd869ed77031dd089f9c1a11ed","id":130467379,"location_subtype":"","month":"2025-08"},{"category":"criminal-damage-arson","location_type":"Force","location":{"latitude":"51.566810","street":{"id":2142368,"name":"On or near Southview Road"},"longitude":"0.481150"},"context":"","outcome_status":{"category":"Offender given a caution","date":"2025-08"},"persistent_id":"7de31fc45c58e0658c91a43d9126bc171534d6400ab5b3f77c8a6275807eb49b","id":130466538,"location_subtype":"","month":"2025-08"},{"category":"criminal-damage-arson","location_type":"Force","location":{"latitude":"51.582385","street":{"id":2142504,"name":"On or near Whitmore Court"},"longitude":"0.486271"},"context":"","outcome_status":{"category":"Status update unavailable","date":"2025-12"},"persistent_id":"e428428fcf2b45514e39e383255ceb7ff64ab0833459c5c44c29e1ba0151f3a6","id":130474349,"location_subtype":"","month":"2025-08"},{"category":"criminal-damage-arson","location_type":"Force","location":{"latitude":"51.579284","street":{"id":2142669,"name":"On or near Chesterford Gardens"},"longitude":"0.490446"},"context":"","outcome_status":{"category":"Investigation complete; no suspect identified","date":"2025-08"},"persistent_id":"dd6768d82b0dcd230f607ef78f40f293c679170d75d9db8bb7b4518da2dd3191","id":130466953,"location_subtype":"","month":"2025-08"},{"category":"criminal-damage-arson","location_type":"Force","location":{"latitude":"51.567249","street":{"id":2141387,"name":"On or near Parking Area"},"longitude":"0.456425"},"context":"","outcome_status":{"category":"Investigation complete; no suspect identified","date":"2025-08"},"persistent_id":"fcd13f9c0aa7e16ae5cd8887d66f6332bec517ce6a063dc3e2c78b29fa9597d7","id":130466061,"location_subtype":"","month":"2025-08"},{"category":"criminal-damage-arson","location_type":"Force","location":{"latitude":"51.578647","street":{"id":2141911,"name":"On or near Scarletts"},"longitude":"0.469092"},"context":"","outcome_status":{"category":"Unable to prosecute suspect","date":"2025-10"},"persistent_id":"1882653ee6c4c3128a3620b539faf28c0e83254d87e00ca6a8a2c7b8da39db23","id":130475142,"location_subtype":"","month":"2025-08"},{"category":"criminal-damage-arson","location_type":"Force","location":{"latitude":"51.575838","street":{"id":2142733,"name":"On or near Jordan Way"},"longitude":"0.492625"},"context":"","outcome_status":{"category":"Investigation complete; no suspect identified","date":"2025-08"},"persistent_id":"6ea498b510b80931a29cbab12b766c365f57388210bedc4e03468dbbeb9241a0","id":130465189,"location_subtype":"","month":"2025-08"},{"category":"criminal-damage-arson","location_type":"Force","location":{"latitude":"51.575582","street":{"id":2141706,"name":"On or near Horsley Cross"},"longitude":"0.466040"},"context":"","outcome_status":{"category":"Unable to prosecute suspect","date":"2025-09"},"persistent_id":"e324a9fb1ce92eed17db479b70efa58789af41f2f0d08d9a4414c2314d3d85e9","id":130476370,"location_subtype":"","month":"2025-08"},{"category":"criminal-damage-arson","location_type":"Force","location":{"latitude":"51.575598","street":{"id":2141691,"name":"On or near Honeypot Lane"},"longitude":"0.464005"},"context":"","outcome_status":{"category":"Local resolution","date":"2025-09"},"persistent_id":"444ef63d9f799d85f32a46804d70ae202d96f33f8f299c3759cf3130c6026d9f","id":130473916,"location_subtype":"","month":"2025-08"},{"category":"criminal-damage-arson","location_type":"Force","location":{"latitude":"51.575598","street":{"id":2141691,"name":"On or near Honeypot Lane"},"longitude":"0.464005"},"context":"","outcome_status":{"category":"Awaiting court outcome","date":"2025-11"},"persistent_id":"cfb7d490debdfa665f236b483384ae4cf960827b0e3fed693f66cbae8426174b","id":130474754,"location_subtype":"","month":"2025-08"},{"category":"criminal-damage-arson","location_type":"Force","location":{"latitude":"51.575375","street":{"id":2141546,"name":"On or near Hinckfield Place"},"longitude":"0.460068"},"context":"","outcome_status":{"category":"Unable to prosecute suspect","date":"2025-09"},"persistent_id":"a96d58a478987ecc8b0989e7b8fc0a9c84b17747d2c3359a75fda6ef0abeec24","id":130472302,"location_subtype":"","month":"2025-08"},{"category":"criminal-damage-arson","location_type":"Force","location":{"latitude":"51.572609","street":{"id":2141899,"name":"On or near Priors Close"},"longitude":"0.468852"},"context":"","outcome_status":{"category":"Unable to prosecute suspect","date":"2025-09"},"persistent_id":"65c08356aabf2cd91ed04c16d415bfc6d8cb9bccc4d4589aab276ffb7eb7946e","id":130477185,"location_subtype":"","month":"2025-08"},{"category":"criminal-damage-arson","location_type":"Force","location":{"latitude":"51.584927","street":{"id":2141649,"name":"On or near Festival Way"},"longitude":"0.465131"},"context":"","outcome_status":{"category":"Investigation complete; no suspect identified","date":"2025-09"},"persistent_id":"d0235ec89f1d02a0a61301bcfbd9bfc15c15db60c4c1b9cc94d70b077ce3f44e","id":130477582,"location_subtype":"","month":"2025-08"},{"category":"criminal-damage-arson","location_type":"Force","location":{"latitude":"51.577552","street":{"id":2142126,"name":"On or near Petrol Station"},"longitude":"0.475472"},"context":"","outcome_status":{"category":"Investigation complete; no suspect identified","date":"2025-09"},"persistent_id":"e288845101b5e4c669678793a09fe9827cb5445953e4e7c25edeec85266e78a6","id":130477584,"location_subtype":"","month":"2025-08"},{"category":"criminal-damage-arson","location_type":"Force","location":{"latitude":"51.563796","street":{"id":2142304,"name":"On or near Highlands Avenue"},"longitude":"0.478633"},"context":"","outcome_status":{"category":"Investigation complete; no suspect identified","date":"2025-08"},"persistent_id":"fbda4ea5fd35bd2baa807ec12e29e3498c23402899f8199188e991cdcc81d963","id":130474756,"location_subtype":"","month":"2025-08"},{"category":"criminal-damage-arson","location_type":"Force","location":{"latitude":"51.578752","street":{"id":2141695,"name":"On or near The Upway"},"longitude":"0.466702"},"context":"","outcome_status":{"category":"Investigation complete; no suspect identified","date":"2025-08"},"persistent_id":"cf53ad99d16153b3adcfd0e215067d1b1b73272f6022dabd67b6fd2030bfb10a","id":130475941,"location_subtype":"","month":"2025-08"},{"category":"criminal-damage-arson","location_type":"Force","location":{"latitude":"51.583097","street":{"id":2142426,"name":"On or near Sports/recreation Area"},"longitude":"0.484953"},"context":"","outcome_status":{"category":"Awaiting court outcome","date":"2025-10"},"persistent_id":"4d495db4a6236d5a2e0a530aacf3dcc309c3911d98a319071ea74153938cbe5c","id":130467381,"location_subtype":"","month":"2025-08"},{"category":"criminal-damage-arson","location_type":"Force","location":{"latitude":"51.571345","street":{"id":2142052,"name":"On or near Clickett End"},"longitude":"0.472521"},"context":"","outcome_status":{"category":"Unable to prosecute suspect","date":"2025-09"},"persistent_id":"333256fcaca4c892427072eeea87721795748578b182fa4d67a2dcbde0004643","id":130473112,"location_subtype":"","month":"2025-08"},{"category":"criminal-damage-arson","location_type":"Force","location":{"latitude":"51.582385","street":{"id":2142504,"name":"On or near Whitmore Court"},"longitude":"0.486271"},"context":"","outcome_status":{"category":"Status update unavailable","date":"2025-12"},"persistent_id":"2807d66fdb7cde6c9ec99f4635dfb733643a42af871d428b0110b8767a41a4a7","id":130474757,"location_subtype":"","month":"2025-08"},{"category":"criminal-damage-arson","location_type":"Force","location":{"latitude":"51.577693","street":{"id":2142766,"name":"On or near Walton Avenue"},"longitude":"0.493390"},"context":"","outcome_status":{"category":"Investigation complete; no suspect identified","date":"2025-08"},"persistent_id":"23f0713244b396763607c3009f4430408bcc12c54e6660caa6a2a236ff0ae57e","id":130466540,"location_subtype":"","month":"2025-08"},{"category":"criminal-damage-arson","location_type":"Force","location":{"latitude":"51.575665","street":{"id":2142597,"name":"On or near Herschell Court"},"longitude":"0.488098"},"context":"","outcome_status":{"category":"Investigation complete; no suspect identified","date":"2025-08"},"persistent_id":"3c52d94d994cac606a5fef909aac7eb90aac97f7e0abfc11c881cd3f9c1cedc9","id":130473918,"location_subtype":"","month":"2025-08"},{"category":"criminal-damage-arson","location_type":"Force","location":{"latitude":"51.572140","street":{"id":2142830,"name":"On or near Beambridge Mews"},"longitude":"0.496117"},"context":"","outcome_status":{"category":"Awaiting court outcome","date":"2025-08"},"persistent_id":"3ba6ffc3fa36080c512c67d9b952f2572499db257a031339fe4830042a73791a","id":130473114,"location_subtype":"","month":"2025-08"},{"category":"drugs","location_type":"Force","location":{"latitude":"51.567344","street":{"id":2141469,"name":"On or near Cherrydown East"},"longitude":"0.458321"},"context":"","outcome_status":{"category":"Unable to prosecute suspect","date":"2025-11"},"persistent_id":"047192aeaf648c74c58320839189d23b792b7b2e7fece5e7ea36cf7f30e14e9d","id":130466567,"location_subtype":"","month":"2025-08"},{"category":"drugs","location_type":"Force","location":{"latitude":"51.581791","street":{"id":2141292,"name":"On or near Howard Chase"},"longitude":"0.453442"},"context":"","outcome_status":{"category":"Local resolution","date":"2025-08"},"persistent_id":"67937f77c6b32ce9f717f3c56951b38deb90fb5612c9a38f58ef3d49cb771a9b","id":130476396,"location_subtype":"","month":"2025-08"},{"category":"drugs","location_type":"Force","location":{"latitude":"51.572390","street":{"id":2142509,"name":"On or near Chalice Close"},"longitude":"0.486043"},"context":"","outcome_status":{"category":"Local resolution","date":"2025-08"},"persistent_id":"8f7b9ed1aff467dd062b0eae24377678ecc1739f290c506dd7122d06a1902ca8","id":130474787,"location_subtype":"","month":"2025-08"},{"category":"drugs","location_type":"Force","location":{"latitude":"51.584927","street":{"id":2141649,"name":"On or near Festival Way"},"longitude":"0.465131"},"context":"","outcome_status":{"category":"Local resolution","date":"2025-08"},"persistent_id":"2f888170827af206a719ca604ff755fb3b98830fddfdce45c761eca7d97c6de2","id":130474382,"location_subtype":"","month":"2025-08"},{"category":"drugs","location_type":"Force","location":{"latitude":"51.571177","street":{"id":2141490,"name":"On or near Parking Area"},"longitude":"0.457806"},"context":"","outcome_status":{"category":"Local resolution","date":"2025-08"},"persistent_id":"47ba53270e187d85b300d9a22fd42e60f771b68a74d6f7545f5a040d8c55a18e","id":130473961,"location_subtype":"","month":"2025-08"},{"category":"drugs","location_type":"Force","location":{"latitude":"51.571155","street":{"id":2142295,"name":"On or near Brownlow Green"},"longitude":"0.478962"},"context":"","outcome_status":{"category":"Local resolution","date":"2025-08"},"persistent_id":"6fe7531b43c557c95d399338c6e2535861e3c34c5c02cd22ff07073f3cb81162","id":130473534,"location_subtype":"","month":"2025-08"},{"category":"drugs","location_type":"Force","location":{"latitude":"51.564636","street":{"id":2142314,"name":"On or near Pitseaville Grove"},"longitude":"0.480613"},"context":"","outcome_status":{"category":"Local resolution","date":"2025-08"},"persistent_id":"561095e066dbd99541c4e9a7eb6f939e07227b902841a3406e78c44c2ba7462c","id":130470723,"location_subtype":"","month":"2025-08"},{"category":"drugs","location_type":"Force","location":{"latitude":"51.584927","street":{"id":2141649,"name":"On or near Festival Way"},"longitude":"0.465131"},"context":"","outcome_status":{"category":"Local resolution","date":"2025-08"},"persistent_id":"89ffb709aa4ff194dfc41ecdf765ede2b7067963922edc8949d6abe127577ee6","id":130469054,"location_subtype":"","month":"2025-08"},{"category":"drugs","location_type":"Force","location":{"latitude":"51.566169","street":{"id":2142647,"name":"On or near Feering Row"},"longitude":"0.490566"},"context":"","outcome_status":{"category":"Offender given a caution","date":"2025-08"},"persistent_id":"67e4649a2cc912160504b2d41655c829ea36502cb754979ae0d04ff69a35c965","id":130467413,"location_subtype":"","month":"2025-08"},{"category":"drugs","location_type":"Force","location":{"latitude":"51.572609","street":{"id":2141899,"name":"On or near Priors Close"},"longitude":"0.468852"},"context":"","outcome_status":{"category":"Awaiting court outcome","date":"2025-08"},"persistent_id":"213f5c7de9a5eec60170369c696054ba211d8602ab2a698f722880aefacfa91d","id":130467412,"location_subtype":"","month":"2025-08"},{"category":"drugs","location_type":"Force","location":{"latitude":"51.574742","street":{"id":2141439,"name":"On or near Supermarket"},"longitude":"0.459341"},"context":"","outcome_status":{"category":"Local resolution","date":"2025-08"},"persistent_id":"71b4e50ab93c8de0f17843b5c040d8b63c943c478798d29c30ec9265f47e1d94","id":130465708,"location_subtype":"","month":"2025-08"},{"category":"drugs","location_type":"Force","location":{"latitude":"51.574695","street":{"id":2142580,"name":"On or near Lark Way"},"longitude":"0.489315"},"context":"","outcome_status":{"category":"Local resolution","date":"2025-08"},"persistent_id":"440d0a7c3d165111d027572eeaee12a13c7c0ab73d84c2f9567b46969d74bb0d","id":130465259,"location_subtype":"","month":"2025-08"},{"category":"drugs","location_type":"Force","location":{"latitude":"51.570345","street":{"id":2141913,"name":"On or near Clickett Side"},"longitude":"0.469999"},"context":"","outcome_status":{"category":"Offender given a caution","date":"2025-08"},"persistent_id":"a068ace85ededf1f3fc471eb10dd5f888d09170e061ab4cbccca84d5291da5ae","id":130468253,"location_subtype":"","month":"2025-08"},{"category":"drugs","location_type":"Force","location":{"latitude":"51.566284","street":{"id":2142430,"name":"On or near Parking Area"},"longitude":"0.483487"},"context":"","outcome_status":{"category":"Unable to prosecute suspect","date":"2025-09"},"persistent_id":"af9f092c476326aac4725fc2fdceb2eedee2e983dd6bbc6dfd5d8f87704b0d48","id":130468254,"location_subtype":"","month":"2025-08"},{"category":"drugs","location_type":"Force","location":{"latitude":"51.564917","street":{"id":2142518,"name":"On or near Bardfield"},"longitude":"0.486429"},"context":"","outcome_status":{"category":"Offender given a caution","date":"2025-11"},"persistent_id":"15fa9ad776e6892dc74e92fcedb35b2c7678f20c7614ed38978be1904e73efdf","id":130477611,"location_subtype":"","month":"2025-08"},{"category":"drugs","location_type":"Force","location":{"latitude":"51.574695","street":{"id":2142580,"name":"On or near Lark Way"},"longitude":"0.489315"},"context":"","outcome_status":{"category":"Local resolution","date":"2025-08"},"persistent_id":"162fe7418e593a66b3f8c61a7fcad3a720c38f02fa22a4c2b0287a6547becee8","id":130475530,"location_subtype":"","month":"2025-08"},{"category":"drugs","location_type":"Force","location":{"latitude":"51.564677","street":{"id":2141549,"name":"On or near Codenham Green"},"longitude":"0.460717"},"context":"","outcome_status":{"category":"Local resolution","date":"2025-10"},"persistent_id":"cf26bbeeb5f159bf28dff9a4fa1dd365dcd04cf1dd8ee6bac7421d9d06edfb3e","id":130474786,"location_subtype":"","month":"2025-08"},{"category":"drugs","location_type":"Force","location":{"latitude":"51.571155","street":{"id":2142295,"name":"On or near Brownlow Green"},"longitude":"0.478962"},"context":"","outcome_status":{"category":"Investigation complete; no suspect identified","date":"2025-09"},"persistent_id":"39364ed5ba7142a009c0ecd295fa321a24a7cfbc82661ebfede45b732c261261","id":130469842,"location_subtype":"","month":"2025-08"},{"category":"drugs","location_type":"Force","location":{"latitude":"51.579586","street":{"id":2142573,"name":"On or near Southcote Square"},"longitude":"0.488081"},"context":"","outcome_status":{"category":"Status update unavailable","date":"2025-12"},"persistent_id":"725c4433a64938bc20117f9329055ec56c54cbf4e4275a36b6668b80b4f31798","id":130472732,"location_subtype":"","month":"2025-08"},{"category":"drugs","location_type":"Force","location":{"latitude":"51.571177","street":{"id":2141490,"name":"On or near Parking Area"},"longitude":"0.457806"},"context":"","outcome_status":{"category":"Unable to prosecute suspect","date":"2025-08"},"persistent_id":"849891f7b50cbdf7b89aa72765688367e545d9d642d0eaabe06ad08a6dd5f14c","id":130466096,"location_subtype":"","month":"2025-08"},{"category":"drugs","location_type":"Force","location":{"latitude":"51.568606","street":{"id":2142593,"name":"On or near Sports/recreation Area"},"longitude":"0.490248"},"context":"","outcome_status":{"category":"Status update unavailable","date":"2025-12"},"persistent_id":"12239cb7ce311afc579431d781f8cc5b093b1e71ab665e0f7cd36a7abcef6ca5","id":130473963,"location_subtype":"","month":"2025-08"},{"category":"drugs","location_type":"Force","location":{"latitude":"51.582385","street":{"id":2142504,"name":"On or near Whitmore Court"},"longitude":"0.486271"},"context":"","outcome_status":{"category":"Offender given a caution","date":"2025-10"},"persistent_id":"2445b8e513081cfe0ee71439dd314b814c2d77f28a29c4ec00a7527417740f47","id":130471944,"location_subtype":"","month":"2025-08"},{"category":"drugs","location_type":"Force","location":{"latitude":"51.569623","street":{"id":2141484,"name":"On or near Shopping Area"},"longitude":"0.457942"},"context":"","outcome_status":{"category":"Awaiting court outcome","date":"2025-08"},"persistent_id":"d812fbc0a1632fe7ca8f1c68682c6fa6447bb1829624b933bbb6c5630fa95476","id":130477204,"location_subtype":"","month":"2025-08"},{"category":"other-theft","location_type":"Force","location":{"latitude":"51.579902","street":{"id":2141562,"name":"On or near Ghyllgrove Close"},"longitude":"0.463329"},"context":"","outcome_status":{"category":"Investigation complete; no suspect identified","date":"2025-09"},"persistent_id":"70c759306d956423d0dde341ac58e3b9e6194614f9ec21f041abc4d1a06971bd","id":130469083,"location_subtype":"","month":"2025-08"},{"category":"other-theft","location_type":"Force","location":{"latitude":"51.582385","street":{"id":2142504,"name":"On or near Whitmore Court"},"longitude":"0.486271"},"context":"","outcome_status":{"category":"Unable to prosecute suspect","date":"2025-09"},"persistent_id":"03a2274de1243f5e1b45bd1666292287e6bde0bb6e612ab441a2e65376133b3f","id":130474409,"location_subtype":"","month":"2025-08"},{"category":"other-theft","location_type":"Force","location":{"latitude":"51.568109","street":{"id":2141452,"name":"On or near Basildon"},"longitude":"0.457453"},"context":"","outcome_status":{"category":"Status update unavailable","date":"2025-12"},"persistent_id":"cbad92bb5d4b52c062d0f0ea09171e67a2ab96f6c34256458c57839b2241eece","id":130472757,"location_subtype":"","month":"2025-08"},{"category":"other-theft","location_type":"Force","location":{"latitude":"51.583097","street":{"id":2142426,"name":"On or near Sports/recreation Area"},"longitude":"0.484953"},"context":"","outcome_status":{"category":"Unable to prosecute suspect","date":"2025-09"},"persistent_id":"19a4935a791b8926ae67cdf0ec510e572ae2d3cc80a55db3f805332e29d09c66","id":130472760,"location_subtype":"","month":"2025-08"},{"category":"other-theft","location_type":"Force","location":{"latitude":"51.584927","street":{"id":2141649,"name":"On or near Festival Way"},"longitude":"0.465131"},"context":"","outcome_status":{"category":"Unable to prosecute suspect","date":"2025-09"},"persistent_id":"358f04a4e9d0e897f4f9932ae6d677e2b8443727481473cc07e68460cedbdafd","id":130472759,"location_subtype":"","month":"2025-08"},{"category":"other-theft","location_type":"Force","location":{"latitude":"51.587269","street":{"id":2142386,"name":"On or near Jazz Lane"},"longitude":"0.482856"},"context":"","outcome_status":{"category":"Offender given a caution","date":"2025-12"},"persistent_id":"d98f66d52bde4d97a3f05fd7ce78f7db825fb78e84ac0fd52cef636ccb2574ba","id":130471179,"location_subtype":"","month":"2025-08"},{"category":"other-theft","location_type":"Force","location":{"latitude":"51.571052","street":{"id":2142463,"name":"On or near South Riding"},"longitude":"0.484642"},"context":"","outcome_status":{"category":"Unable to prosecute suspect","date":"2025-09"},"persistent_id":"5794095bc8ea853d8249b4a226a08fa0cceddd5b3bddb7354b3d9e9ba95bf755","id":130471178,"location_subtype":"","month":"2025-08"},{"category":"other-theft","location_type":"Force","location":{"latitude":"51.567222","street":{"id":2141692,"name":"On or near Gun Hill Place"},"longitude":"0.466294"},"context":"","outcome_status":{"category":"Investigation complete; no suspect identified","date":"2025-09"},"persistent_id":"231eca8760d618d576260fccb45616ff3c8f1b6630c669b39b4ffbca74969214","id":130471559,"location_subtype":"","month":"2025-08"},{"category":"other-theft","location_type":"Force","location":{"latitude":"51.567430","street":{"id":2142603,"name":"On or near Beech Road"},"longitude":"0.488355"},"context":"","outcome_status":{"category":"Unable to prosecute suspect","date":"2025-10"},"persistent_id":"b4a6b0ac972fde82e594f76bdeaa96e3ede8990714bba199049e1ebb51fd3ac7","id":130471964,"location_subtype":"","month":"2025-08"},{"category":"other-theft","location_type":"Force","location":{"latitude":"51.574180","street":{"id":2142769,"name":"On or near Parking Area"},"longitude":"0.494916"},"context":"","outcome_status":{"category":"Investigation complete; no suspect identified","date":"2025-09"},"persistent_id":"6c1751edff8ba9d13ba7728db4d4189a0bf8426ea9d72f8891d53749ecf363cd","id":130472381,"location_subtype":"","month":"2025-08"},{"category":"other-theft","location_type":"Force","location":{"latitude":"51.584927","street":{"id":2141649,"name":"On or near Festival Way"},"longitude":"0.465131"},"context":"","outcome_status":{"category":"Investigation complete; no suspect identified","date":"2025-09"},"persistent_id":"fd8e184cada0b1d1ad751841b2ed7eb606f0f96beb6f6655609031079ab1da22","id":130473567,"location_subtype":"","month":"2025-08"},{"category":"other-theft","location_type":"Force","location":{"latitude":"51.584927","street":{"id":2141649,"name":"On or near Festival Way"},"longitude":"0.465131"},"context":"","outcome_status":{"category":"Investigation complete; no suspect identified","date":"2025-09"},"persistent_id":"1a00cd37509440b8510113fd1eb70ff7bad2bc4150c639263f6ef0ac0bfaeeb3","id":130476426,"location_subtype":"","month":"2025-08"},{"category":"other-theft","location_type":"Force","location":{"latitude":"51.573224","street":{"id":2142909,"name":"On or near Chalk End"},"longitude":"0.496754"},"context":"","outcome_status":{"category":"Unable to prosecute suspect","date":"2025-09"},"persistent_id":"cbafe1d4d37299e11c5f1cb72ec6de6e93286668bb3cf0cbc77ff3301680c0b2","id":130476843,"location_subtype":"","month":"2025-08"},{"category":"other-theft","location_type":"Force","location":{"latitude":"51.569623","street":{"id":2141484,"name":"On or near Shopping Area"},"longitude":"0.457942"},"context":"","outcome_status":{"category":"Awaiting court outcome","date":"2025-09"},"persistent_id":"605415094cd297f19c8f419b5434d1f488d7757cd5d5b28418c944ebd5ba3920","id":130477235,"location_subtype":"","month":"2025-08"},{"category":"other-theft","location_type":"Force","location":{"latitude":"51.577800","street":{"id":2141931,"name":"On or near The Turpins"},"longitude":"0.470447"},"context":"","outcome_status":{"category":"Unable to prosecute suspect","date":"2025-08"},"persistent_id":"19a8f2bf6db347eb74a88fb60ded33ef7708202a1fa7e4f7e623fa89103348d1","id":130465318,"location_subtype":"","month":"2025-08"},{"category":"other-theft","location_type":"Force","location":{"latitude":"51.570579","street":{"id":2142369,"name":"On or near Beatty Lane"},"longitude":"0.481095"},"context":"","outcome_status":{"category":"Awaiting court outcome","date":"2025-08"},"persistent_id":"845a7c5053f5e204b9987ffd382d31512c57fd916cc27404e422db044623d367","id":130467010,"location_subtype":"","month":"2025-08"},{"category":"other-theft","location_type":"Force","location":{"latitude":"51.569050","street":{"id":2141575,"name":"On or near Parking Area"},"longitude":"0.461054"},"context":"","outcome_status":{"category":"Investigation complete; no suspect identified","date":"2025-08"},"persistent_id":"e40612164c6e3d3bd8680e739343ea430a31ff28f8f6b1855993691bc1c96ec8","id":130466594,"location_subtype":"","month":"2025-08"},{"category":"other-theft","location_type":"Force","location":{"latitude":"51.579902","street":{"id":2141562,"name":"On or near Ghyllgrove Close"},"longitude":"0.463329"},"context":"","outcome_status":{"category":"Investigation complete; no suspect identified","date":"2025-08"},"persistent_id":"03b34cf933ee73bebef49f940eb50ed5ac9c78dba1a4a139af2cdc9c4ce34cfe","id":130466595,"location_subtype":"","month":"2025-08"},{"category":"other-theft","location_type":"Force","location":{"latitude":"51.579902","street":{"id":2141562,"name":"On or near Ghyllgrove Close"},"longitude":"0.463329"},"context":"","outcome_status":{"category":"Investigation complete; no suspect identified","date":"2025-08"},"persistent_id":"30473f2b93e4988ffc59f4eb23773ef5b6aaf64f4ba2a00f9143c0d95aeb951f","id":130469084,"location_subtype":"","month":"2025-08"},{"category":"other-theft","location_type":"Force","location":{"latitude":"51.563663","street":{"id":2141788,"name":"On or near Kingfishers"},"longitude":"0.467472"},"context":"","outcome_status":{"category":"Unable to prosecute suspect","date":"2025-08"},"persistent_id":"985a017c77125d9512f857e4564575a9374514972fba9cccc0e34a99f81efa37","id":130467839,"location_subtype":"","month":"2025-08"},{"category":"other-theft","location_type":"Force","location":{"latitude":"51.581363","street":{"id":2142811,"name":"On or near Holbech Road"},"longitude":"0.495049"},"context":"","outcome_status":{"category":"Investigation complete; no suspect identified","date":"2025-08"},"persistent_id":"2b709b08df0033a82ea08c12a8f9f6a5db4c00b34d2f8396c9d2cf4d41134c85","id":130467841,"location_subtype":"","month":"2025-08"},{"category":"other-theft","location_type":"Force","location":{"latitude":"51.574365","street":{"id":2142702,"name":"On or near Kennet Way"},"longitude":"0.492140"},"context":"","outcome_status":{"category":"Investigation complete; no suspect identified","date":"2025-08"},"persistent_id":"1e47646d8c17b205b72fb64eb137c6a559463fb9f83570650cda57420af835f1","id":130468280,"location_subtype":"","month":"2025-08"},{"category":"other-theft","location_type":"Force","location":{"latitude":"51.564636","street":{"id":2142314,"name":"On or near Pitseaville Grove"},"longitude":"0.480613"},"context":"","outcome_status":{"category":"Investigation complete; no suspect identified","date":"2025-08"},"persistent_id":"b34d6240911b1c6f4d8514eae84160216cd4b397f7af1c7de6e5cdaec156714e","id":130471963,"location_subtype":"","month":"2025-08"},{"category":"other-theft","location_type":"Force","location":{"latitude":"51.584927","street":{"id":2141649,"name":"On or near Festival Way"},"longitude":"0.465131"},"context":"","outcome_status":{"category":"Investigation complete; no suspect identified","date":"2025-08"},"persistent_id":"43395b77a41afd43310eb0e1790b2fa586abf055d0e7928a3ab9c4f59e765494","id":130472378,"location_subtype":"","month":"2025-08"},{"category":"other-theft","location_type":"Force","location":{"latitude":"51.579520","street":{"id":2142179,"name":"On or near Little Spenders"},"longitude":"0.476747"},"context":"","outcome_status":{"category":"Investigation complete; no suspect identified","date":"2025-08"},"persistent_id":"013879a34a367a79c7a91d5ba66727c2dceecf158c92c4a5f4019895e168b54a","id":130473159,"location_subtype":"","month":"2025-08"},{"category":"other-theft","location_type":"Force","location":{"latitude":"51.569050","street":{"id":2141575,"name":"On or near Parking Area"},"longitude":"0.461054"},"context":"","outcome_status":{"category":"Investigation complete; no suspect identified","date":"2025-08"},"persistent_id":"984a1a226b93d709cfd08d50f8579be67940ff6bd957ca5d9ccd572d0d33fb73","id":130474407,"location_subtype":"","month":"2025-08"},{"category":"other-theft","location_type":"Force","location":{"latitude":"51.590386","street":{"id":2142081,"name":"On or near Supermarket"},"longitude":"0.476489"},"context":"","outcome_status":{"category":"Investigation complete; no suspect identified","date":"2025-08"},"persistent_id":"5d240f7b3da524aa162a93386ea1ff65d773417d967c093cfbca0a78146e3678","id":130465319,"location_subtype":"","month":"2025-08"},{"category":"possession-of-weapons","location_type":"Force","location":{"latitude":"51.573934","street":{"id":2141766,"name":"On or near Longacre"},"longitude":"0.466152"},"context":"","outcome_status":{"category":"Local resolution","date":"2025-10"},"persistent_id":"4edf5f06672d53823d679123f4e8ad1ce908f38a21fe25a739d18fec41ed707c","id":130469896,"location_subtype":"","month":"2025-08"},{"category":"possession-of-weapons","location_type":"Force","location":{"latitude":"51.569050","street":{"id":2141575,"name":"On or near Parking Area"},"longitude":"0.461054"},"context":"","outcome_status":{"category":"Investigation complete; no suspect identified","date":"2025-09"},"persistent_id":"202fc6fe100abf7001fa7fecd818852f85c089a51c76313844b1524268cabe26","id":130465345,"location_subtype":"","month":"2025-08"},{"category":"possession-of-weapons","location_type":"Force","location":{"latitude":"51.570625","street":{"id":2142326,"name":"On or near Dengayne"},"longitude":"0.479770"},"context":"","outcome_status":{"category":"Investigation complete; no suspect identified","date":"2025-08"},"persistent_id":"a21c5f3a455702230f4fcb584c3d98a38eb48bdff111e78f3c53b7831ca0b7d5","id":130468684,"location_subtype":"","month":"2025-08"},{"category":"possession-of-weapons","location_type":"Force","location":{"latitude":"51.570625","street":{"id":2142326,"name":"On or near Dengayne"},"longitude":"0.479770"},"context":"","outcome_status":{"category":"Investigation complete; no suspect identified","date":"2025-08"},"persistent_id":"74d04114f23bc9210cc4da81646c771dc7c32f3101d659c048335fcc581fe21c","id":130468683,"location_subtype":"","month":"2025-08"},{"category":"possession-of-weapons","location_type":"Force","location":{"latitude":"51.569050","street":{"id":2141575,"name":"On or near Parking Area"},"longitude":"0.461054"},"context":"","outcome_status":{"category":"Awaiting court outcome","date":"2025-08"},"persistent_id":"8645893378e95a26ee247e8187459c97cdd04aae5f79fdaf257e06326d8426c9","id":130467470,"location_subtype":"","month":"2025-08"},{"category":"possession-of-weapons","location_type":"Force","location":{"latitude":"51.570345","street":{"id":2141913,"name":"On or near Clickett Side"},"longitude":"0.469999"},"context":"","outcome_status":{"category":"Offender given a caution","date":"2025-08"},"persistent_id":"3b356a79190008723163bb117e14a6b92ccd5dd3e71312f0781bb3bdaa2de438","id":130468293,"location_subtype":"","month":"2025-08"},{"category":"possession-of-weapons","location_type":"Force","location":{"latitude":"51.569623","street":{"id":2141484,"name":"On or near Shopping Area"},"longitude":"0.457942"},"context":"","outcome_status":{"category":"Unable to prosecute suspect","date":"2025-09"},"persistent_id":"1488fc3ea6864d84aaf9555c5ef52d42aebaf3a5b06843e94e02e4513a605979","id":130472400,"location_subtype":"","month":"2025-08"},{"category":"public-order","location_type":"Force","location":{"latitude":"51.568606","street":{"id":2142593,"name":"On or near Sports/recreation Area"},"longitude":"0.490248"},"context":"","outcome_status":{"category":"Unable to prosecute suspect","date":"2025-08"},"persistent_id":"9a1a2bc5ea6c66c8f426e6d3a034f0bb2406d7db950ad206f67f173c5c0b2feb","id":130467490,"location_subtype":"","month":"2025-08"},{"category":"public-order","location_type":"Force","location":{"latitude":"51.571177","street":{"id":2141490,"name":"On or near Parking Area"},"longitude":"0.457806"},"context":"","outcome_status":{"category":"Unable to prosecute suspect","date":"2025-09"},"persistent_id":"5f9d59285a528b3623f0576b4dd9f14849749c4c58cbe99d020f193598fb8b50","id":130477272,"location_subtype":"","month":"2025-08"},{"category":"public-order","location_type":"Force","location":{"latitude":"51.564710","street":{"id":2142205,"name":"On or near Collingwood Walk"},"longitude":"0.477110"},"context":"","outcome_status":{"category":"Investigation complete; no suspect identified","date":"2025-08"},"persistent_id":"c70b197ee095e772c18528dfd112ba5c53cd2a0d6f6ce8ed7f72131823b1ea1c","id":130470778,"location_subtype":"","month":"2025-08"},{"category":"public-order","location_type":"Force","location":{"latitude":"51.569050","street":{"id":2141575,"name":"On or near Parking Area"},"longitude":"0.461054"},"context":"","outcome_status":{"category":"Investigation complete; no suspect identified","date":"2025-10"},"persistent_id":"40ce57855178acdcb0f449b4d26608f8401acaa976fb9f0fe3d14f61ec13189a","id":130471992,"location_subtype":"","month":"2025-08"},{"category":"public-order","location_type":"Force","location":{"latitude":"51.575582","street":{"id":2141706,"name":"On or near Horsley Cross"},"longitude":"0.466040"},"context":"","outcome_status":{"category":"Investigation complete; no suspect identified","date":"2025-09"},"persistent_id":"1ce9572c31d956335e0bd9a72e6bfaba3c9306d9100b169c826d53dfa1f705d5","id":130472415,"location_subtype":"","month":"2025-08"},{"category":"public-order","location_type":"Force","location":{"latitude":"51.570468","street":{"id":2141662,"name":"On or near Gateway"},"longitude":"0.463309"},"context":"","outcome_status":{"category":"Unable to prosecute suspect","date":"2025-08"},"persistent_id":"4a4d51d3df02ddefd9dfdf6b51488a28352b456985da7c4aa51754dadb15e2be","id":130465764,"location_subtype":"","month":"2025-08"},{"category":"public-order","location_type":"Force","location":{"latitude":"51.573356","street":{"id":2141577,"name":"On or near Braybrooke"},"longitude":"0.461099"},"context":"","outcome_status":{"category":"Unable to prosecute suspect","date":"2025-09"},"persistent_id":"29ce3066680ba53696525bb04e8be966325b80e8c3b12e17d1694f9b156bc1e5","id":130466630,"location_subtype":"","month":"2025-08"},{"category":"public-order","location_type":"Force","location":{"latitude":"51.582385","street":{"id":2142504,"name":"On or near Whitmore Court"},"longitude":"0.486271"},"context":"","outcome_status":{"category":"Investigation complete; no suspect identified","date":"2025-10"},"persistent_id":"5b97b2b1b1205b17568e7c990bbcdbc6573e155d2cdc647fb2b1c847cf54b029","id":130471581,"location_subtype":"","month":"2025-08"},{"category":"public-order","location_type":"Force","location":{"latitude":"51.572078","street":{"id":2142143,"name":"On or near Long Riding"},"longitude":"0.474841"},"context":"","outcome_status":{"category":"Investigation complete; no suspect identified","date":"2025-08"},"persistent_id":"d03d0f2e03bf708809f7e39982447723d062f0da29b244336322f4ee4eb39fb1","id":130471993,"location_subtype":"","month":"2025-08"},{"category":"public-order","location_type":"Force","location":{"latitude":"51.570345","street":{"id":2141913,"name":"On or near Clickett Side"},"longitude":"0.469999"},"context":"","outcome_status":{"category":"Investigation complete; no suspect identified","date":"2025-09"},"persistent_id":"b4fa6e189fa5e3997016d45a2d36ca4d07f163a2a3bebe7e74a59a4e8afd7e88","id":130476884,"location_subtype":"","month":"2025-08"},{"category":"public-order","location_type":"Force","location":{"latitude":"51.563796","street":{"id":2142304,"name":"On or near Highlands Avenue"},"longitude":"0.478633"},"context":"","outcome_status":{"category":"Investigation complete; no suspect identified","date":"2025-08"},"persistent_id":"8082877285150c48050dc7d2b412c59f05f4b296e8d3045564e41c905b409b7f","id":130471204,"location_subtype":"","month":"2025-08"},{"category":"public-order","location_type":"Force","location":{"latitude":"51.568242","street":{"id":2142688,"name":"On or near Luncies Road"},"longitude":"0.490377"},"context":"","outcome_status":{"category":"Unable to prosecute suspect","date":"2025-08"},"persistent_id":"716db2b4bb72178b13fa6ee6d650a05f903e549503d68f272c340d06d8406bec","id":130471996,"location_subtype":"","month":"2025-08"},{"category":"public-order","location_type":"Force","location":{"latitude":"51.563037","street":{"id":2142405,"name":"On or near Dewsgreen"},"longitude":"0.482632"},"context":"","outcome_status":{"category":"Unable to prosecute suspect","date":"2025-08"},"persistent_id":"3e9536f4e6181037197aafac83aaf7abed91276e72dfb6db36feafd2275e6188","id":130469920,"location_subtype":"","month":"2025-08"},{"category":"public-order","location_type":"Force","location":{"latitude":"51.566676","street":{"id":2141661,"name":"On or near Witchards"},"longitude":"0.463177"},"context":"","outcome_status":{"category":"Unable to prosecute suspect","date":"2025-09"},"persistent_id":"51f8b402f97a67f34e8cd6267bce881b9b4d39c0323238cf58eaf3b4b4988584","id":130472795,"location_subtype":"","month":"2025-08"},{"category":"public-order","location_type":"Force","location":{"latitude":"51.570468","street":{"id":2141662,"name":"On or near Gateway"},"longitude":"0.463309"},"context":"","outcome_status":{"category":"Formal action is not in the public interest","date":"2025-09"},"persistent_id":"2a67fe09990a1d9a6e50bcd9c9f68fbdaa21f14026c6cfda33f123ab80454866","id":130467041,"location_subtype":"","month":"2025-08"},{"category":"public-order","location_type":"Force","location":{"latitude":"51.568760","street":{"id":2141506,"name":"On or near Basildon Bus Station"},"longitude":"0.458974"},"context":"","outcome_status":{"category":"Local resolution","date":"2025-08"},"persistent_id":"fe749393df1146d1c1d69b5ac77289043bc7a204160c48234deebda133f71c8e","id":130467489,"location_subtype":"","month":"2025-08"},{"category":"public-order","location_type":"Force","location":{"latitude":"51.574526","street":{"id":2142557,"name":"On or near Brunel Close"},"longitude":"0.487083"},"context":"","outcome_status":{"category":"Unable to prosecute suspect","date":"2025-08"},"persistent_id":"083a4db18d08f4b54366d3b08b115eb2213d741798341be501af95ceca40b03c","id":130472796,"location_subtype":"","month":"2025-08"},{"category":"public-order","location_type":"Force","location":{"latitude":"51.574365","street":{"id":2142702,"name":"On or near Kennet Way"},"longitude":"0.492140"},"context":"","outcome_status":{"category":"Investigation complete; no suspect identified","date":"2025-08"},"persistent_id":"8627b44fe4a471d4dabe2a330cd8edbcbe51b50ab1f366b8ef80ae0daeec9b1f","id":130466631,"location_subtype":"","month":"2025-08"},{"category":"public-order","location_type":"Force","location":{"latitude":"51.568753","street":{"id":2141360,"name":"On or near Fodderwick"},"longitude":"0.455886"},"context":"","outcome_status":{"category":"Unable to prosecute suspect","date":"2025-09"},"persistent_id":"d0b11b5583bebf2af8a6a2003ad1a4d407231aa9309d1173574243fcc4280bb2","id":130468704,"location_subtype":"","month":"2025-08"},{"category":"public-order","location_type":"Force","location":{"latitude":"51.573386","street":{"id":2141384,"name":"On or near Pomfret Mead"},"longitude":"0.456670"},"context":"","outcome_status":{"category":"Unable to prosecute suspect","date":"2025-08"},"persistent_id":"48438c4b994e0c3ce8c5f9a9e9f35664be7e44602b0111fe233ba3d094f504ed","id":130467488,"location_subtype":"","month":"2025-08"},{"category":"public-order","location_type":"Force","location":{"latitude":"51.575838","street":{"id":2142733,"name":"On or near Jordan Way"},"longitude":"0.492625"},"context":"","outcome_status":{"category":"Investigation complete; no suspect identified","date":"2025-09"},"persistent_id":"5d9f5d27ecd8608a2b13d833faaca62781d83882a7cdb836bfbb31562a312f15","id":130468711,"location_subtype":"","month":"2025-08"},{"category":"public-order","location_type":"Force","location":{"latitude":"51.571045","street":{"id":2141535,"name":"On or near North Gunnels"},"longitude":"0.459805"},"context":"","outcome_status":{"category":"Status update unavailable","date":"2025-12"},"persistent_id":"38e71c287fed4e77c97e23e5d8f874a0bbc4ada12a2d3cc17576ee6b06e5a5ca","id":130465763,"location_subtype":"","month":"2025-08"},{"category":"public-order","location_type":"Force","location":{"latitude":"51.569050","street":{"id":2141575,"name":"On or near Parking Area"},"longitude":"0.461054"},"context":"","outcome_status":{"category":"Unable to prosecute suspect","date":"2025-09"},"persistent_id":"a6ae8964f69890e91305ae9093793e6e0ed400e55f82a405878ebf387df91e85","id":130465765,"location_subtype":"","month":"2025-08"},{"category":"public-order","location_type":"Force","location":{"latitude":"51.571394","street":{"id":2141570,"name":"On or near Parking Area"},"longitude":"0.461180"},"context":"","outcome_status":{"category":"Unable to prosecute suspect","date":"2026-01"},"persistent_id":"6ac5075840b59aa6d9408f741168c42ff84f3c0977b90e54bed9ce6a8d66964f","id":130475582,"location_subtype":"","month":"2025-08"},{"category":"public-order","location_type":"Force","location":{"latitude":"51.571901","street":{"id":2141449,"name":"On or near Little Oaks"},"longitude":"0.458466"},"context":"","outcome_status":{"category":"Investigation complete; no suspect identified","date":"2025-09"},"persistent_id":"521ce8e602c27e168eaf15bd2c9349a8562678b9daca61a2f3c5c7f18706e193","id":130472791,"location_subtype":"","month":"2025-08"},{"category":"public-order","location_type":"Force","location":{"latitude":"51.568753","street":{"id":2141360,"name":"On or near Fodderwick"},"longitude":"0.455886"},"context":"","outcome_status":{"category":"Unable to prosecute suspect","date":"2026-01"},"persistent_id":"328e377938ba25fd898a394cc296fab02a111a267bcc5936eaeacedd4c2099d5","id":130473187,"location_subtype":"","month":"2025-08"},{"category":"public-order","location_type":"Force","location":{"latitude":"51.568109","street":{"id":2141452,"name":"On or near Basildon"},"longitude":"0.457453"},"context":"","outcome_status":{"category":"Status update unavailable","date":"2025-12"},"persistent_id":"a2e7a4a2acaa77bc526500799f42e814f44de0c6258c9b7f7377862a0c8890dd","id":130838442,"location_subtype":"","month":"2025-08"},{"category":"public-order","location_type":"Force","location":{"latitude":"51.566054","street":{"id":2141906,"name":"On or near Mistley End"},"longitude":"0.470502"},"context":"","outcome_status":{"category":"Investigation complete; no suspect identified","date":"2025-08"},"persistent_id":"246985977b16fdb5d4e2a0ee251e8f9ecc24a39cbde82ffa5a06041ef88f68e9","id":130472416,"location_subtype":"","month":"2025-08"},{"category":"public-order","location_type":"Force","location":{"latitude":"51.570965","street":{"id":2141342,"name":"On or near Westgate"},"longitude":"0.453754"},"context":"","outcome_status":{"category":"Unable to prosecute suspect","date":"2025-09"},"persistent_id":"6c165bab58973382b952a7b1aff3894d95a3ec13b073bf7498c0feee32d5fc53","id":130474841,"location_subtype":"","month":"2025-08"},{"category":"robbery","location_type":"Force","location":{"latitude":"51.574742","street":{"id":2141439,"name":"On or near Supermarket"},"longitude":"0.459341"},"context":"","outcome_status":{"category":"Unable to prosecute suspect","date":"2025-09"},"persistent_id":"7a100c3a8794833c45540b77670bbf307f72a6c70972e47b1c6f5a99f65812ec","id":130477675,"location_subtype":"","month":"2025-08"},{"category":"robbery","location_type":"Force","location":{"latitude":"51.569623","street":{"id":2141484,"name":"On or near Shopping Area"},"longitude":"0.457942"},"context":"","outcome_status":{"category":"Investigation complete; no suspect identified","date":"2025-09"},"persistent_id":"8c801e35e810974da9e3d24ae7d5522aef4a9c12977ae66ab5903dcd50ee4218","id":130471223,"location_subtype":"","month":"2025-08"},{"category":"robbery","location_type":"Force","location":{"latitude":"51.569050","street":{"id":2141575,"name":"On or near Parking Area"},"longitude":"0.461054"},"context":"","outcome_status":{"category":"Unable to prosecute suspect","date":"2025-10"},"persistent_id":"8f66ef192f3d3a9a083aa7f583d10397d1932432dd15b05300b6a21639dc75cd","id":130472021,"location_subtype":"","month":"2025-08"},{"category":"robbery","location_type":"Force","location":{"latitude":"51.577171","street":{"id":2142667,"name":"On or near Stephenson Drive"},"longitude":"0.489595"},"context":"","outcome_status":{"category":"Investigation complete; no suspect identified","date":"2025-09"},"persistent_id":"04e0fe1a5d73ca1062969b29ccb6ceae2cf51b97e03cb8e6fb7037d5ec4a8e30","id":130469515,"location_subtype":"","month":"2025-08"},{"category":"robbery","location_type":"Force","location":{"latitude":"51.570965","street":{"id":2141342,"name":"On or near Westgate"},"longitude":"0.453754"},"context":"","outcome_status":{"category":"Status update unavailable","date":"2025-12"},"persistent_id":"b26d0e577ae8a4a5370959650f30d246d88a5f7119eb9acf8101b77e4515a59c","id":130470804,"location_subtype":"","month":"2025-08"},{"category":"robbery","location_type":"Force","location":{"latitude":"51.571720","street":{"id":2141635,"name":"On or near Southern Close"},"longitude":"0.463651"},"context":"","outcome_status":{"category":"Unable to prosecute suspect","date":"2025-08"},"persistent_id":"192608146f99521e1206164761c948db37a2326d2f48451335ae4be45aee7dac","id":130470806,"location_subtype":"","month":"2025-08"},{"category":"robbery","location_type":"Force","location":{"latitude":"51.570965","street":{"id":2141342,"name":"On or near Westgate"},"longitude":"0.453754"},"context":"","outcome_status":{"category":"Investigation complete; no suspect identified","date":"2025-09"},"persistent_id":"2ccd505ce561c93ee81f9114a0e51a26f17fe9f2f027e89a7e26b7b7a74360d3","id":130470805,"location_subtype":"","month":"2025-08"},{"category":"shoplifting","location_type":"Force","location":{"latitude":"51.590386","street":{"id":2142081,"name":"On or near Supermarket"},"longitude":"0.476489"},"context":"","outcome_status":{"category":"Investigation complete; no suspect identified","date":"2025-08"},"persistent_id":"7ee26238934d0c39e6ae43e3175c93f3cf6ae8da3f5d6f0e05ff447bddba263a","id":130465398,"location_subtype":"","month":"2025-08"},{"category":"shoplifting","location_type":"Force","location":{"latitude":"51.574742","street":{"id":2141439,"name":"On or near Supermarket"},"longitude":"0.459341"},"context":"","outcome_status":{"category":"Investigation complete; no suspect identified","date":"2025-10"},"persistent_id":"89c9491d8541a50424e1f52dc296f1518d1657cf6aa337269a264609cdbe6b58","id":130472036,"location_subtype":"","month":"2025-08"},{"category":"shoplifting","location_type":"Force","location":{"latitude":"51.568753","street":{"id":2141360,"name":"On or near Fodderwick"},"longitude":"0.455886"},"context":"","outcome_status":{"category":"Investigation complete; no suspect identified","date":"2025-08"},"persistent_id":"12ab5e7885ef166331dd27575eb339dd93578fc5e0611b9007964ee4e965bd55","id":130470392,"location_subtype":"","month":"2025-08"},{"category":"shoplifting","location_type":"Force","location":{"latitude":"51.569050","street":{"id":2141575,"name":"On or near Parking Area"},"longitude":"0.461054"},"context":"","outcome_status":{"category":"Investigation complete; no suspect identified","date":"2025-08"},"persistent_id":"9431c76516b9f046c97a067e2e4e521b3d847cd7ac77e3ff4bd7e2ac5a1790fc","id":130466208,"location_subtype":"","month":"2025-08"},{"category":"shoplifting","location_type":"Force","location":{"latitude":"51.569050","street":{"id":2141575,"name":"On or near Parking Area"},"longitude":"0.461054"},"context":"","outcome_status":{"category":"Investigation complete; no suspect identified","date":"2025-08"},"persistent_id":"2f3463aa4c64e96948bae38a0646736ac3ab72fe57e50f2fffe7500eecac86af","id":130476510,"location_subtype":"","month":"2025-08"},{"category":"shoplifting","location_type":"Force","location":{"latitude":"51.569623","street":{"id":2141484,"name":"On or near Shopping Area"},"longitude":"0.457942"},"context":"","outcome_status":{"category":"Investigation complete; no suspect identified","date":"2025-09"},"persistent_id":"3c6c46442fe19ff0e41bad7a8dd308895094302ba8bd3790cbf250b831171e61","id":130477302,"location_subtype":"","month":"2025-08"},{"category":"shoplifting","location_type":"Force","location":{"latitude":"51.571045","street":{"id":2141535,"name":"On or near North Gunnels"},"longitude":"0.459805"},"context":"","outcome_status":{"category":"Investigation complete; no suspect identified","date":"2025-08"},"persistent_id":"fc9515d30f63e9a9043506f794f100efaa296d68e6ac768d5aad4f0ebc208eb9","id":130469541,"location_subtype":"","month":"2025-08"},{"category":"shoplifting","location_type":"Force","location":{"latitude":"51.571346","street":{"id":2141613,"name":"On or near Parking Area"},"longitude":"0.462621"},"context":"","outcome_status":{"category":"Investigation complete; no suspect identified","date":"2025-09"},"persistent_id":"3a45c09a242ae78150594a047c2f072b55099948aef4d1a43a230ea94678828c","id":130477304,"location_subtype":"","month":"2025-08"},{"category":"shoplifting","location_type":"Force","location":{"latitude":"51.582083","street":{"id":2142553,"name":"On or near Parking Area"},"longitude":"0.486976"},"context":"","outcome_status":{"category":"Investigation complete; no suspect identified","date":"2025-09"},"persistent_id":"9d5d19f42aec5be8bf582021d7f6d976025d3199f67ec737b4910f02b88944df","id":130469151,"location_subtype":"","month":"2025-08"},{"category":"shoplifting","location_type":"Force","location":{"latitude":"51.569050","street":{"id":2141575,"name":"On or near Parking Area"},"longitude":"0.461054"},"context":"","outcome_status":{"category":"Local resolution","date":"2025-08"},"persistent_id":"50b809e0c19befc731daf4c84bc7d09e09d932b198240fef500591a7721cccfd","id":130473237,"location_subtype":"","month":"2025-08"},{"category":"shoplifting","location_type":"Force","location":{"latitude":"51.568245","street":{"id":2141684,"name":"On or near Parking Area"},"longitude":"0.463420"},"context":"","outcome_status":{"category":"Investigation complete; no suspect identified","date":"2025-08"},"persistent_id":"70d21dbe61a1bd551fd73ec02a13c369acb4616561be95d83f6f6013595edb08","id":130470830,"location_subtype":"","month":"2025-08"},{"category":"shoplifting","location_type":"Force","location":{"latitude":"51.571177","street":{"id":2141490,"name":"On or near Parking Area"},"longitude":"0.457806"},"context":"","outcome_status":{"category":"Investigation complete; no suspect identified","date":"2025-09"},"persistent_id":"68475b2c5f3c38c064a54c5e604d561818757899753059abc5b0d7f772119e92","id":130477695,"location_subtype":"","month":"2025-08"},{"category":"shoplifting","location_type":"Force","location":{"latitude":"51.571346","street":{"id":2141613,"name":"On or near Parking Area"},"longitude":"0.462621"},"context":"","outcome_status":{"category":"Investigation complete; no suspect identified","date":"2025-09"},"persistent_id":"0b40a4087feb7d2ea4e3a809fb245a2907730c2b8d1ba1bd74bbceff417ac326","id":130473634,"location_subtype":"","month":"2025-08"},{"category":"shoplifting","location_type":"Force","location":{"latitude":"51.570468","street":{"id":2141662,"name":"On or near Gateway"},"longitude":"0.463309"},"context":"","outcome_status":{"category":"Unable to prosecute suspect","date":"2025-08"},"persistent_id":"6e1418857605a80a68b38f80e34a86f3b1cb749670f8e295b7440115e24fe893","id":130466207,"location_subtype":"","month":"2025-08"},{"category":"shoplifting","location_type":"Force","location":{"latitude":"51.569623","street":{"id":2141484,"name":"On or near Shopping Area"},"longitude":"0.457942"},"context":"","outcome_status":{"category":"Awaiting court outcome","date":"2025-09"},"persistent_id":"ab86771210e71bfc68c18c53184f88694d79b6f3691b5902467c95675447b548","id":130466205,"location_subtype":"","month":"2025-08"},{"category":"shoplifting","location_type":"Force","location":{"latitude":"51.570965","street":{"id":2141342,"name":"On or near Westgate"},"longitude":"0.453754"},"context":"","outcome_status":{"category":"Investigation complete; no suspect identified","date":"2025-09"},"persistent_id":"9eb68c8e81c264a69513eee7c218f6efa337931b8833490bb8e87c43db90c21b","id":130474885,"location_subtype":"","month":"2025-08"},{"category":"shoplifting","location_type":"Force","location":{"latitude":"51.569050","street":{"id":2141575,"name":"On or near Parking Area"},"longitude":"0.461054"},"context":"","outcome_status":{"category":"Investigation complete; no suspect identified","date":"2025-09"},"persistent_id":"faec42237b297210fa1783cb8b6063b533f2ee28e2de83e2a954cd405a3e5c9c","id":130477303,"location_subtype":"","month":"2025-08"},{"category":"shoplifting","location_type":"Force","location":{"latitude":"51.569050","street":{"id":2141575,"name":"On or near Parking Area"},"longitude":"0.461054"},"context":"","outcome_status":{"category":"Local resolution","date":"2025-09"},"persistent_id":"bbb694f1b2b5339d989c4165f9a821cd86e3fd0a544d92ac58a3ca34171987f0","id":130475241,"location_subtype":"","month":"2025-08"},{"category":"shoplifting","location_type":"Force","location":{"latitude":"51.569050","street":{"id":2141575,"name":"On or near Parking Area"},"longitude":"0.461054"},"context":"","outcome_status":{"category":"Investigation complete; no suspect identified","date":"2025-08"},"persistent_id":"0c486ede7c02a6644eab555c337c2afc3983d8fd2a075996922d59ed97ddb592","id":130477696,"location_subtype":"","month":"2025-08"},{"category":"shoplifting","location_type":"Force","location":{"latitude":"51.569050","street":{"id":2141575,"name":"On or near Parking Area"},"longitude":"0.461054"},"context":"","outcome_status":{"category":"Status update unavailable","date":"2025-12"},"persistent_id":"269a05fed0dd445fe224d63ccc1a2dab4d84fdab78c782c91254ea44cfc8550e","id":130475242,"location_subtype":"","month":"2025-08"},{"category":"shoplifting","location_type":"Force","location":{"latitude":"51.569050","street":{"id":2141575,"name":"On or near Parking Area"},"longitude":"0.461054"},"context":"","outcome_status":{"category":"Local resolution","date":"2025-08"},"persistent_id":"5f4dd45f333f6fbaa7a401c66aaffc4c4d116cc140320a0bd9770c14b35f23d6","id":130471245,"location_subtype":"","month":"2025-08"},{"category":"shoplifting","location_type":"Force","location":{"latitude":"51.571394","street":{"id":2141570,"name":"On or near Parking Area"},"longitude":"0.461180"},"context":"","outcome_status":{"category":"Awaiting court outcome","date":"2025-09"},"persistent_id":"f3939e774bd348a9f227ffc9d1e8f32b9ffd488a74242629ef59b85cbbac3dc9","id":130466206,"location_subtype":"","month":"2025-08"},{"category":"theft-from-the-person","location_type":"Force","location":{"latitude":"51.577507","street":{"id":2141688,"name":"On or near Waldringfield"},"longitude":"0.463863"},"context":"","outcome_status":{"category":"Unable to prosecute suspect","date":"2025-08"},"persistent_id":"291f131819ea00e1528d97a664a5330111318dc9dca02b5d2d99e04b37dd4af8","id":130468780,"location_subtype":"","month":"2025-08"},{"category":"theft-from-the-person","location_type":"Force","location":{"latitude":"51.576575","street":{"id":2142264,"name":"On or near Cattawade Link"},"longitude":"0.477799"},"context":"","outcome_status":{"category":"Unable to prosecute suspect","date":"2025-08"},"persistent_id":"3d11a62d20bf995bc67cb1041e79de7edefc55cc54fc002ad39b058587fe6271","id":130471267,"location_subtype":"","month":"2025-08"},{"category":"theft-from-the-person","location_type":"Force","location":{"latitude":"51.575345","street":{"id":2142536,"name":"On or near Cavell Court"},"longitude":"0.486652"},"context":"","outcome_status":{"category":"Unable to prosecute suspect","date":"2025-08"},"persistent_id":"3d3894687c676ff99ccf5f32d5cecd2d52bee320867d70a1999426e51c7aa8df","id":130470003,"location_subtype":"","month":"2025-08"},{"category":"theft-from-the-person","location_type":"Force","location":{"latitude":"51.569050","street":{"id":2141575,"name":"On or near Parking Area"},"longitude":"0.461054"},"context":"","outcome_status":{"category":"Unable to prosecute suspect","date":"2025-08"},"persistent_id":"94f75b21daadcfb50b3e73cbca4a3ba2ae006d7fdba2ea33fb8fe64227706683","id":130472061,"location_subtype":"","month":"2025-08"},{"category":"vehicle-crime","location_type":"Force","location":{"latitude":"51.568109","street":{"id":2141452,"name":"On or near Basildon"},"longitude":"0.457453"},"context":"","outcome_status":{"category":"Investigation complete; no suspect identified","date":"2025-08"},"persistent_id":"4ac9917d3809b71d9e39f7893659b32a79d6eab72eced4dd637a28ceb9465b1d","id":130476138,"location_subtype":"","month":"2025-08"},{"category":"vehicle-crime","location_type":"Force","location":{"latitude":"51.569050","street":{"id":2141575,"name":"On or near Parking Area"},"longitude":"0.461054"},"context":"","outcome_status":{"category":"Investigation complete; no suspect identified","date":"2025-08"},"persistent_id":"4b8a4fc353813a463577996cc7c916994e9383bebc43743443195ff5659706c5","id":130472078,"location_subtype":"","month":"2025-08"},{"category":"vehicle-crime","location_type":"Force","location":{"latitude":"51.580522","street":{"id":2141880,"name":"On or near Glebe Field"},"longitude":"0.468905"},"context":"","outcome_status":{"category":"Investigation complete; no suspect identified","date":"2025-09"},"persistent_id":"930699ec2f05c39daa1fae61513935349c87b532cd22d78744fa8b5c73ddf174","id":130474518,"location_subtype":"","month":"2025-08"},{"category":"vehicle-crime","location_type":"Force","location":{"latitude":"51.575375","street":{"id":2141546,"name":"On or near Hinckfield Place"},"longitude":"0.460068"},"context":"","outcome_status":{"category":"Investigation complete; no suspect identified","date":"2025-08"},"persistent_id":"8ba18fac5f24a9c38bd011dc333edd3e97c61ab8eefd1741ca7b66cc348052ae","id":130472496,"location_subtype":"","month":"2025-08"},{"category":"vehicle-crime","location_type":"Force","location":{"latitude":"51.569050","street":{"id":2141575,"name":"On or near Parking Area"},"longitude":"0.461054"},"context":"","outcome_status":{"category":"Investigation complete; no suspect identified","date":"2025-09"},"persistent_id":"ecc92aa5f720515d2f2e0a1d3742d5e869bfc64597fa9cac64ed67957e7e940f","id":130466727,"location_subtype":"","month":"2025-08"},{"category":"vehicle-crime","location_type":"Force","location":{"latitude":"51.584927","street":{"id":2141649,"name":"On or near Festival Way"},"longitude":"0.465131"},"context":"","outcome_status":{"category":"Investigation complete; no suspect identified","date":"2025-09"},"persistent_id":"b2d87a95aa13b0a5008ae6b05b3bfd89a44f5c36ebe656dde2a75cc70df1bbd9","id":130477728,"location_subtype":"","month":"2025-08"},{"category":"vehicle-crime","location_type":"Force","location":{"latitude":"51.569623","street":{"id":2141484,"name":"On or near Shopping Area"},"longitude":"0.457942"},"context":"","outcome_status":{"category":"Investigation complete; no suspect identified","date":"2025-08"},"persistent_id":"9ec978aedbad2591f3f73d16c1c3de6f1054c7cb94cb634ebf0020a286886aff","id":130472495,"location_subtype":"","month":"2025-08"},{"category":"vehicle-crime","location_type":"Force","location":{"latitude":"51.584927","street":{"id":2141649,"name":"On or near Festival Way"},"longitude":"0.465131"},"context":"","outcome_status":{"category":"Investigation complete; no suspect identified","date":"2025-10"},"persistent_id":"1c55f57f4f226d418d0ba153f2a4be6cccf07c9842748507eca1a7fe2124190c","id":130474517,"location_subtype":"","month":"2025-08"},{"category":"vehicle-crime","location_type":"Force","location":{"latitude":"51.574365","street":{"id":2142702,"name":"On or near Kennet Way"},"longitude":"0.492140"},"context":"","outcome_status":{"category":"Investigation complete; no suspect identified","date":"2025-08"},"persistent_id":"b032904bf3c1737659aecefdea488df83175ac2c0723995b521475154f1c70f5","id":130469177,"location_subtype":"","month":"2025-08"},{"category":"vehicle-crime","location_type":"Force","location":{"latitude":"51.577739","street":{"id":2142410,"name":"On or near Beeleigh East"},"longitude":"0.483564"},"context":"","outcome_status":{"category":"Investigation complete; no suspect identified","date":"2025-10"},"persistent_id":"1f3a1484efa542e06b93303818e2a59954648f664cd24727ba995e7c003b2b99","id":130475715,"location_subtype":"","month":"2025-08"},{"category":"vehicle-crime","location_type":"Force","location":{"latitude":"51.572289","street":{"id":2141959,"name":"On or near Thistledown"},"longitude":"0.471663"},"context":"","outcome_status":{"category":"Investigation complete; no suspect identified","date":"2025-08"},"persistent_id":"117e729bc5d6fdfb1b26e43735e94f533d783301c9ef34da7310dcf013828c80","id":130476540,"location_subtype":"","month":"2025-08"},{"category":"vehicle-crime","location_type":"Force","location":{"latitude":"51.577552","street":{"id":2142126,"name":"On or near Petrol Station"},"longitude":"0.475472"},"context":"","outcome_status":{"category":"Investigation complete; no suspect identified","date":"2025-09"},"persistent_id":"8d5ac5ee5e29a39e46f475d45e245fa4debdbeca66ed3d13e22381f03da2a610","id":130476541,"location_subtype":"","month":"2025-08"},{"category":"vehicle-crime","location_type":"Force","location":{"latitude":"51.577759","street":{"id":2142615,"name":"On or near Austen Road"},"longitude":"0.488573"},"context":"","outcome_status":{"category":"Investigation complete; no suspect identified","date":"2025-10"},"persistent_id":"65f7893e9bf196caa7583ab2dd46f7fe5d4bad69cd696b955ea32d402e8a27a7","id":130476141,"location_subtype":"","month":"2025-08"},{"category":"vehicle-crime","location_type":"Force","location":{"latitude":"51.569136","street":{"id":2142765,"name":"On or near Rippleside"},"longitude":"0.492735"},"context":"","outcome_status":{"category":"Investigation complete; no suspect identified","date":"2025-09"},"persistent_id":"722d83034a867d5aaed3ada6c9210c8413ccd701b635eb1676fb448f2860d3f1","id":130473688,"location_subtype":"","month":"2025-08"},{"category":"vehicle-crime","location_type":"Force","location":{"latitude":"51.570324","street":{"id":2142772,"name":"On or near Stublands"},"longitude":"0.493564"},"context":"","outcome_status":{"category":"Investigation complete; no suspect identified","date":"2025-09"},"persistent_id":"9b654a949a481196c9c2d8b6950e7cb6a36fe6d9e243fc6fb167cc88343332f2","id":130473689,"location_subtype":"","month":"2025-08"},{"category":"vehicle-crime","location_type":"Force","location":{"latitude":"51.578752","street":{"id":2141695,"name":"On or near The Upway"},"longitude":"0.466702"},"context":"","outcome_status":{"category":"Investigation complete; no suspect identified","date":"2025-08"},"persistent_id":"d0f1bb633637610b94d651597c1a4d58d7d1a1c762a3912fbb7480fdfb97bf09","id":130476139,"location_subtype":"","month":"2025-08"},{"category":"vehicle-crime","location_type":"Force","location":{"latitude":"51.569050","street":{"id":2141575,"name":"On or near Parking Area"},"longitude":"0.461054"},"context":"","outcome_status":{"category":"Investigation complete; no suspect identified","date":"2025-08"},"persistent_id":"e3c28494a90be33802e23a7a940220c4f69d47f6efc9384282429cc9bfb828f4","id":130474927,"location_subtype":"","month":"2025-08"},{"category":"vehicle-crime","location_type":"Force","location":{"latitude":"51.587269","street":{"id":2142386,"name":"On or near Jazz Lane"},"longitude":"0.482856"},"context":"","outcome_status":{"category":"Investigation complete; no suspect identified","date":"2025-09"},"persistent_id":"c65c2e9477641b69ebaf6dd1b19419ebfd217bec83c072c398a8165f3bdedf64","id":130477731,"location_subtype":"","month":"2025-08"},