[{"category":"anti-social-behaviour","location_type":"Force","location":{"latitude":"51.580612","street":{"id":2147172,"name":"On or near Knivet Close"},"longitude":"0.617402"},"context":"","outcome_status":null,"persistent_id":"","id":126787867,"location_subtype":"","month":"2025-03"},{"category":"anti-social-behaviour","location_type":"Force","location":{"latitude":"51.583897","street":{"id":2146459,"name":"On or near Burrows Way"},"longitude":"0.599531"},"context":"","outcome_status":null,"persistent_id":"","id":126787854,"location_subtype":"","month":"2025-03"},{"category":"anti-social-behaviour","location_type":"Force","location":{"latitude":"51.602954","street":{"id":2146546,"name":"On or near Kelso Close"},"longitude":"0.601558"},"context":"","outcome_status":null,"persistent_id":"","id":126787465,"location_subtype":"","month":"2025-03"},{"category":"anti-social-behaviour","location_type":"Force","location":{"latitude":"51.587618","street":{"id":2146993,"name":"On or near Keswick Close"},"longitude":"0.612145"},"context":"","outcome_status":null,"persistent_id":"","id":126787999,"location_subtype":"","month":"2025-03"},{"category":"anti-social-behaviour","location_type":"Force","location":{"latitude":"51.584235","street":{"id":2146814,"name":"On or near King George's Close"},"longitude":"0.608183"},"context":"","outcome_status":null,"persistent_id":"","id":126787347,"location_subtype":"","month":"2025-03"},{"category":"anti-social-behaviour","location_type":"Force","location":{"latitude":"51.580702","street":{"id":2146916,"name":"On or near Hardwick Close"},"longitude":"0.610940"},"context":"","outcome_status":null,"persistent_id":"","id":126787502,"location_subtype":"","month":"2025-03"},{"category":"anti-social-behaviour","location_type":"Force","location":{"latitude":"51.584235","street":{"id":2146814,"name":"On or near King George's Close"},"longitude":"0.608183"},"context":"","outcome_status":null,"persistent_id":"","id":126787144,"location_subtype":"","month":"2025-03"},{"category":"anti-social-behaviour","location_type":"Force","location":{"latitude":"51.590772","street":{"id":2145949,"name":"On or near Kelvedon Close"},"longitude":"0.588763"},"context":"","outcome_status":null,"persistent_id":"","id":126787321,"location_subtype":"","month":"2025-03"},{"category":"anti-social-behaviour","location_type":"Force","location":{"latitude":"51.586553","street":{"id":2146338,"name":"On or near Highmead"},"longitude":"0.597358"},"context":"","outcome_status":null,"persistent_id":"","id":126787807,"location_subtype":"","month":"2025-03"},{"category":"burglary","location_type":"Force","location":{"latitude":"51.586703","street":{"id":2147200,"name":"On or near Hilary Crescent"},"longitude":"0.618503"},"context":"","outcome_status":{"category":"Investigation complete; no suspect identified","date":"2025-04"},"persistent_id":"abb39181f6f0434b27827fca3b06f87207c58a1316c3a470ba8ea93fc804a079","id":126778522,"location_subtype":"","month":"2025-03"},{"category":"burglary","location_type":"Force","location":{"latitude":"51.577272","street":{"id":2147084,"name":"On or near Wyburns Avenue East"},"longitude":"0.615954"},"context":"","outcome_status":{"category":"Investigation complete; no suspect identified","date":"2025-03"},"persistent_id":"cfe28c5fe3db480af2c7a6df28daeca60f2f22c11fc83b2c906fb54cab250562","id":126776165,"location_subtype":"","month":"2025-03"},{"category":"burglary","location_type":"Force","location":{"latitude":"51.581894","street":{"id":2147436,"name":"On or near Warwick Gardens"},"longitude":"0.624433"},"context":"","outcome_status":{"category":"Investigation complete; no suspect identified","date":"2025-03"},"persistent_id":"5b27cc363f9e8a1ccea53222548cb60e5d0163bc28f9907a76fa4ec9a2deebd3","id":126784404,"location_subtype":"","month":"2025-03"},{"category":"burglary","location_type":"Force","location":{"latitude":"51.586089","street":{"id":2147093,"name":"On or near Kings Close"},"longitude":"0.614974"},"context":"","outcome_status":{"category":"Unable to prosecute suspect","date":"2025-04"},"persistent_id":"dbd866edd5976a5c392e868fa3c7b7f9658b081dbfa7e3e7092ef734591091c0","id":126785210,"location_subtype":"","month":"2025-03"},{"category":"burglary","location_type":"Force","location":{"latitude":"51.589441","street":{"id":2146643,"name":"On or near Hillview Road"},"longitude":"0.604193"},"context":"","outcome_status":{"category":"Investigation complete; no suspect identified","date":"2025-06"},"persistent_id":"6e7e5061e9bb7154113c5e5b0a2067a5b71b0542a54fb0626d7b3bdfb6b46abe","id":126781199,"location_subtype":"","month":"2025-03"},{"category":"burglary","location_type":"Force","location":{"latitude":"51.578504","street":{"id":2146651,"name":"On or near Totman Close"},"longitude":"0.605459"},"context":"","outcome_status":{"category":"Investigation complete; no suspect identified","date":"2025-05"},"persistent_id":"5025810d72671de748161e803dd05cef6da84808c13ba68ac3e52b96075bd114","id":126777337,"location_subtype":"","month":"2025-03"},{"category":"burglary","location_type":"Force","location":{"latitude":"51.589441","street":{"id":2146643,"name":"On or near Hillview Road"},"longitude":"0.604193"},"context":"","outcome_status":{"category":"Status update unavailable","date":"2025-07"},"persistent_id":"c5714e2d246fb6707317c3191ff19df8fdd027327384d72854e661e07180c726","id":126781595,"location_subtype":"","month":"2025-03"},{"category":"criminal-damage-arson","location_type":"Force","location":{"latitude":"51.584849","street":{"id":2146633,"name":"On or near Police Station"},"longitude":"0.604450"},"context":"","outcome_status":{"category":"Investigation complete; no suspect identified","date":"2025-03"},"persistent_id":"9d3d39fa72de6af78e28e54f74d871a5fd7cd459e6e16496fdc3900574fba626","id":126777743,"location_subtype":"","month":"2025-03"},{"category":"criminal-damage-arson","location_type":"Force","location":{"latitude":"51.576152","street":{"id":2146418,"name":"On or near Petrol Station"},"longitude":"0.599175"},"context":"","outcome_status":{"category":"Unable to prosecute suspect","date":"2025-03"},"persistent_id":"d9fe6e72345a778e8263fb18226e4f0e6ffcce13842eb4f8afa5bad621d88aa3","id":126774687,"location_subtype":"","month":"2025-03"},{"category":"criminal-damage-arson","location_type":"Force","location":{"latitude":"51.589139","street":{"id":2146089,"name":"On or near Heron Gardens"},"longitude":"0.592640"},"context":"","outcome_status":{"category":"Investigation complete; no suspect identified","date":"2025-03"},"persistent_id":"96e7ce391538629c47ba11c9b6688ec18e87555af60e7b2243f50a04e5e53026","id":126783162,"location_subtype":"","month":"2025-03"},{"category":"criminal-damage-arson","location_type":"Force","location":{"latitude":"51.587475","street":{"id":2146823,"name":"On or near Parking Area"},"longitude":"0.609278"},"context":"","outcome_status":{"category":"Investigation complete; no suspect identified","date":"2025-03"},"persistent_id":"044223984ae5af77992b60dcb1fdb8d8158667e3840fd890a371d98caa43bc63","id":126780126,"location_subtype":"","month":"2025-03"},{"category":"criminal-damage-arson","location_type":"Force","location":{"latitude":"51.597289","street":{"id":2146012,"name":"On or near Boston Avenue"},"longitude":"0.590520"},"context":"","outcome_status":{"category":"Unable to prosecute suspect","date":"2025-05"},"persistent_id":"e61675eee8ccc6be881c25d9dc3b77efa32156ae4409a2c69c8e9e7b3e0ce1b8","id":126784424,"location_subtype":"","month":"2025-03"},{"category":"criminal-damage-arson","location_type":"Force","location":{"latitude":"51.580702","street":{"id":2146916,"name":"On or near Hardwick Close"},"longitude":"0.610940"},"context":"","outcome_status":{"category":"Unable to prosecute suspect","date":"2025-05"},"persistent_id":"f31ab975a84addf29475b892ed7f68c2ccdbfcaf6f741dfceb200c0b0da05ab5","id":126776531,"location_subtype":"","month":"2025-03"},{"category":"criminal-damage-arson","location_type":"Force","location":{"latitude":"51.584602","street":{"id":2146557,"name":"On or near High Street"},"longitude":"0.602993"},"context":"","outcome_status":{"category":"Local resolution","date":"2025-08"},"persistent_id":"4d9b356ddfacfa92df3a22653e846b83fe31d2fa6b2a20e2de0de746684dc83b","id":126782791,"location_subtype":"","month":"2025-03"},{"category":"criminal-damage-arson","location_type":"Force","location":{"latitude":"51.596094","street":{"id":2145868,"name":"On or near Gunn Close"},"longitude":"0.587217"},"context":"","outcome_status":{"category":"Unable to prosecute suspect","date":"2025-03"},"persistent_id":"7d4e1535f0710de877e20d9c5542cc3b803df2a568f8751b7c27870ec8a8091f","id":126778551,"location_subtype":"","month":"2025-03"},{"category":"other-theft","location_type":"Force","location":{"latitude":"51.584146","street":{"id":2147002,"name":"On or near Broad Oak Way"},"longitude":"0.613014"},"context":"","outcome_status":{"category":"Status update unavailable","date":"2025-07"},"persistent_id":"176326bcee4647280d846fe110c57e5890c3fc4d493608ac526345176efbb3d7","id":126781295,"location_subtype":"","month":"2025-03"},{"category":"other-theft","location_type":"Force","location":{"latitude":"51.579926","street":{"id":2147089,"name":"On or near White House Chase"},"longitude":"0.614721"},"context":"","outcome_status":{"category":"Unable to prosecute suspect","date":"2025-05"},"persistent_id":"081ba9ef68ce51412795df8f6e483e64ca00e74e9dd8761e8bbf5fed146fd184","id":126782480,"location_subtype":"","month":"2025-03"},{"category":"other-theft","location_type":"Force","location":{"latitude":"51.587946","street":{"id":2146788,"name":"On or near Church Street"},"longitude":"0.607934"},"context":"","outcome_status":{"category":"Investigation complete; no suspect identified","date":"2025-03"},"persistent_id":"a6d7040197c4828cee994c179bcf3a2dbddf8d07fdc8e718c40832f55742c034","id":126782840,"location_subtype":"","month":"2025-03"},{"category":"other-theft","location_type":"Force","location":{"latitude":"51.587235","street":{"id":2146795,"name":"On or near Nightclub"},"longitude":"0.607532"},"context":"","outcome_status":{"category":"Investigation complete; no suspect identified","date":"2025-03"},"persistent_id":"bb2478b75bfe60c9f423927c778a7361c6224e8360b8b4cbf422ad402122bc59","id":126781678,"location_subtype":"","month":"2025-03"},{"category":"other-theft","location_type":"Force","location":{"latitude":"51.596908","street":{"id":2146261,"name":"On or near Wimarc Crescent"},"longitude":"0.595552"},"context":"","outcome_status":{"category":"Investigation complete; no suspect identified","date":"2025-03"},"persistent_id":"4eeb98ac8bd0f0641ed935b4e5f2799b8d3563d7bc737a2391862e61a2c9e03e","id":126779019,"location_subtype":"","month":"2025-03"},{"category":"other-theft","location_type":"Force","location":{"latitude":"51.593754","street":{"id":2146664,"name":"On or near Sheriton Square"},"longitude":"0.606000"},"context":"","outcome_status":{"category":"Status update unavailable","date":"2025-07"},"persistent_id":"a28870a0145bef7a5659c45f798b576d1e33abefd1b6c90ec4669e4e0c68443f","id":126783622,"location_subtype":"","month":"2025-03"},{"category":"other-theft","location_type":"Force","location":{"latitude":"51.577928","street":{"id":2146700,"name":"On or near Totman Crescent"},"longitude":"0.605888"},"context":"","outcome_status":{"category":"Unable to prosecute suspect","date":"2025-07"},"persistent_id":"fa2f68d9139b5b378d77cae1cfdfd8e384ae36da5ff70dd5f0868ff01082e1cb","id":126780915,"location_subtype":"","month":"2025-03"},{"category":"other-theft","location_type":"Force","location":{"latitude":"51.585919","street":{"id":2146693,"name":"On or near Bus/coach Station"},"longitude":"0.605815"},"context":"","outcome_status":{"category":"Status update unavailable","date":"2025-07"},"persistent_id":"bc12589391eb047f4d190312dc7a19f011da35271eecba2ec4dc9bc0f65b2f9d","id":126785778,"location_subtype":"","month":"2025-03"},{"category":"other-theft","location_type":"Force","location":{"latitude":"51.593998","street":{"id":2146186,"name":"On or near London Road"},"longitude":"0.594144"},"context":"","outcome_status":{"category":"Unable to prosecute suspect","date":"2025-04"},"persistent_id":"f55ebe75fd2cf1c90d350f052726f828bd73b4cffdaf33aac305663400a64436","id":126783223,"location_subtype":"","month":"2025-03"},{"category":"public-order","location_type":"Force","location":{"latitude":"51.587946","street":{"id":2146788,"name":"On or near Church Street"},"longitude":"0.607934"},"context":"","outcome_status":{"category":"Investigation complete; no suspect identified","date":"2025-03"},"persistent_id":"9f4a74ca93f63d018825408dbc94915a5528a097d5996620b4b4a65e46cbbda7","id":126784068,"location_subtype":"","month":"2025-03"},{"category":"public-order","location_type":"Force","location":{"latitude":"51.594752","street":{"id":2147291,"name":"On or near Nelson Gardens"},"longitude":"0.621319"},"context":"","outcome_status":{"category":"Investigation complete; no suspect identified","date":"2025-03"},"persistent_id":"7366bd859e80da4e673a6302e2399616f81310e05154c2d44f86df95fba4043f","id":126785362,"location_subtype":"","month":"2025-03"},{"category":"public-order","location_type":"Force","location":{"latitude":"51.587325","street":{"id":2147443,"name":"On or near Grove Close"},"longitude":"0.623692"},"context":"","outcome_status":{"category":"Investigation complete; no suspect identified","date":"2025-04"},"persistent_id":"5ce32c2261b3bb7ac9cd9ea4f4f28308cc72fd528d32b0bbc52cf4a99ea16faa","id":126786140,"location_subtype":"","month":"2025-03"},{"category":"public-order","location_type":"Force","location":{"latitude":"51.579926","street":{"id":2147089,"name":"On or near White House Chase"},"longitude":"0.614721"},"context":"","outcome_status":{"category":"Unable to prosecute suspect","date":"2025-04"},"persistent_id":"b824a05cfe7d1673c75213ce5ed6d7e06ba0200168462fd0272eeb477dd631fb","id":126784543,"location_subtype":"","month":"2025-03"},{"category":"public-order","location_type":"Force","location":{"latitude":"51.584602","street":{"id":2146557,"name":"On or near High Street"},"longitude":"0.602993"},"context":"","outcome_status":{"category":"Unable to prosecute suspect","date":"2025-03"},"persistent_id":"9dd62b37736c4ec2c65f3adc683a4264b4d6dbfc44f2177b87305f6149e4afbd","id":126782102,"location_subtype":"","month":"2025-03"},{"category":"public-order","location_type":"Force","location":{"latitude":"51.593336","street":{"id":2146812,"name":"On or near Malvern Close"},"longitude":"0.608589"},"context":"","outcome_status":{"category":"Status update unavailable","date":"2025-07"},"persistent_id":"f6d7c20215a931314dedebb3a50c599083011d3b7001955acd1d7b328b330557","id":126784929,"location_subtype":"","month":"2025-03"},{"category":"public-order","location_type":"Force","location":{"latitude":"51.599657","street":{"id":2147031,"name":"On or near Fairland Close"},"longitude":"0.613110"},"context":"","outcome_status":{"category":"Unable to prosecute suspect","date":"2025-04"},"persistent_id":"0c5823c42c71ca6de621930947397fc1e837db6ad850d78dc6b5eedd3bbbae34","id":126781322,"location_subtype":"","month":"2025-03"},{"category":"public-order","location_type":"Force","location":{"latitude":"51.583574","street":{"id":2146755,"name":"On or near Finchfield"},"longitude":"0.606759"},"context":"","outcome_status":{"category":"Unable to prosecute suspect","date":"2025-09"},"persistent_id":"30ee697aa79db445d8b4989558964e19f4fd6b2ce71c008d8d56e6dafe885d72","id":126784930,"location_subtype":"","month":"2025-03"},{"category":"shoplifting","location_type":"Force","location":{"latitude":"51.584544","street":{"id":2146707,"name":"On or near Shopping Area"},"longitude":"0.606007"},"context":"","outcome_status":{"category":"Unable to prosecute suspect","date":"2025-03"},"persistent_id":"d2a5c3a7d328692e145be51d11de2732281c46afea3554f7957d1a056cdd9c11","id":126777867,"location_subtype":"","month":"2025-03"},{"category":"shoplifting","location_type":"Force","location":{"latitude":"51.579457","street":{"id":2147326,"name":"On or near Cedar Close"},"longitude":"0.621204"},"context":"","outcome_status":{"category":"Investigation complete; no suspect identified","date":"2025-04"},"persistent_id":"2a6477bc2bd1ff23fda06279ae54758dc1a582cae2079c4809e0ee79d99b5904","id":126778277,"location_subtype":"","month":"2025-03"},{"category":"shoplifting","location_type":"Force","location":{"latitude":"51.584544","street":{"id":2146707,"name":"On or near Shopping Area"},"longitude":"0.606007"},"context":"","outcome_status":{"category":"Court result unavailable","date":"2025-10"},"persistent_id":"8852f657894b888f328f7f0a6fac22f0d8b2fd0f169dd42c28e212a86b783403","id":126779098,"location_subtype":"","month":"2025-03"},{"category":"shoplifting","location_type":"Force","location":{"latitude":"51.585919","street":{"id":2146693,"name":"On or near Bus/coach Station"},"longitude":"0.605815"},"context":"","outcome_status":{"category":"Investigation complete; no suspect identified","date":"2025-03"},"persistent_id":"eaffd45d2ce997f928ac2fa5e6a466288b9667c2cd4ce036270748644822850f","id":126779514,"location_subtype":"","month":"2025-03"},{"category":"shoplifting","location_type":"Force","location":{"latitude":"51.584544","street":{"id":2146707,"name":"On or near Shopping Area"},"longitude":"0.606007"},"context":"","outcome_status":{"category":"Investigation complete; no suspect identified","date":"2025-03"},"persistent_id":"e9afc7e80cb21d3a024fd9755ebc1a8187b5e5e162fbfd1f00941446f1fa8287","id":126782145,"location_subtype":"","month":"2025-03"},{"category":"shoplifting","location_type":"Force","location":{"latitude":"51.586013","street":{"id":2146738,"name":"On or near Websters Way"},"longitude":"0.606711"},"context":"","outcome_status":{"category":"Investigation complete; no suspect identified","date":"2025-03"},"persistent_id":"7e56def2c50f381e861ff2dc35dc627d4e8dde2a304799fbe35e5f21bbfb1cff","id":126782146,"location_subtype":"","month":"2025-03"},{"category":"shoplifting","location_type":"Force","location":{"latitude":"51.584544","street":{"id":2146707,"name":"On or near Shopping Area"},"longitude":"0.606007"},"context":"","outcome_status":{"category":"Investigation complete; no suspect identified","date":"2025-03"},"persistent_id":"aed27293abb6ead2a1c5b295e4281f04123efc7e521a6ee7e623e31e15f6c9f3","id":126782904,"location_subtype":"","month":"2025-03"},{"category":"shoplifting","location_type":"Force","location":{"latitude":"51.584544","street":{"id":2146707,"name":"On or near Shopping Area"},"longitude":"0.606007"},"context":"","outcome_status":{"category":"Court result unavailable","date":"2025-09"},"persistent_id":"98ca8857ada7946d864b9d65a5b48d43783c972c1b08c816e854ab8259ca4dfb","id":126784596,"location_subtype":"","month":"2025-03"},{"category":"shoplifting","location_type":"Force","location":{"latitude":"51.576018","street":{"id":2146475,"name":"On or near Rat Lane"},"longitude":"0.602791"},"context":"","outcome_status":{"category":"Investigation complete; no suspect identified","date":"2025-03"},"persistent_id":"a45d28ae834ca090dadedc6cff7d0941cd463621a2e244677ccaede1086fd9b0","id":126784976,"location_subtype":"","month":"2025-03"},{"category":"shoplifting","location_type":"Force","location":{"latitude":"51.585919","street":{"id":2146693,"name":"On or near Bus/coach Station"},"longitude":"0.605815"},"context":"","outcome_status":{"category":"Investigation complete; no suspect identified","date":"2025-03"},"persistent_id":"31779f157f85de2cb3368da0d7e85400dfe01116b84e6b8edac6c04f46256ecd","id":126774789,"location_subtype":"","month":"2025-03"},{"category":"theft-from-the-person","location_type":"Force","location":{"latitude":"51.584544","street":{"id":2146707,"name":"On or near Shopping Area"},"longitude":"0.606007"},"context":"","outcome_status":{"category":"Unable to prosecute suspect","date":"2025-04"},"persistent_id":"e4de3f2ca47a547542fd8f5d151a19703d41ddbf73e5d9e6b8355985285179a8","id":126784169,"location_subtype":"","month":"2025-03"},{"category":"theft-from-the-person","location_type":"Force","location":{"latitude":"51.582030","street":{"id":2146686,"name":"On or near Moat Rise"},"longitude":"0.605040"},"context":"","outcome_status":{"category":"Unable to prosecute suspect","date":"2025-03"},"persistent_id":"b96b1df5e1713c93f76b7dca20fa58738eb2c0b6b04ea9e5b99d1ddb9b74f7c8","id":126778305,"location_subtype":"","month":"2025-03"},{"category":"vehicle-crime","location_type":"Force","location":{"latitude":"51.594381","street":{"id":2147246,"name":"On or near The Chestnuts"},"longitude":"0.619045"},"context":"","outcome_status":{"category":"Court result unavailable","date":"2025-10"},"persistent_id":"f103f540203823f625dc35cbcc3ce295e5a7520c05a8dc02c04316157f1b5912","id":126775569,"location_subtype":"","month":"2025-03"},{"category":"vehicle-crime","location_type":"Force","location":{"latitude":"51.580897","street":{"id":2147354,"name":"On or near Essex Close"},"longitude":"0.622369"},"context":"","outcome_status":{"category":"Investigation complete; no suspect identified","date":"2025-03"},"persistent_id":"3a9028cbcd774fa291c9bf18379e45f60fb21b3bbd1cfd6a1b647ef7e2b595f2","id":126776010,"location_subtype":"","month":"2025-03"},{"category":"vehicle-crime","location_type":"Force","location":{"latitude":"51.592747","street":{"id":2145831,"name":"On or near Gosfield Close"},"longitude":"0.585265"},"context":"","outcome_status":{"category":"Investigation complete; no suspect identified","date":"2025-03"},"persistent_id":"d3c38994d28bf986e14bd9d877652b3878921d523c6d15058d1a0b801427c2a0","id":126774825,"location_subtype":"","month":"2025-03"},{"category":"vehicle-crime","location_type":"Force","location":{"latitude":"51.592747","street":{"id":2145831,"name":"On or near Gosfield Close"},"longitude":"0.585265"},"context":"","outcome_status":{"category":"Investigation complete; no suspect identified","date":"2025-03"},"persistent_id":"c9110830bd1edb1269c6bf010ae9f8eccac9a7d97454c3822b144b67d9d523f3","id":126774826,"location_subtype":"","month":"2025-03"},{"category":"vehicle-crime","location_type":"Force","location":{"latitude":"51.580702","street":{"id":2146916,"name":"On or near Hardwick Close"},"longitude":"0.610940"},"context":"","outcome_status":{"category":"Investigation complete; no suspect identified","date":"2025-03"},"persistent_id":"95267182079a8ffe15095e1fcb3d16fd9470b1f6d00f82f3809eb3d444ac3cce","id":126778336,"location_subtype":"","month":"2025-03"},{"category":"violent-crime","location_type":"Force","location":{"latitude":"51.594452","street":{"id":2146326,"name":"On or near Sir Walter Raleigh Drive"},"longitude":"0.597650"},"context":"","outcome_status":{"category":"Unable to prosecute suspect","date":"2025-04"},"persistent_id":"df5afb8d7f34a74c9aebc793ce63382e6cbfd5027e8f3bdf1eaaab7d1093e2c9","id":126781514,"location_subtype":"","month":"2025-03"},{"category":"violent-crime","location_type":"Force","location":{"latitude":"51.584235","street":{"id":2146814,"name":"On or near King George's Close"},"longitude":"0.608183"},"context":"","outcome_status":{"category":"Unable to prosecute suspect","date":"2025-06"},"persistent_id":"dca5fc01433a3627fcf0e719a354c0c4361eb1e3dd3e8f22785278c042a6ee36","id":126779273,"location_subtype":"","month":"2025-03"},{"category":"violent-crime","location_type":"Force","location":{"latitude":"51.584235","street":{"id":2146814,"name":"On or near King George's Close"},"longitude":"0.608183"},"context":"","outcome_status":{"category":"Unable to prosecute suspect","date":"2025-05"},"persistent_id":"78a96ea2df06d7c3184afa39a88982d58c731ed5cd67141b1528325c090130a6","id":126779274,"location_subtype":"","month":"2025-03"},{"category":"violent-crime","location_type":"Force","location":{"latitude":"51.584235","street":{"id":2146814,"name":"On or near King George's Close"},"longitude":"0.608183"},"context":"","outcome_status":{"category":"Unable to prosecute suspect","date":"2025-04"},"persistent_id":"b3ea6ed0cc3ac779bff137b1ec45bf505da31b0e69881e584f3b17034e8203d0","id":126779272,"location_subtype":"","month":"2025-03"},{"category":"violent-crime","location_type":"Force","location":{"latitude":"51.584235","street":{"id":2146814,"name":"On or near King George's Close"},"longitude":"0.608183"},"context":"","outcome_status":{"category":"Unable to prosecute suspect","date":"2025-04"},"persistent_id":"9966c7c8d91f46d6c8b410fe1ea1f1134109d1246d5c62ba16c25516346ed1b6","id":126779271,"location_subtype":"","month":"2025-03"},{"category":"violent-crime","location_type":"Force","location":{"latitude":"51.584602","street":{"id":2146557,"name":"On or near High Street"},"longitude":"0.602993"},"context":"","outcome_status":{"category":"Investigation complete; no suspect identified","date":"2025-03"},"persistent_id":"476164fc573343d3958abf9ae28f82220b471ed7946a65362871004f690c6b29","id":126779270,"location_subtype":"","month":"2025-03"},{"category":"violent-crime","location_type":"Force","location":{"latitude":"51.591879","street":{"id":2146435,"name":"On or near Creswick Avenue"},"longitude":"0.601315"},"context":"","outcome_status":{"category":"Unable to prosecute suspect","date":"2025-03"},"persistent_id":"30b966ed32fba10adf6744f9983c50229540388bf45e46087f3822beabb1fb39","id":126779268,"location_subtype":"","month":"2025-03"},{"category":"violent-crime","location_type":"Force","location":{"latitude":"51.584602","street":{"id":2146557,"name":"On or near High Street"},"longitude":"0.602993"},"context":"","outcome_status":{"category":"Investigation complete; no suspect identified","date":"2025-04"},"persistent_id":"64cf42aaec37bca812170f693d41581cbee8322463262951c966c60b6bb6b83a","id":126785602,"location_subtype":"","month":"2025-03"},{"category":"violent-crime","location_type":"Force","location":{"latitude":"51.576018","street":{"id":2146475,"name":"On or near Rat Lane"},"longitude":"0.602791"},"context":"","outcome_status":{"category":"Unable to prosecute suspect","date":"2025-03"},"persistent_id":"75fd31e249c6d41de642a5985d20b38459aeacc40b135f9bae195c6129c4007e","id":126779991,"location_subtype":"","month":"2025-03"},{"category":"violent-crime","location_type":"Force","location":{"latitude":"51.592241","street":{"id":2146408,"name":"On or near Talbot Avenue"},"longitude":"0.598376"},"context":"","outcome_status":{"category":"Action to be taken by another organisation","date":"2025-04"},"persistent_id":"d97675e2404232b223f1ac441f95f8ca3c2fe9cc7d351eadf37cd4efda2700b7","id":126779638,"location_subtype":"","month":"2025-03"},{"category":"violent-crime","location_type":"Force","location":{"latitude":"51.579193","street":{"id":2146961,"name":"On or near The Glen"},"longitude":"0.612080"},"context":"","outcome_status":{"category":"Investigation complete; no suspect identified","date":"2025-03"},"persistent_id":"04299792b9ec7a2d127425aeff63e8f97347cc89e27f7ca0ad9ff51153c6977f","id":126780739,"location_subtype":"","month":"2025-03"},{"category":"violent-crime","location_type":"Force","location":{"latitude":"51.582402","street":{"id":2146495,"name":"On or near Thames Close"},"longitude":"0.601640"},"context":"","outcome_status":{"category":"Court result unavailable","date":"2025-09"},"persistent_id":"ccca03ec152b7f84b4555db35c169f78915bc42e0c661a575dc3fcc91e018fb3","id":126781112,"location_subtype":"","month":"2025-03"},{"category":"violent-crime","location_type":"Force","location":{"latitude":"51.586703","street":{"id":2147200,"name":"On or near Hilary Crescent"},"longitude":"0.618503"},"context":"","outcome_status":{"category":"Unable to prosecute suspect","date":"2025-04"},"persistent_id":"edd1dc0e721f1c251f6fcbd2eb1196738e9a1c7763d3c539e025d06a3d4cf509","id":126778443,"location_subtype":"","month":"2025-03"},{"category":"violent-crime","location_type":"Force","location":{"latitude":"51.592553","street":{"id":2147296,"name":"On or near Hamilton Mews"},"longitude":"0.620731"},"context":"","outcome_status":{"category":"Unable to prosecute suspect","date":"2025-04"},"persistent_id":"be29098ae9aacea8e161852d418619ffb57eca5d28d6fc63639a82897fc559b6","id":126778447,"location_subtype":"","month":"2025-03"},{"category":"violent-crime","location_type":"Force","location":{"latitude":"51.601915","street":{"id":2146529,"name":"On or near Salisbury Close"},"longitude":"0.600950"},"context":"","outcome_status":{"category":"Unable to prosecute suspect","date":"2025-05"},"persistent_id":"d19eb345508efa7e03212998f391e5d17a6fb66b6e787244f1c5164a6e5dc82e","id":126781515,"location_subtype":"","month":"2025-03"},{"category":"violent-crime","location_type":"Force","location":{"latitude":"51.594452","street":{"id":2146326,"name":"On or near Sir Walter Raleigh Drive"},"longitude":"0.597650"},"context":"","outcome_status":{"category":"Unable to prosecute suspect","date":"2025-03"},"persistent_id":"1f993e73e99235a4ccbfe3aa3b1234a2ca960c92c70f6ea7551ded885f18267e","id":126782680,"location_subtype":"","month":"2025-03"},{"category":"violent-crime","location_type":"Force","location":{"latitude":"51.584544","street":{"id":2146707,"name":"On or near Shopping Area"},"longitude":"0.606007"},"context":"","outcome_status":{"category":"Unable to prosecute suspect","date":"2025-03"},"persistent_id":"8dd6cbe625f13182fcb1a06cc096b12014b4bb3b7fa0fc663341a9733a170243","id":126782688,"location_subtype":"","month":"2025-03"},{"category":"violent-crime","location_type":"Force","location":{"latitude":"51.587235","street":{"id":2146795,"name":"On or near Nightclub"},"longitude":"0.607532"},"context":"","outcome_status":{"category":"Unable to prosecute suspect","date":"2025-03"},"persistent_id":"ff7c75c72f2b6b007fd017b87394829c7bbe560d88782c6aa1517a71a786698b","id":126777608,"location_subtype":"","month":"2025-03"},{"category":"violent-crime","location_type":"Force","location":{"latitude":"51.586118","street":{"id":2147521,"name":"On or near Milton Close"},"longitude":"0.626164"},"context":"","outcome_status":{"category":"Unable to prosecute suspect","date":"2025-03"},"persistent_id":"cfa9366354c22da3e992d9eb380c0adfa157970e13e6889d91315f681a9786c6","id":126783432,"location_subtype":"","month":"2025-03"},{"category":"violent-crime","location_type":"Force","location":{"latitude":"51.601915","street":{"id":2146529,"name":"On or near Salisbury Close"},"longitude":"0.600950"},"context":"","outcome_status":{"category":"Unable to prosecute suspect","date":"2025-04"},"persistent_id":"b7e2487a53784bf07e7cb10dd60af6d3c3ebfd63ddc76c04bc3fcc162c957f47","id":126776824,"location_subtype":"","month":"2025-03"},{"category":"violent-crime","location_type":"Force","location":{"latitude":"51.591397","street":{"id":2145927,"name":"On or near Bardfield Way"},"longitude":"0.587759"},"context":"","outcome_status":{"category":"Court result unavailable","date":"2025-09"},"persistent_id":"f6697192c42a350619efffb470bd3efd56655331df3173bfe1d6e1f5329f3a40","id":126784318,"location_subtype":"","month":"2025-03"},{"category":"violent-crime","location_type":"Force","location":{"latitude":"51.580723","street":{"id":2147543,"name":"On or near Warwick Road"},"longitude":"0.626127"},"context":"","outcome_status":{"category":"Unable to prosecute suspect","date":"2025-04"},"persistent_id":"ad1a0e66292fe0426071d6d99d18207b908158eb3edafb5eaed113a2787d75ee","id":126785976,"location_subtype":"","month":"2025-03"},{"category":"violent-crime","location_type":"Force","location":{"latitude":"51.584602","street":{"id":2146557,"name":"On or near High Street"},"longitude":"0.602993"},"context":"","outcome_status":{"category":"Unable to prosecute suspect","date":"2025-05"},"persistent_id":"8238a94d19124477d3f36b1657445a1544a40e0a912f443ad59a0668c04c19ad","id":126785603,"location_subtype":"","month":"2025-03"},{"category":"violent-crime","location_type":"Force","location":{"latitude":"51.589983","street":{"id":2145819,"name":"On or near Polstead Close"},"longitude":"0.584560"},"context":"","outcome_status":{"category":"Unable to prosecute suspect","date":"2025-06"},"persistent_id":"98423205182768cbad15a1badbceff62b43e6fc6322d1086813db6e126b49d3a","id":126776425,"location_subtype":"","month":"2025-03"},{"category":"violent-crime","location_type":"Force","location":{"latitude":"51.584849","street":{"id":2146633,"name":"On or near Police Station"},"longitude":"0.604450"},"context":"","outcome_status":{"category":"Court result unavailable","date":"2025-09"},"persistent_id":"4e8f868796498afe5a0ad8b230943eaa9c4f28c577bd5b952738fb489f08e77f","id":126785972,"location_subtype":"","month":"2025-03"},{"category":"violent-crime","location_type":"Force","location":{"latitude":"51.594452","street":{"id":2146326,"name":"On or near Sir Walter Raleigh Drive"},"longitude":"0.597650"},"context":"","outcome_status":{"category":"Action to be taken by another organisation","date":"2025-05"},"persistent_id":"bb3daca444e576b4cf67fa39d9a166085d7fd5f54ce1519d35311873112353ae","id":126776100,"location_subtype":"","month":"2025-03"},{"category":"violent-crime","location_type":"Force","location":{"latitude":"51.588796","street":{"id":2146988,"name":"On or near Mill Field Close"},"longitude":"0.612574"},"context":"","outcome_status":{"category":"Unable to prosecute suspect","date":"2025-03"},"persistent_id":"89684e9a3ffbecb7fb8ecb0e3286050916303d73016266e60341d587de003d31","id":126775706,"location_subtype":"","month":"2025-03"},{"category":"violent-crime","location_type":"Force","location":{"latitude":"51.587235","street":{"id":2146795,"name":"On or near Nightclub"},"longitude":"0.607532"},"context":"","outcome_status":{"category":"Unable to prosecute suspect","date":"2025-03"},"persistent_id":"1ef4348b8c60dba75a0eb4ffc92721a940da557f77aef241ff71fef29e885659","id":126775244,"location_subtype":"","month":"2025-03"},{"category":"violent-crime","location_type":"Force","location":{"latitude":"51.601915","street":{"id":2146529,"name":"On or near Salisbury Close"},"longitude":"0.600950"},"context":"","outcome_status":{"category":"Unable to prosecute suspect","date":"2025-03"},"persistent_id":"00cae32b0c16bcfcc0c7f50f6b86b573805246290ede84af6b389c9e9d9b3427","id":126775243,"location_subtype":"","month":"2025-03"},{"category":"violent-crime","location_type":"Force","location":{"latitude":"51.595966","street":{"id":2147051,"name":"On or near Plowmans"},"longitude":"0.614083"},"context":"","outcome_status":{"category":"Unable to prosecute suspect","date":"2025-03"},"persistent_id":"dea399ee995a57bf8e6331aab54186de521ea838058d03dcee8de25fb20f95fc","id":126778850,"location_subtype":"","month":"2025-03"},{"category":"violent-crime","location_type":"Force","location":{"latitude":"51.601915","street":{"id":2146529,"name":"On or near Salisbury Close"},"longitude":"0.600950"},"context":"","outcome_status":{"category":"Unable to prosecute suspect","date":"2025-03"},"persistent_id":"a511e208b70adc18b4e6e91fb6c1f4e8c3d5ff32ddbb9bf37c2783761f324b84","id":126775242,"location_subtype":"","month":"2025-03"},{"category":"violent-crime","location_type":"Force","location":{"latitude":"51.601152","street":{"id":2147018,"name":"On or near Mortimer Road"},"longitude":"0.613037"},"context":"","outcome_status":{"category":"Unable to prosecute suspect","date":"2025-09"},"persistent_id":"c52736bcf3038f91644970dae2f43928c21258d22f02c07b582cd814feeffdbe","id":126782304,"location_subtype":"","month":"2025-03"},{"category":"violent-crime","location_type":"Force","location":{"latitude":"51.591260","street":{"id":2147019,"name":"On or near The Courts"},"longitude":"0.613394"},"context":"","outcome_status":{"category":"Action to be taken by another organisation","date":"2025-04"},"persistent_id":"dc0d6fbda80604a39e0e232ded466efd6e812ab6cfd66b93e19b25551c54ef7c","id":126780738,"location_subtype":"","month":"2025-03"},{"category":"violent-crime","location_type":"Force","location":{"latitude":"51.600759","street":{"id":2146639,"name":"On or near Truro Crescent"},"longitude":"0.604408"},"context":"","outcome_status":{"category":"Unable to prosecute suspect","date":"2025-04"},"persistent_id":"478da15d7391e6177e07b12f1e251ea2021c71857e81560bbe45fc8bc1c21e6a","id":126783847,"location_subtype":"","month":"2025-03"},{"category":"violent-crime","location_type":"Force","location":{"latitude":"51.593754","street":{"id":2146664,"name":"On or near Sheriton Square"},"longitude":"0.606000"},"context":"","outcome_status":{"category":"Unable to prosecute suspect","date":"2025-05"},"persistent_id":"d7665ea6b27e8bde2d75288e144557851fce70604d7f80ecbe782515ad2e213f","id":126785605,"location_subtype":"","month":"2025-03"},{"category":"violent-crime","location_type":"Force","location":{"latitude":"51.593754","street":{"id":2146664,"name":"On or near Sheriton Square"},"longitude":"0.606000"},"context":"","outcome_status":{"category":"Unable to prosecute suspect","date":"2025-04"},"persistent_id":"5e160fc601ab92b65ad80b54c8461d76c36e3eae48dbfe3c54c3eb008634dc88","id":126781517,"location_subtype":"","month":"2025-03"},{"category":"violent-crime","location_type":"Force","location":{"latitude":"51.587486","street":{"id":2146632,"name":"On or near Francis Walk"},"longitude":"0.603547"},"context":"","outcome_status":{"category":"Court result unavailable","date":"2025-10"},"persistent_id":"121dfdda0769710a7202d42326aff28bb74c99be40c4f75dab094d55109f2b91","id":126782299,"location_subtype":"","month":"2025-03"},{"category":"violent-crime","location_type":"Force","location":{"latitude":"51.587486","street":{"id":2146632,"name":"On or near Francis Walk"},"longitude":"0.603547"},"context":"","outcome_status":{"category":"Court result unavailable","date":"2025-10"},"persistent_id":"0a0422f59260fd98fa3b830521db9ef9fd273b17c5ae7078112caf791048e664","id":126782300,"location_subtype":"","month":"2025-03"},{"category":"violent-crime","location_type":"Force","location":{"latitude":"51.587486","street":{"id":2146632,"name":"On or near Francis Walk"},"longitude":"0.603547"},"context":"","outcome_status":{"category":"Court result unavailable","date":"2025-10"},"persistent_id":"350dcac3203559c4a428b0446073b2f41b1bf99c2bbeebcc446aa43767152b96","id":126782301,"location_subtype":"","month":"2025-03"},{"category":"violent-crime","location_type":"Force","location":{"latitude":"51.587486","street":{"id":2146632,"name":"On or near Francis Walk"},"longitude":"0.603547"},"context":"","outcome_status":{"category":"Court result unavailable","date":"2025-10"},"persistent_id":"1e2ba28779def090ad7ef604faf7e802bf418a1617657f3cf1e1e4ea2c81a0a5","id":126782685,"location_subtype":"","month":"2025-03"},{"category":"violent-crime","location_type":"Force","location":{"latitude":"51.587486","street":{"id":2146632,"name":"On or near Francis Walk"},"longitude":"0.603547"},"context":"","outcome_status":{"category":"Court result unavailable","date":"2025-10"},"persistent_id":"ee418e9f0d7cfeb82a5c8b67ddfc668a30a1f233d5d9b6df5cde42298e1ae016","id":126782686,"location_subtype":"","month":"2025-03"},{"category":"violent-crime","location_type":"Force","location":{"latitude":"51.587235","street":{"id":2146795,"name":"On or near Nightclub"},"longitude":"0.607532"},"context":"","outcome_status":{"category":"Unable to prosecute suspect","date":"2025-04"},"persistent_id":"2c16462d49624af785f281ed0e5005685360bee81346312d298b29dfed0d54b7","id":126783427,"location_subtype":"","month":"2025-03"},{"category":"violent-crime","location_type":"Force","location":{"latitude":"51.600759","street":{"id":2146639,"name":"On or near Truro Crescent"},"longitude":"0.604408"},"context":"","outcome_status":{"category":"Unable to prosecute suspect","date":"2025-04"},"persistent_id":"840d15302ee96ee814c5a5d63f4631b70843ae862827149616b008f8644c3e92","id":126784321,"location_subtype":"","month":"2025-03"},{"category":"violent-crime","location_type":"Force","location":{"latitude":"51.587486","street":{"id":2146632,"name":"On or near Francis Walk"},"longitude":"0.603547"},"context":"","outcome_status":{"category":"Court result unavailable","date":"2025-10"},"persistent_id":"5f5773b92c592f83df151e0a9fcecd0584f8c9c49f499a7c4574db89d01529ce","id":126782684,"location_subtype":"","month":"2025-03"},{"category":"violent-crime","location_type":"Force","location":{"latitude":"51.583897","street":{"id":2146459,"name":"On or near Burrows Way"},"longitude":"0.599531"},"context":"","outcome_status":{"category":"Unable to prosecute suspect","date":"2025-08"},"persistent_id":"f39ae14be9d21b849aa739d8411a9b094a9519f5dea5c35a7d76e2e64b46fea4","id":126785970,"location_subtype":"","month":"2025-03"},{"category":"violent-crime","location_type":"Force","location":{"latitude":"51.583897","street":{"id":2146459,"name":"On or near Burrows Way"},"longitude":"0.599531"},"context":"","outcome_status":{"category":"Unable to prosecute suspect","date":"2025-09"},"persistent_id":"abdcd262ee93e39e6536d5ef279e335ed35f258f9f022265f6c085b6419578d2","id":126785969,"location_subtype":"","month":"2025-03"},{"category":"violent-crime","location_type":"Force","location":{"latitude":"51.584544","street":{"id":2146707,"name":"On or near Shopping Area"},"longitude":"0.606007"},"context":"","outcome_status":{"category":"Investigation complete; no suspect identified","date":"2025-05"},"persistent_id":"716e78fb5907c91e10c6eda3b495f4a3300010c15f180e0a318c90d1b501378f","id":126782302,"location_subtype":"","month":"2025-03"},{"category":"violent-crime","location_type":"Force","location":{"latitude":"51.587486","street":{"id":2146632,"name":"On or near Francis Walk"},"longitude":"0.603547"},"context":"","outcome_status":{"category":"Court result unavailable","date":"2025-10"},"persistent_id":"a9d54a32a1961c6e37fec359feb626e35220336ea5f6d14349b53c412b2dca17","id":126782687,"location_subtype":"","month":"2025-03"},{"category":"violent-crime","location_type":"Force","location":{"latitude":"51.585736","street":{"id":2146694,"name":"On or near Shopping Area"},"longitude":"0.605800"},"context":"","outcome_status":{"category":"Unable to prosecute suspect","date":"2025-04"},"persistent_id":"2b1dc28e09fafafe2bfedfea8e64a2ac4518457f1b1b7c2cc69df8f4031ff40d","id":126781113,"location_subtype":"","month":"2025-03"},{"category":"violent-crime","location_type":"Force","location":{"latitude":"51.588922","street":{"id":2146913,"name":"On or near Barringtons Close"},"longitude":"0.610155"},"context":"","outcome_status":{"category":"Unable to prosecute suspect","date":"2025-04"},"persistent_id":"2e7efd07ebdb340415a085029212ce690849a7e7da5f7b81bec189f054fbc2f6","id":126784743,"location_subtype":"","month":"2025-03"},{"category":"violent-crime","location_type":"Force","location":{"latitude":"51.595715","street":{"id":2146061,"name":"On or near Hartford Close"},"longitude":"0.590964"},"context":"","outcome_status":{"category":"Unable to prosecute suspect","date":"2025-04"},"persistent_id":"4e1ab811aca8bd3a3f9f080289e63a25d5fa6dd74169a05e5f99cd69e08ccb67","id":126783424,"location_subtype":"","month":"2025-03"},{"category":"violent-crime","location_type":"Force","location":{"latitude":"51.601915","street":{"id":2146529,"name":"On or near Salisbury Close"},"longitude":"0.600950"},"context":"","outcome_status":{"category":"Investigation complete; no suspect identified","date":"2025-04"},"persistent_id":"940375b8b88d7094bca9e20b85ce1b2c6d885cdab017e159f07ad0d80df170bf","id":126783846,"location_subtype":"","month":"2025-03"},{"category":"violent-crime","location_type":"Force","location":{"latitude":"51.586089","street":{"id":2147093,"name":"On or near Kings Close"},"longitude":"0.614974"},"context":"","outcome_status":{"category":"Unable to prosecute suspect","date":"2025-04"},"persistent_id":"4aec1e36e6c0f6773051be5795a65d5fed153c7e2f55694cbeebae7059136deb","id":126783849,"location_subtype":"","month":"2025-03"},{"category":"violent-crime","location_type":"Force","location":{"latitude":"51.598210","street":{"id":2146067,"name":"On or near Brunswick Place"},"longitude":"0.591598"},"context":"","outcome_status":{"category":"Unable to prosecute suspect","date":"2025-04"},"persistent_id":"7f74dcc1eb6bdd9c68f0c822a1d45b2c82954cb1ae5ac42f8b92bf599d682571","id":126784740,"location_subtype":"","month":"2025-03"},{"category":"other-crime","location_type":"Force","location":{"latitude":"51.593754","street":{"id":2146664,"name":"On or near Sheriton Square"},"longitude":"0.606000"},"context":"","outcome_status":{"category":"Formal action is not in the public interest","date":"2025-03"},"persistent_id":"a659c19400e6fa0b721072b4fd0bfbb73b36d53f29c995faeb9640aa8b7794eb","id":126784007,"location_subtype":"","month":"2025-03"},{"category":"other-crime","location_type":"Force","location":{"latitude":"51.582708","street":{"id":2146737,"name":"On or near Sykes Mead"},"longitude":"0.606075"},"context":"","outcome_status":{"category":"Further investigation is not in the public interest","date":"2025-04"},"persistent_id":"b51be0ae1138ee97e07d77f69e1865d3318383f570ab4309e3ab97d4b74cfc70","id":126782828,"location_subtype":"","month":"2025-03"}]