[{"category":"anti-social-behaviour","location_type":"Force","location":{"latitude":"51.423647","street":{"id":1681223,"name":"On or near Monarch Mews"},"longitude":"-0.110149"},"context":"","outcome_status":null,"persistent_id":"","id":127556881,"location_subtype":"","month":"2025-04"},{"category":"anti-social-behaviour","location_type":"Force","location":{"latitude":"51.423958","street":{"id":1680635,"name":"On or near Winton Way"},"longitude":"-0.113257"},"context":"","outcome_status":null,"persistent_id":"","id":127563577,"location_subtype":"","month":"2025-04"},{"category":"anti-social-behaviour","location_type":"Force","location":{"latitude":"51.418568","street":{"id":1677251,"name":"On or near Parking Area"},"longitude":"-0.135556"},"context":"","outcome_status":null,"persistent_id":"","id":127563334,"location_subtype":"","month":"2025-04"},{"category":"anti-social-behaviour","location_type":"Force","location":{"latitude":"51.426058","street":{"id":1676261,"name":"On or near Fayland Avenue"},"longitude":"-0.141710"},"context":"","outcome_status":null,"persistent_id":"","id":127563228,"location_subtype":"","month":"2025-04"},{"category":"anti-social-behaviour","location_type":"Force","location":{"latitude":"51.429881","street":{"id":1675731,"name":"On or near West Drive"},"longitude":"-0.145741"},"context":"","outcome_status":null,"persistent_id":"","id":127559094,"location_subtype":"","month":"2025-04"},{"category":"anti-social-behaviour","location_type":"Force","location":{"latitude":"51.429881","street":{"id":1675731,"name":"On or near West Drive"},"longitude":"-0.145741"},"context":"","outcome_status":null,"persistent_id":"","id":127557923,"location_subtype":"","month":"2025-04"},{"category":"anti-social-behaviour","location_type":"Force","location":{"latitude":"51.418183","street":{"id":1675715,"name":"On or near Rural Way"},"longitude":"-0.146416"},"context":"","outcome_status":null,"persistent_id":"","id":127557827,"location_subtype":"","month":"2025-04"},{"category":"anti-social-behaviour","location_type":"Force","location":{"latitude":"51.420814","street":{"id":1678235,"name":"On or near Westwell Road Approach"},"longitude":"-0.129208"},"context":"","outcome_status":null,"persistent_id":"","id":127557467,"location_subtype":"","month":"2025-04"},{"category":"anti-social-behaviour","location_type":"Force","location":{"latitude":"51.416407","street":{"id":1677341,"name":"On or near Woodgate Drive"},"longitude":"-0.134810"},"context":"","outcome_status":null,"persistent_id":"","id":127556551,"location_subtype":"","month":"2025-04"},{"category":"anti-social-behaviour","location_type":"Force","location":{"latitude":"51.419897","street":{"id":1676721,"name":"On or near Edgington Road"},"longitude":"-0.138853"},"context":"","outcome_status":null,"persistent_id":"","id":127555659,"location_subtype":"","month":"2025-04"},{"category":"anti-social-behaviour","location_type":"Force","location":{"latitude":"51.421717","street":{"id":1677679,"name":"On or near Barrow Road"},"longitude":"-0.132278"},"context":"","outcome_status":null,"persistent_id":"","id":127555269,"location_subtype":"","month":"2025-04"},{"category":"anti-social-behaviour","location_type":"Force","location":{"latitude":"51.429881","street":{"id":1675731,"name":"On or near West Drive"},"longitude":"-0.145741"},"context":"","outcome_status":null,"persistent_id":"","id":127554932,"location_subtype":"","month":"2025-04"},{"category":"anti-social-behaviour","location_type":"Force","location":{"latitude":"51.411344","street":{"id":1679077,"name":"On or near Further/higher Educational Building"},"longitude":"-0.123541"},"context":"","outcome_status":null,"persistent_id":"","id":127562060,"location_subtype":"","month":"2025-04"},{"category":"anti-social-behaviour","location_type":"Force","location":{"latitude":"51.426410","street":{"id":1677391,"name":"On or near Babington Road"},"longitude":"-0.134446"},"context":"","outcome_status":null,"persistent_id":"","id":127561646,"location_subtype":"","month":"2025-04"},{"category":"anti-social-behaviour","location_type":"Force","location":{"latitude":"51.424229","street":{"id":1675581,"name":"On or near Moyser Road"},"longitude":"-0.147164"},"context":"","outcome_status":null,"persistent_id":"","id":127561467,"location_subtype":"","month":"2025-04"},{"category":"anti-social-behaviour","location_type":"Force","location":{"latitude":"51.435642","street":{"id":1678447,"name":"On or near Streatham Court"},"longitude":"-0.127495"},"context":"","outcome_status":null,"persistent_id":"","id":127562833,"location_subtype":"","month":"2025-04"},{"category":"anti-social-behaviour","location_type":"Force","location":{"latitude":"51.408619","street":{"id":1676810,"name":"On or near Hemlock Close"},"longitude":"-0.138765"},"context":"","outcome_status":null,"persistent_id":"","id":127561090,"location_subtype":"","month":"2025-04"},{"category":"anti-social-behaviour","location_type":"Force","location":{"latitude":"51.433826","street":{"id":1678517,"name":"On or near Woodleigh Gardens"},"longitude":"-0.126907"},"context":"","outcome_status":null,"persistent_id":"","id":127561031,"location_subtype":"","month":"2025-04"},{"category":"anti-social-behaviour","location_type":"Force","location":{"latitude":"51.425702","street":{"id":1676196,"name":"On or near Pendle Road"},"longitude":"-0.143077"},"context":"","outcome_status":null,"persistent_id":"","id":127560559,"location_subtype":"","month":"2025-04"},{"category":"anti-social-behaviour","location_type":"Force","location":{"latitude":"51.434571","street":{"id":1678749,"name":"On or near Leigham Avenue"},"longitude":"-0.125726"},"context":"","outcome_status":null,"persistent_id":"","id":127562739,"location_subtype":"","month":"2025-04"},{"category":"anti-social-behaviour","location_type":"Force","location":{"latitude":"51.415768","street":{"id":1677902,"name":"On or near Ellison Road"},"longitude":"-0.131370"},"context":"","outcome_status":null,"persistent_id":"","id":127560167,"location_subtype":"","month":"2025-04"},{"category":"anti-social-behaviour","location_type":"Force","location":{"latitude":"51.435245","street":{"id":1677634,"name":"On or near Woodfield Grove"},"longitude":"-0.133554"},"context":"","outcome_status":null,"persistent_id":"","id":127550609,"location_subtype":"","month":"2025-04"},{"category":"anti-social-behaviour","location_type":"Force","location":{"latitude":"51.408522","street":{"id":1676693,"name":"On or near Longthornton Road"},"longitude":"-0.139444"},"context":"","outcome_status":null,"persistent_id":"","id":127550874,"location_subtype":"","month":"2025-04"},{"category":"anti-social-behaviour","location_type":"Force","location":{"latitude":"51.416384","street":{"id":1676370,"name":"On or near Abercairn Road"},"longitude":"-0.141829"},"context":"","outcome_status":null,"persistent_id":"","id":127550408,"location_subtype":"","month":"2025-04"},{"category":"anti-social-behaviour","location_type":"Force","location":{"latitude":"51.424315","street":{"id":1679272,"name":"On or near Deerhurst Road"},"longitude":"-0.122060"},"context":"","outcome_status":null,"persistent_id":"","id":127550076,"location_subtype":"","month":"2025-04"},{"category":"anti-social-behaviour","location_type":"Force","location":{"latitude":"51.422121","street":{"id":1681638,"name":"On or near Supermarket"},"longitude":"-0.106443"},"context":"","outcome_status":null,"persistent_id":"","id":127549998,"location_subtype":"","month":"2025-04"},{"category":"anti-social-behaviour","location_type":"Force","location":{"latitude":"51.429479","street":{"id":1677189,"name":"On or near Thirlmere Road"},"longitude":"-0.136292"},"context":"","outcome_status":null,"persistent_id":"","id":127548659,"location_subtype":"","month":"2025-04"},{"category":"anti-social-behaviour","location_type":"Force","location":{"latitude":"51.430997","street":{"id":1678088,"name":"On or near Supermarket"},"longitude":"-0.130001"},"context":"","outcome_status":null,"persistent_id":"","id":127548469,"location_subtype":"","month":"2025-04"},{"category":"anti-social-behaviour","location_type":"Force","location":{"latitude":"51.430057","street":{"id":1678248,"name":"On or near Shrubbery Road"},"longitude":"-0.128529"},"context":"","outcome_status":null,"persistent_id":"","id":127546963,"location_subtype":"","month":"2025-04"},{"category":"anti-social-behaviour","location_type":"Force","location":{"latitude":"51.419759","street":{"id":1678403,"name":"On or near Voss Court"},"longitude":"-0.126763"},"context":"","outcome_status":null,"persistent_id":"","id":127545600,"location_subtype":"","month":"2025-04"},{"category":"anti-social-behaviour","location_type":"Force","location":{"latitude":"51.411889","street":{"id":1675650,"name":"On or near Woodside Way"},"longitude":"-0.146498"},"context":"","outcome_status":null,"persistent_id":"","id":127563065,"location_subtype":"","month":"2025-04"},{"category":"anti-social-behaviour","location_type":"Force","location":{"latitude":"51.424854","street":{"id":1677311,"name":"On or near Fairmile Avenue"},"longitude":"-0.135588"},"context":"","outcome_status":null,"persistent_id":"","id":127562876,"location_subtype":"","month":"2025-04"},{"category":"anti-social-behaviour","location_type":"Force","location":{"latitude":"51.415259","street":{"id":1677475,"name":"On or near Glenister Park Road"},"longitude":"-0.134411"},"context":"","outcome_status":null,"persistent_id":"","id":127561275,"location_subtype":"","month":"2025-04"},{"category":"anti-social-behaviour","location_type":"Force","location":{"latitude":"51.416798","street":{"id":1676461,"name":"On or near Canmore Gardens"},"longitude":"-0.140158"},"context":"","outcome_status":null,"persistent_id":"","id":127561390,"location_subtype":"","month":"2025-04"},{"category":"anti-social-behaviour","location_type":"Force","location":{"latitude":"51.423884","street":{"id":1680650,"name":"On or near Esam Way"},"longitude":"-0.112613"},"context":"","outcome_status":null,"persistent_id":"","id":127560736,"location_subtype":"","month":"2025-04"},{"category":"anti-social-behaviour","location_type":"Force","location":{"latitude":"51.422080","street":{"id":1677841,"name":"On or near Byron Close"},"longitude":"-0.130206"},"context":"","outcome_status":null,"persistent_id":"","id":127559843,"location_subtype":"","month":"2025-04"},{"category":"anti-social-behaviour","location_type":"Force","location":{"latitude":"51.418568","street":{"id":1677251,"name":"On or near Parking Area"},"longitude":"-0.135556"},"context":"","outcome_status":null,"persistent_id":"","id":127559226,"location_subtype":"","month":"2025-04"},{"category":"anti-social-behaviour","location_type":"Force","location":{"latitude":"51.426208","street":{"id":1677971,"name":"On or near Shopping Area"},"longitude":"-0.131347"},"context":"","outcome_status":null,"persistent_id":"","id":127558930,"location_subtype":"","month":"2025-04"},{"category":"anti-social-behaviour","location_type":"Force","location":{"latitude":"51.420814","street":{"id":1678235,"name":"On or near Westwell Road Approach"},"longitude":"-0.129208"},"context":"","outcome_status":null,"persistent_id":"","id":127558693,"location_subtype":"","month":"2025-04"},{"category":"anti-social-behaviour","location_type":"Force","location":{"latitude":"51.411302","street":{"id":1676133,"name":"On or near Veronica Gardens"},"longitude":"-0.143516"},"context":"","outcome_status":null,"persistent_id":"","id":127557565,"location_subtype":"","month":"2025-04"},{"category":"anti-social-behaviour","location_type":"Force","location":{"latitude":"51.414281","street":{"id":1676266,"name":"On or near Granton Road"},"longitude":"-0.141929"},"context":"","outcome_status":null,"persistent_id":"","id":127557522,"location_subtype":"","month":"2025-04"},{"category":"anti-social-behaviour","location_type":"Force","location":{"latitude":"51.426208","street":{"id":1677971,"name":"On or near Shopping Area"},"longitude":"-0.131347"},"context":"","outcome_status":null,"persistent_id":"","id":127557042,"location_subtype":"","month":"2025-04"},{"category":"anti-social-behaviour","location_type":"Force","location":{"latitude":"51.413084","street":{"id":1677527,"name":"On or near Woodmansterne Road"},"longitude":"-0.133924"},"context":"","outcome_status":null,"persistent_id":"","id":127557103,"location_subtype":"","month":"2025-04"},{"category":"anti-social-behaviour","location_type":"Force","location":{"latitude":"51.432115","street":{"id":1677261,"name":"On or near Garrad's Road"},"longitude":"-0.135810"},"context":"","outcome_status":null,"persistent_id":"","id":127556537,"location_subtype":"","month":"2025-04"},{"category":"anti-social-behaviour","location_type":"Force","location":{"latitude":"51.418633","street":{"id":1676144,"name":"On or near Anvil Close"},"longitude":"-0.143608"},"context":"","outcome_status":null,"persistent_id":"","id":127556308,"location_subtype":"","month":"2025-04"},{"category":"anti-social-behaviour","location_type":"Force","location":{"latitude":"51.424229","street":{"id":1675581,"name":"On or near Moyser Road"},"longitude":"-0.147164"},"context":"","outcome_status":null,"persistent_id":"","id":127555742,"location_subtype":"","month":"2025-04"},{"category":"anti-social-behaviour","location_type":"Force","location":{"latitude":"51.426208","street":{"id":1677971,"name":"On or near Shopping Area"},"longitude":"-0.131347"},"context":"","outcome_status":null,"persistent_id":"","id":127555888,"location_subtype":"","month":"2025-04"},{"category":"anti-social-behaviour","location_type":"Force","location":{"latitude":"51.422121","street":{"id":1681638,"name":"On or near Supermarket"},"longitude":"-0.106443"},"context":"","outcome_status":null,"persistent_id":"","id":127555500,"location_subtype":"","month":"2025-04"},{"category":"anti-social-behaviour","location_type":"Force","location":{"latitude":"51.434571","street":{"id":1678749,"name":"On or near Leigham Avenue"},"longitude":"-0.125726"},"context":"","outcome_status":null,"persistent_id":"","id":127555037,"location_subtype":"","month":"2025-04"},{"category":"anti-social-behaviour","location_type":"Force","location":{"latitude":"51.433826","street":{"id":1678517,"name":"On or near Woodleigh Gardens"},"longitude":"-0.126907"},"context":"","outcome_status":null,"persistent_id":"","id":127554026,"location_subtype":"","month":"2025-04"},{"category":"anti-social-behaviour","location_type":"Force","location":{"latitude":"51.425981","street":{"id":1677685,"name":"On or near Station Approach"},"longitude":"-0.132334"},"context":"","outcome_status":null,"persistent_id":"","id":127554316,"location_subtype":"","month":"2025-04"},{"category":"anti-social-behaviour","location_type":"Force","location":{"latitude":"51.419897","street":{"id":1676721,"name":"On or near Edgington Road"},"longitude":"-0.138853"},"context":"","outcome_status":null,"persistent_id":"","id":127558884,"location_subtype":"","month":"2025-04"},{"category":"anti-social-behaviour","location_type":"Force","location":{"latitude":"51.426208","street":{"id":1677971,"name":"On or near Shopping Area"},"longitude":"-0.131347"},"context":"","outcome_status":null,"persistent_id":"","id":127553922,"location_subtype":"","month":"2025-04"},{"category":"anti-social-behaviour","location_type":"Force","location":{"latitude":"51.424854","street":{"id":1677311,"name":"On or near Fairmile Avenue"},"longitude":"-0.135588"},"context":"","outcome_status":null,"persistent_id":"","id":127553228,"location_subtype":"","month":"2025-04"},{"category":"anti-social-behaviour","location_type":"Force","location":{"latitude":"51.413084","street":{"id":1677527,"name":"On or near Woodmansterne Road"},"longitude":"-0.133924"},"context":"","outcome_status":null,"persistent_id":"","id":127553112,"location_subtype":"","month":"2025-04"},{"category":"anti-social-behaviour","location_type":"Force","location":{"latitude":"51.429881","street":{"id":1675731,"name":"On or near West Drive"},"longitude":"-0.145741"},"context":"","outcome_status":null,"persistent_id":"","id":127552535,"location_subtype":"","month":"2025-04"},{"category":"anti-social-behaviour","location_type":"Force","location":{"latitude":"51.413242","street":{"id":1680502,"name":"On or near Green Lane"},"longitude":"-0.112951"},"context":"","outcome_status":null,"persistent_id":"","id":127551973,"location_subtype":"","month":"2025-04"},{"category":"anti-social-behaviour","location_type":"Force","location":{"latitude":"51.434571","street":{"id":1678749,"name":"On or near Leigham Avenue"},"longitude":"-0.125726"},"context":"","outcome_status":null,"persistent_id":"","id":127551779,"location_subtype":"","month":"2025-04"},{"category":"anti-social-behaviour","location_type":"Force","location":{"latitude":"51.427922","street":{"id":1675707,"name":"On or near Clairview Road"},"longitude":"-0.147014"},"context":"","outcome_status":null,"persistent_id":"","id":127558375,"location_subtype":"","month":"2025-04"},{"category":"anti-social-behaviour","location_type":"Force","location":{"latitude":"51.433826","street":{"id":1678517,"name":"On or near Woodleigh Gardens"},"longitude":"-0.126907"},"context":"","outcome_status":null,"persistent_id":"","id":127551572,"location_subtype":"","month":"2025-04"},{"category":"anti-social-behaviour","location_type":"Force","location":{"latitude":"51.425338","street":{"id":1676670,"name":"On or near Mitcham Lane"},"longitude":"-0.139955"},"context":"","outcome_status":null,"persistent_id":"","id":127551571,"location_subtype":"","month":"2025-04"},{"category":"anti-social-behaviour","location_type":"Force","location":{"latitude":"51.430997","street":{"id":1678088,"name":"On or near Supermarket"},"longitude":"-0.130001"},"context":"","outcome_status":null,"persistent_id":"","id":127551648,"location_subtype":"","month":"2025-04"},{"category":"anti-social-behaviour","location_type":"Force","location":{"latitude":"51.433826","street":{"id":1678517,"name":"On or near Woodleigh Gardens"},"longitude":"-0.126907"},"context":"","outcome_status":null,"persistent_id":"","id":127551178,"location_subtype":"","month":"2025-04"},{"category":"anti-social-behaviour","location_type":"Force","location":{"latitude":"51.420170","street":{"id":1677067,"name":"On or near Estreham Road"},"longitude":"-0.136771"},"context":"","outcome_status":null,"persistent_id":"","id":127551121,"location_subtype":"","month":"2025-04"},{"category":"anti-social-behaviour","location_type":"Force","location":{"latitude":"51.431326","street":{"id":1678291,"name":"On or near Pinfold Road"},"longitude":"-0.128059"},"context":"","outcome_status":null,"persistent_id":"","id":127549854,"location_subtype":"","month":"2025-04"},{"category":"anti-social-behaviour","location_type":"Force","location":{"latitude":"51.413570","street":{"id":1676862,"name":"On or near Churchmore Road"},"longitude":"-0.138477"},"context":"","outcome_status":null,"persistent_id":"","id":127550910,"location_subtype":"","month":"2025-04"},{"category":"anti-social-behaviour","location_type":"Force","location":{"latitude":"51.425826","street":{"id":1678409,"name":"On or near Hopton Road"},"longitude":"-0.126572"},"context":"","outcome_status":null,"persistent_id":"","id":127549234,"location_subtype":"","month":"2025-04"},{"category":"anti-social-behaviour","location_type":"Force","location":{"latitude":"51.427225","street":{"id":1678573,"name":"On or near Madeira Road"},"longitude":"-0.125782"},"context":"","outcome_status":null,"persistent_id":"","id":127548496,"location_subtype":"","month":"2025-04"},{"category":"anti-social-behaviour","location_type":"Force","location":{"latitude":"51.426410","street":{"id":1677391,"name":"On or near Babington Road"},"longitude":"-0.134446"},"context":"","outcome_status":null,"persistent_id":"","id":127548443,"location_subtype":"","month":"2025-04"},{"category":"anti-social-behaviour","location_type":"Force","location":{"latitude":"51.430997","street":{"id":1678088,"name":"On or near Supermarket"},"longitude":"-0.130001"},"context":"","outcome_status":null,"persistent_id":"","id":127548785,"location_subtype":"","month":"2025-04"},{"category":"anti-social-behaviour","location_type":"Force","location":{"latitude":"51.422378","street":{"id":1676309,"name":"On or near Penrith Street"},"longitude":"-0.142176"},"context":"","outcome_status":null,"persistent_id":"","id":127544765,"location_subtype":"","month":"2025-04"},{"category":"anti-social-behaviour","location_type":"Force","location":{"latitude":"51.415542","street":{"id":1679011,"name":"On or near St Leonard's Walk"},"longitude":"-0.124002"},"context":"","outcome_status":null,"persistent_id":"","id":127547215,"location_subtype":"","month":"2025-04"},{"category":"anti-social-behaviour","location_type":"Force","location":{"latitude":"51.426822","street":{"id":1676703,"name":"On or near Fir Tree Close"},"longitude":"-0.139464"},"context":"","outcome_status":null,"persistent_id":"","id":127546846,"location_subtype":"","month":"2025-04"},{"category":"anti-social-behaviour","location_type":"Force","location":{"latitude":"51.420814","street":{"id":1678235,"name":"On or near Westwell Road Approach"},"longitude":"-0.129208"},"context":"","outcome_status":null,"persistent_id":"","id":127546826,"location_subtype":"","month":"2025-04"},{"category":"anti-social-behaviour","location_type":"Force","location":{"latitude":"51.425826","street":{"id":1678409,"name":"On or near Hopton Road"},"longitude":"-0.126572"},"context":"","outcome_status":null,"persistent_id":"","id":127546709,"location_subtype":"","month":"2025-04"},{"category":"anti-social-behaviour","location_type":"Force","location":{"latitude":"51.433826","street":{"id":1678517,"name":"On or near Woodleigh Gardens"},"longitude":"-0.126907"},"context":"","outcome_status":null,"persistent_id":"","id":127546082,"location_subtype":"","month":"2025-04"},{"category":"anti-social-behaviour","location_type":"Force","location":{"latitude":"51.420814","street":{"id":1678235,"name":"On or near Westwell Road Approach"},"longitude":"-0.129208"},"context":"","outcome_status":null,"persistent_id":"","id":127544514,"location_subtype":"","month":"2025-04"},{"category":"anti-social-behaviour","location_type":"Force","location":{"latitude":"51.428508","street":{"id":1676025,"name":"On or near Furzedown Road"},"longitude":"-0.144833"},"context":"","outcome_status":null,"persistent_id":"","id":127545355,"location_subtype":"","month":"2025-04"},{"category":"anti-social-behaviour","location_type":"Force","location":{"latitude":"51.411095","street":{"id":1679215,"name":"On or near Norbury"},"longitude":"-0.121480"},"context":"","outcome_status":null,"persistent_id":"","id":127545297,"location_subtype":"","month":"2025-04"},{"category":"anti-social-behaviour","location_type":"Force","location":{"latitude":"51.427742","street":{"id":1676453,"name":"On or near Aldrington Road"},"longitude":"-0.140160"},"context":"","outcome_status":null,"persistent_id":"","id":127544166,"location_subtype":"","month":"2025-04"},{"category":"anti-social-behaviour","location_type":"Force","location":{"latitude":"51.415908","street":{"id":1680963,"name":"On or near Norbury Hill"},"longitude":"-0.110382"},"context":"","outcome_status":null,"persistent_id":"","id":127544321,"location_subtype":"","month":"2025-04"},{"category":"anti-social-behaviour","location_type":"Force","location":{"latitude":"51.420814","street":{"id":1678235,"name":"On or near Westwell Road Approach"},"longitude":"-0.129208"},"context":"","outcome_status":null,"persistent_id":"","id":127544029,"location_subtype":"","month":"2025-04"},{"category":"anti-social-behaviour","location_type":"Force","location":{"latitude":"51.430997","street":{"id":1678088,"name":"On or near Supermarket"},"longitude":"-0.130001"},"context":"","outcome_status":null,"persistent_id":"","id":127544934,"location_subtype":"","month":"2025-04"},{"category":"anti-social-behaviour","location_type":"Force","location":{"latitude":"51.411291","street":{"id":1676795,"name":"On or near Supermarket"},"longitude":"-0.139252"},"context":"","outcome_status":null,"persistent_id":"","id":127545234,"location_subtype":"","month":"2025-04"},{"category":"anti-social-behaviour","location_type":"Force","location":{"latitude":"51.414146","street":{"id":1675717,"name":"On or near Bennetts Close"},"longitude":"-0.147054"},"context":"","outcome_status":null,"persistent_id":"","id":127543353,"location_subtype":"","month":"2025-04"},{"category":"anti-social-behaviour","location_type":"Force","location":{"latitude":"51.419999","street":{"id":1676345,"name":"On or near Leverson Street"},"longitude":"-0.141265"},"context":"","outcome_status":null,"persistent_id":"","id":127544589,"location_subtype":"","month":"2025-04"},{"category":"anti-social-behaviour","location_type":"Force","location":{"latitude":"51.426208","street":{"id":1677971,"name":"On or near Shopping Area"},"longitude":"-0.131347"},"context":"","outcome_status":null,"persistent_id":"","id":127558280,"location_subtype":"","month":"2025-04"},{"category":"anti-social-behaviour","location_type":"Force","location":{"latitude":"51.426208","street":{"id":1677971,"name":"On or near Shopping Area"},"longitude":"-0.131347"},"context":"","outcome_status":null,"persistent_id":"","id":127558067,"location_subtype":"","month":"2025-04"},{"category":"anti-social-behaviour","location_type":"Force","location":{"latitude":"51.423319","street":{"id":1677351,"name":"On or near Hambro Road"},"longitude":"-0.134586"},"context":"","outcome_status":null,"persistent_id":"","id":127544598,"location_subtype":"","month":"2025-04"},{"category":"anti-social-behaviour","location_type":"Force","location":{"latitude":"51.416407","street":{"id":1677341,"name":"On or near Woodgate Drive"},"longitude":"-0.134810"},"context":"","outcome_status":null,"persistent_id":"","id":127549841,"location_subtype":"","month":"2025-04"},{"category":"anti-social-behaviour","location_type":"Force","location":{"latitude":"51.426822","street":{"id":1676703,"name":"On or near Fir Tree Close"},"longitude":"-0.139464"},"context":"","outcome_status":null,"persistent_id":"","id":127552021,"location_subtype":"","month":"2025-04"},{"category":"anti-social-behaviour","location_type":"Force","location":{"latitude":"51.430997","street":{"id":1678088,"name":"On or near Supermarket"},"longitude":"-0.130001"},"context":"","outcome_status":null,"persistent_id":"","id":127551937,"location_subtype":"","month":"2025-04"},{"category":"anti-social-behaviour","location_type":"Force","location":{"latitude":"51.412713","street":{"id":1675701,"name":"On or near Allen Close"},"longitude":"-0.146249"},"context":"","outcome_status":null,"persistent_id":"","id":127552517,"location_subtype":"","month":"2025-04"},{"category":"anti-social-behaviour","location_type":"Force","location":{"latitude":"51.425826","street":{"id":1678409,"name":"On or near Hopton Road"},"longitude":"-0.126572"},"context":"","outcome_status":null,"persistent_id":"","id":127553438,"location_subtype":"","month":"2025-04"},{"category":"anti-social-behaviour","location_type":"Force","location":{"latitude":"51.430997","street":{"id":1678088,"name":"On or near Supermarket"},"longitude":"-0.130001"},"context":"","outcome_status":null,"persistent_id":"","id":127554131,"location_subtype":"","month":"2025-04"},{"category":"anti-social-behaviour","location_type":"Force","location":{"latitude":"51.414146","street":{"id":1675717,"name":"On or near Bennetts Close"},"longitude":"-0.147054"},"context":"","outcome_status":null,"persistent_id":"","id":127553932,"location_subtype":"","month":"2025-04"},{"category":"anti-social-behaviour","location_type":"Force","location":{"latitude":"51.429881","street":{"id":1675731,"name":"On or near West Drive"},"longitude":"-0.145741"},"context":"","outcome_status":null,"persistent_id":"","id":127554020,"location_subtype":"","month":"2025-04"},{"category":"anti-social-behaviour","location_type":"Force","location":{"latitude":"51.433826","street":{"id":1678517,"name":"On or near Woodleigh Gardens"},"longitude":"-0.126907"},"context":"","outcome_status":null,"persistent_id":"","id":127554114,"location_subtype":"","month":"2025-04"},{"category":"anti-social-behaviour","location_type":"Force","location":{"latitude":"51.411849","street":{"id":1678677,"name":"On or near Bishops Park Road"},"longitude":"-0.125864"},"context":"","outcome_status":null,"persistent_id":"","id":127555215,"location_subtype":"","month":"2025-04"},{"category":"anti-social-behaviour","location_type":"Force","location":{"latitude":"51.427209","street":{"id":1677069,"name":"On or near Whinfell Close"},"longitude":"-0.137204"},"context":"","outcome_status":null,"persistent_id":"","id":127555130,"location_subtype":"","month":"2025-04"},{"category":"anti-social-behaviour","location_type":"Force","location":{"latitude":"51.422080","street":{"id":1677841,"name":"On or near Byron Close"},"longitude":"-0.130206"},"context":"","outcome_status":null,"persistent_id":"","id":127555494,"location_subtype":"","month":"2025-04"},{"category":"anti-social-behaviour","location_type":"Force","location":{"latitude":"51.420170","street":{"id":1677067,"name":"On or near Estreham Road"},"longitude":"-0.136771"},"context":"","outcome_status":null,"persistent_id":"","id":127555561,"location_subtype":"","month":"2025-04"},{"category":"anti-social-behaviour","location_type":"Force","location":{"latitude":"51.414937","street":{"id":1678382,"name":"On or near Hepworth Road"},"longitude":"-0.127233"},"context":"","outcome_status":null,"persistent_id":"","id":127556105,"location_subtype":"","month":"2025-04"},{"category":"anti-social-behaviour","location_type":"Force","location":{"latitude":"51.427225","street":{"id":1678573,"name":"On or near Madeira Road"},"longitude":"-0.125782"},"context":"","outcome_status":null,"persistent_id":"","id":127556032,"location_subtype":"","month":"2025-04"},{"category":"anti-social-behaviour","location_type":"Force","location":{"latitude":"51.423319","street":{"id":1677351,"name":"On or near Hambro Road"},"longitude":"-0.134586"},"context":"","outcome_status":null,"persistent_id":"","id":127557062,"location_subtype":"","month":"2025-04"},{"category":"anti-social-behaviour","location_type":"Force","location":{"latitude":"51.412589","street":{"id":1678423,"name":"On or near Woodmansterne Road"},"longitude":"-0.127157"},"context":"","outcome_status":null,"persistent_id":"","id":127556952,"location_subtype":"","month":"2025-04"},{"category":"anti-social-behaviour","location_type":"Force","location":{"latitude":"51.413144","street":{"id":1677716,"name":"On or near Runnymede Crescent"},"longitude":"-0.132067"},"context":"","outcome_status":null,"persistent_id":"","id":127558102,"location_subtype":"","month":"2025-04"},{"category":"anti-social-behaviour","location_type":"Force","location":{"latitude":"51.433826","street":{"id":1678517,"name":"On or near Woodleigh Gardens"},"longitude":"-0.126907"},"context":"","outcome_status":null,"persistent_id":"","id":127558105,"location_subtype":"","month":"2025-04"},{"category":"anti-social-behaviour","location_type":"Force","location":{"latitude":"51.423958","street":{"id":1680635,"name":"On or near Winton Way"},"longitude":"-0.113257"},"context":"","outcome_status":null,"persistent_id":"","id":127557247,"location_subtype":"","month":"2025-04"},{"category":"anti-social-behaviour","location_type":"Force","location":{"latitude":"51.411291","street":{"id":1676795,"name":"On or near Supermarket"},"longitude":"-0.139252"},"context":"","outcome_status":null,"persistent_id":"","id":127559144,"location_subtype":"","month":"2025-04"},{"category":"anti-social-behaviour","location_type":"Force","location":{"latitude":"51.430997","street":{"id":1678088,"name":"On or near Supermarket"},"longitude":"-0.130001"},"context":"","outcome_status":null,"persistent_id":"","id":127559975,"location_subtype":"","month":"2025-04"},{"category":"anti-social-behaviour","location_type":"Force","location":{"latitude":"51.430257","street":{"id":1680716,"name":"On or near Uffington Road"},"longitude":"-0.111847"},"context":"","outcome_status":null,"persistent_id":"","id":127560036,"location_subtype":"","month":"2025-04"},{"category":"anti-social-behaviour","location_type":"Force","location":{"latitude":"51.415486","street":{"id":1679485,"name":"On or near Beaufort Gardens"},"longitude":"-0.119948"},"context":"","outcome_status":null,"persistent_id":"","id":127560936,"location_subtype":"","month":"2025-04"},{"category":"anti-social-behaviour","location_type":"Force","location":{"latitude":"51.426410","street":{"id":1677391,"name":"On or near Babington Road"},"longitude":"-0.134446"},"context":"","outcome_status":null,"persistent_id":"","id":127561101,"location_subtype":"","month":"2025-04"},{"category":"anti-social-behaviour","location_type":"Force","location":{"latitude":"51.416384","street":{"id":1676370,"name":"On or near Abercairn Road"},"longitude":"-0.141829"},"context":"","outcome_status":null,"persistent_id":"","id":127546946,"location_subtype":"","month":"2025-04"},{"category":"anti-social-behaviour","location_type":"Force","location":{"latitude":"51.425826","street":{"id":1678409,"name":"On or near Hopton Road"},"longitude":"-0.126572"},"context":"","outcome_status":null,"persistent_id":"","id":127554006,"location_subtype":"","month":"2025-04"},{"category":"anti-social-behaviour","location_type":"Force","location":{"latitude":"51.426208","street":{"id":1677971,"name":"On or near Shopping Area"},"longitude":"-0.131347"},"context":"","outcome_status":null,"persistent_id":"","id":127543129,"location_subtype":"","month":"2025-04"},{"category":"anti-social-behaviour","location_type":"Force","location":{"latitude":"51.410724","street":{"id":1676611,"name":"On or near Stirling Close"},"longitude":"-0.139355"},"context":"","outcome_status":null,"persistent_id":"","id":127543673,"location_subtype":"","month":"2025-04"},{"category":"anti-social-behaviour","location_type":"Force","location":{"latitude":"51.424861","street":{"id":1678548,"name":"On or near Polworth Road"},"longitude":"-0.126986"},"context":"","outcome_status":null,"persistent_id":"","id":127544475,"location_subtype":"","month":"2025-04"},{"category":"anti-social-behaviour","location_type":"Force","location":{"latitude":"51.407326","street":{"id":1678237,"name":"On or near Norton Gardens"},"longitude":"-0.128709"},"context":"","outcome_status":null,"persistent_id":"","id":127545163,"location_subtype":"","month":"2025-04"},{"category":"anti-social-behaviour","location_type":"Force","location":{"latitude":"51.426998","street":{"id":1677248,"name":"On or near Keens Close"},"longitude":"-0.135213"},"context":"","outcome_status":null,"persistent_id":"","id":127547457,"location_subtype":"","month":"2025-04"},{"category":"anti-social-behaviour","location_type":"Force","location":{"latitude":"51.433386","street":{"id":1679681,"name":"On or near Leigham Court Road"},"longitude":"-0.119688"},"context":"","outcome_status":null,"persistent_id":"","id":127547705,"location_subtype":"","month":"2025-04"},{"category":"anti-social-behaviour","location_type":"Force","location":{"latitude":"51.419999","street":{"id":1676345,"name":"On or near Leverson Street"},"longitude":"-0.141265"},"context":"","outcome_status":null,"persistent_id":"","id":127549410,"location_subtype":"","month":"2025-04"},{"category":"anti-social-behaviour","location_type":"Force","location":{"latitude":"51.433386","street":{"id":1679681,"name":"On or near Leigham Court Road"},"longitude":"-0.119688"},"context":"","outcome_status":null,"persistent_id":"","id":127549948,"location_subtype":"","month":"2025-04"},{"category":"bicycle-theft","location_type":"Force","location":{"latitude":"51.420057","street":{"id":1677522,"name":"On or near Pathfield Road"},"longitude":"-0.133640"},"context":"","outcome_status":{"category":"Investigation complete; no suspect identified","date":"2025-07"},"persistent_id":"32d3865f64abea7bb463e5535c39afbc235a34366e513cf270bb172feb6bdea1","id":127634747,"location_subtype":"","month":"2025-04"},{"category":"bicycle-theft","location_type":"Force","location":{"latitude":"51.411114","street":{"id":1676369,"name":"On or near Rowan Close"},"longitude":"-0.141813"},"context":"","outcome_status":{"category":"Investigation complete; no suspect identified","date":"2025-06"},"persistent_id":"9412b551e82dd2cef50d1bf3c33581c7b613056a863cc32165651ee863543305","id":127634446,"location_subtype":"","month":"2025-04"},{"category":"bicycle-theft","location_type":"Force","location":{"latitude":"51.418568","street":{"id":1677251,"name":"On or near Parking Area"},"longitude":"-0.135556"},"context":"","outcome_status":{"category":"Investigation complete; no suspect identified","date":"2025-04"},"persistent_id":"c06e45f738487f511393cae270e64ebf99ce5597716b8454a929b5fd1a7c5a45","id":127634309,"location_subtype":"","month":"2025-04"},{"category":"bicycle-theft","location_type":"Force","location":{"latitude":"51.419130","street":{"id":1675911,"name":"On or near Eastwood Street"},"longitude":"-0.143774"},"context":"","outcome_status":{"category":"Investigation complete; no suspect identified","date":"2025-04"},"persistent_id":"b0e3e8992a16265f93c3de4f065deeca0486b466775d6ccee2f1cb107ac0f991","id":127634463,"location_subtype":"","month":"2025-04"},{"category":"bicycle-theft","location_type":"Force","location":{"latitude":"51.424865","street":{"id":1677908,"name":"On or near Supermarket"},"longitude":"-0.131157"},"context":"","outcome_status":{"category":"Investigation complete; no suspect identified","date":"2025-06"},"persistent_id":"3bafa380766a1c8d80e0335cabde8bec4d3d855d446caa99a76c63fcb281a29e","id":127634692,"location_subtype":"","month":"2025-04"},{"category":"burglary","location_type":"Force","location":{"latitude":"51.426822","street":{"id":1676703,"name":"On or near Fir Tree Close"},"longitude":"-0.139464"},"context":"","outcome_status":{"category":"Investigation complete; no suspect identified","date":"2025-04"},"persistent_id":"3d36852db4edc2845c0619f3fa3afcd0ff5bf1b3e503898c4af73070505d895f","id":127617769,"location_subtype":"","month":"2025-04"},{"category":"burglary","location_type":"Force","location":{"latitude":"51.414129","street":{"id":1675556,"name":"On or near Bennetts Close"},"longitude":"-0.147112"},"context":"","outcome_status":{"category":"Investigation complete; no suspect identified","date":"2025-12"},"persistent_id":"070c7a38943b220ad3848ef05c164d6ebccbeeacea822b4ddd77a6f8570137f8","id":127617762,"location_subtype":"","month":"2025-04"},{"category":"burglary","location_type":"Force","location":{"latitude":"51.413105","street":{"id":1676365,"name":"On or near Lilian Road"},"longitude":"-0.142034"},"context":"","outcome_status":{"category":"Investigation complete; no suspect identified","date":"2025-08"},"persistent_id":"92f102a5911f7e0d3e4d977c514ea814d617bccbf39ed3c4e1f89b0aaa40f427","id":127617919,"location_subtype":"","month":"2025-04"},{"category":"burglary","location_type":"Force","location":{"latitude":"51.409099","street":{"id":1679182,"name":"On or near Semley Place"},"longitude":"-0.122640"},"context":"","outcome_status":{"category":"Investigation complete; no suspect identified","date":"2025-05"},"persistent_id":"7506bd23a753585cf1711534af1ff0e3eb52a4fe8c031e3fcfd077344188f8af","id":127617875,"location_subtype":"","month":"2025-04"},{"category":"burglary","location_type":"Force","location":{"latitude":"51.410459","street":{"id":1679122,"name":"On or near Supermarket"},"longitude":"-0.123304"},"context":"","outcome_status":{"category":"Investigation complete; no suspect identified","date":"2025-07"},"persistent_id":"a4c1f7e7bf651bd68abf7e09170c5d3e828d1be6db199ac60b35e2239792693c","id":127620778,"location_subtype":"","month":"2025-04"},{"category":"burglary","location_type":"Force","location":{"latitude":"51.432096","street":{"id":1677922,"name":"On or near Ockley Road"},"longitude":"-0.130689"},"context":"","outcome_status":{"category":"Status update unavailable","date":"2025-08"},"persistent_id":"db397a7e2ffc77d156fe46b7b03a8b4af6a73860d3c6716a52c72a76f66d2931","id":127621557,"location_subtype":"","month":"2025-04"},{"category":"burglary","location_type":"Force","location":{"latitude":"51.426822","street":{"id":1676703,"name":"On or near Fir Tree Close"},"longitude":"-0.139464"},"context":"","outcome_status":{"category":"Investigation complete; no suspect identified","date":"2025-04"},"persistent_id":"e0939433bf640ad054b5fc35df8740066edc6248c2e4f033ab4006e345397afa","id":127617176,"location_subtype":"","month":"2025-04"},{"category":"burglary","location_type":"Force","location":{"latitude":"51.423716","street":{"id":1677535,"name":"On or near Ellora Road"},"longitude":"-0.132455"},"context":"","outcome_status":{"category":"Investigation complete; no suspect identified","date":"2025-07"},"persistent_id":"1bd0921494be64993784b02c9ebd80cc674c3ec0aff271d2618cb82e97345777","id":127618586,"location_subtype":"","month":"2025-04"},{"category":"burglary","location_type":"Force","location":{"latitude":"51.416078","street":{"id":1679693,"name":"On or near Courtland Avenue"},"longitude":"-0.118745"},"context":"","outcome_status":{"category":"Investigation complete; no suspect identified","date":"2025-05"},"persistent_id":"ca97bc1ea4721a3fd307c91f5ca4e7819718dcaf58bf0bb5b423831d0c227761","id":127615604,"location_subtype":"","month":"2025-04"},{"category":"burglary","location_type":"Force","location":{"latitude":"51.417398","street":{"id":1677499,"name":"On or near Tankerville Road"},"longitude":"-0.132080"},"context":"","outcome_status":{"category":"Investigation complete; no suspect identified","date":"2025-04"},"persistent_id":"d06acfacd6c9b801677ffcc762922d6f0715cadde3152c83ccc635269936caa1","id":127615481,"location_subtype":"","month":"2025-04"},{"category":"burglary","location_type":"Force","location":{"latitude":"51.430257","street":{"id":1680716,"name":"On or near Uffington Road"},"longitude":"-0.111847"},"context":"","outcome_status":{"category":"Investigation complete; no suspect identified","date":"2025-04"},"persistent_id":"a1e0fe7918439371c085ccd9be3b683bb4333d80413170cb67e114b90ef1509c","id":127617764,"location_subtype":"","month":"2025-04"},{"category":"burglary","location_type":"Force","location":{"latitude":"51.430997","street":{"id":1678088,"name":"On or near Supermarket"},"longitude":"-0.130001"},"context":"","outcome_status":{"category":"Investigation complete; no suspect identified","date":"2025-04"},"persistent_id":"1a5365857bb40504ab1760737da69c904e102c3313de80c1e6a0a1524dc8dc01","id":127616042,"location_subtype":"","month":"2025-04"},{"category":"burglary","location_type":"Force","location":{"latitude":"51.410459","street":{"id":1679122,"name":"On or near Supermarket"},"longitude":"-0.123304"},"context":"","outcome_status":{"category":"Awaiting court outcome","date":"2025-08"},"persistent_id":"0edbc7ee4740f020cb13a9bd32d0b40bfb16e7c0f67517820663a980ea49ef17","id":127620936,"location_subtype":"","month":"2025-04"},{"category":"burglary","location_type":"Force","location":{"latitude":"51.416078","street":{"id":1679693,"name":"On or near Courtland Avenue"},"longitude":"-0.118745"},"context":"","outcome_status":{"category":"Investigation complete; no suspect identified","date":"2025-05"},"persistent_id":"6af70acbf4065d1346f493af97d9a281ccf0ea27f5af37a330dcb1c702407df3","id":127615606,"location_subtype":"","month":"2025-04"},{"category":"burglary","location_type":"Force","location":{"latitude":"51.427369","street":{"id":1676313,"name":"On or near Abbotsleigh Road"},"longitude":"-0.142175"},"context":"","outcome_status":{"category":"Investigation complete; no suspect identified","date":"2025-05"},"persistent_id":"f13fe3bce76bf112bc8341933dc98ea90fae80fb152d5ce241e59688c79c2db1","id":127619537,"location_subtype":"","month":"2025-04"},{"category":"burglary","location_type":"Force","location":{"latitude":"51.416078","street":{"id":1679693,"name":"On or near Courtland Avenue"},"longitude":"-0.118745"},"context":"","outcome_status":{"category":"Investigation complete; no suspect identified","date":"2025-05"},"persistent_id":"fd8156f4695f62d54a04531dc44ac04cc4a4309a8cd4de379c3c54495e8f8608","id":127614873,"location_subtype":"","month":"2025-04"},{"category":"burglary","location_type":"Force","location":{"latitude":"51.420859","street":{"id":1675918,"name":"On or near Welham Road"},"longitude":"-0.145603"},"context":"","outcome_status":{"category":"Investigation complete; no suspect identified","date":"2025-06"},"persistent_id":"43e813cb0defd9ae98073fdcc5eeca07580b3230162ddc15a6a2dd3b29456e6e","id":127621981,"location_subtype":"","month":"2025-04"},{"category":"burglary","location_type":"Force","location":{"latitude":"51.432160","street":{"id":1680117,"name":"On or near Broadash Close"},"longitude":"-0.116703"},"context":"","outcome_status":{"category":"Investigation complete; no suspect identified","date":"2025-09"},"persistent_id":"18def445cad4acaa6ba551263160ef4c4a3958977d588b1b1d782791401dac69","id":127616644,"location_subtype":"","month":"2025-04"},{"category":"burglary","location_type":"Force","location":{"latitude":"51.416078","street":{"id":1679693,"name":"On or near Courtland Avenue"},"longitude":"-0.118745"},"context":"","outcome_status":{"category":"Investigation complete; no suspect identified","date":"2025-05"},"persistent_id":"6035cc31f2a406e51437d8432ff3be7082d8a9587850561670ee2b5488b15295","id":127614867,"location_subtype":"","month":"2025-04"},{"category":"burglary","location_type":"Force","location":{"latitude":"51.411849","street":{"id":1678677,"name":"On or near Bishops Park Road"},"longitude":"-0.125864"},"context":"","outcome_status":{"category":"Investigation complete; no suspect identified","date":"2025-04"},"persistent_id":"12f27e2b836d5f9193f864d31267fe12845e0555233847bd71003abb41e3abe0","id":127616078,"location_subtype":"","month":"2025-04"},{"category":"burglary","location_type":"Force","location":{"latitude":"51.435642","street":{"id":1678447,"name":"On or near Streatham Court"},"longitude":"-0.127495"},"context":"","outcome_status":{"category":"Unable to prosecute suspect","date":"2025-12"},"persistent_id":"793941fdc3aa86a3e4cf77267cb92d2f33eb0915a85d957f885d00bf86bd1a2d","id":127620813,"location_subtype":"","month":"2025-04"},{"category":"burglary","location_type":"Force","location":{"latitude":"51.423959","street":{"id":1678172,"name":"On or near Albert Carr Gardens"},"longitude":"-0.129051"},"context":"","outcome_status":{"category":"Investigation complete; no suspect identified","date":"2025-08"},"persistent_id":"61d65d32cfafe6ddfadc184414b34cce28f20f6825de7e1224ad0f408ea77a12","id":127617746,"location_subtype":"","month":"2025-04"},{"category":"burglary","location_type":"Force","location":{"latitude":"51.417519","street":{"id":1678330,"name":"On or near Prescott Close"},"longitude":"-0.128997"},"context":"","outcome_status":{"category":"Investigation complete; no suspect identified","date":"2025-08"},"persistent_id":"e7b339f79252329c8963589f3a5760a7efd270f41a119279c7eb4d38b345547f","id":127616065,"location_subtype":"","month":"2025-04"},{"category":"burglary","location_type":"Force","location":{"latitude":"51.416078","street":{"id":1679693,"name":"On or near Courtland Avenue"},"longitude":"-0.118745"},"context":"","outcome_status":{"category":"Unable to prosecute suspect","date":"2025-07"},"persistent_id":"95156e7c50de67593406be727224fc3466c6e67dde26e46e28277dc6a0974430","id":127616545,"location_subtype":"","month":"2025-04"},{"category":"burglary","location_type":"Force","location":{"latitude":"51.434815","street":{"id":1678070,"name":"On or near Norfolk House Road"},"longitude":"-0.130895"},"context":"","outcome_status":{"category":"Investigation complete; no suspect identified","date":"2025-04"},"persistent_id":"c003b038fd31de79a8a3546e6a119143a52e9e4e8db842f25c62b2a92dfcb1bc","id":127616051,"location_subtype":"","month":"2025-04"},{"category":"burglary","location_type":"Force","location":{"latitude":"51.416078","street":{"id":1679693,"name":"On or near Courtland Avenue"},"longitude":"-0.118745"},"context":"","outcome_status":{"category":"Investigation complete; no suspect identified","date":"2025-05"},"persistent_id":"7e9610d699872c7e6597874190576dd3d9e2249d761d3c7d80aefc0de35e01c6","id":127615599,"location_subtype":"","month":"2025-04"},{"category":"burglary","location_type":"Force","location":{"latitude":"51.419727","street":{"id":1678196,"name":"On or near Supermarket"},"longitude":"-0.129281"},"context":"","outcome_status":{"category":"Status update unavailable","date":"2025-08"},"persistent_id":"bca35bd2314d2ce8dbd2f32471f41c0953b4ed623c1e84702391840c01335427","id":127621860,"location_subtype":"","month":"2025-04"},{"category":"burglary","location_type":"Force","location":{"latitude":"51.417655","street":{"id":1679896,"name":"On or near Crescent Way"},"longitude":"-0.117228"},"context":"","outcome_status":{"category":"Investigation complete; no suspect identified","date":"2025-04"},"persistent_id":"a5b1f8024a64e98579dcd3dd1abafe9047a9b05b19073539eff7320272cb5d8a","id":127615399,"location_subtype":"","month":"2025-04"},{"category":"burglary","location_type":"Force","location":{"latitude":"51.417884","street":{"id":1678028,"name":"On or near Kempshott Road"},"longitude":"-0.130450"},"context":"","outcome_status":{"category":"Investigation complete; no suspect identified","date":"2025-12"},"persistent_id":"1ef2833309899a7d3b0ab01eaeabdfa4358ce27ee387b2b1a9cf32c458bd2cde","id":127615285,"location_subtype":"","month":"2025-04"},{"category":"burglary","location_type":"Force","location":{"latitude":"51.410459","street":{"id":1679122,"name":"On or near Supermarket"},"longitude":"-0.123304"},"context":"","outcome_status":{"category":"Awaiting court outcome","date":"2025-08"},"persistent_id":"93e607be680e2c0842eb11a68fc8af8d5669ccbb2e1cc171a89ced4f6f50d5da","id":127621181,"location_subtype":"","month":"2025-04"},{"category":"burglary","location_type":"Force","location":{"latitude":"51.413144","street":{"id":1677716,"name":"On or near Runnymede Crescent"},"longitude":"-0.132067"},"context":"","outcome_status":{"category":"Status update unavailable","date":"2025-08"},"persistent_id":"3b8a56026b41ca5eaf986a7dade56787b2beff503ba3cb9057c58d668bc5608b","id":127614737,"location_subtype":"","month":"2025-04"},{"category":"burglary","location_type":"Force","location":{"latitude":"51.414160","street":{"id":1677360,"name":"On or near Bodiam Road"},"longitude":"-0.134326"},"context":"","outcome_status":{"category":"Investigation complete; no suspect identified","date":"2025-04"},"persistent_id":"e39512795682ab37ef12b9449ae3ee4f7e9bcfb758b113c3175982f5fcbafe70","id":127616871,"location_subtype":"","month":"2025-04"},{"category":"burglary","location_type":"Force","location":{"latitude":"51.432160","street":{"id":1680117,"name":"On or near Broadash Close"},"longitude":"-0.116703"},"context":"","outcome_status":{"category":"Investigation complete; no suspect identified","date":"2025-04"},"persistent_id":"e69d3edf4b89b06e93a40a89544eb563dc8ba50951c70a21599d3ae9a575c3fd","id":127616653,"location_subtype":"","month":"2025-04"},{"category":"burglary","location_type":"Force","location":{"latitude":"51.420756","street":{"id":1675813,"name":"On or near Credenhill Street"},"longitude":"-0.145391"},"context":"","outcome_status":{"category":"Investigation complete; no suspect identified","date":"2025-04"},"persistent_id":"2165fe7470426a8b675fdc32b7f47bc4d287c3a6c7828d9b1199dcbc83349af7","id":127618772,"location_subtype":"","month":"2025-04"},{"category":"burglary","location_type":"Force","location":{"latitude":"51.416078","street":{"id":1679693,"name":"On or near Courtland Avenue"},"longitude":"-0.118745"},"context":"","outcome_status":{"category":"Investigation complete; no suspect identified","date":"2025-05"},"persistent_id":"1fbbebdec6a6212f4b913ba80a02184a588d749ef367c8085a1393490f5d3914","id":127614905,"location_subtype":"","month":"2025-04"},{"category":"burglary","location_type":"Force","location":{"latitude":"51.426869","street":{"id":1679075,"name":"On or near Grasmere Road"},"longitude":"-0.123193"},"context":"","outcome_status":{"category":"Investigation complete; no suspect identified","date":"2025-04"},"persistent_id":"e146bba29ee197756608bd202c00e2f261466dcceac6f9dcb973f94596a2ce27","id":127619280,"location_subtype":"","month":"2025-04"},{"category":"burglary","location_type":"Force","location":{"latitude":"51.427618","street":{"id":1678334,"name":"On or near Stanthorpe Road"},"longitude":"-0.128441"},"context":"","outcome_status":{"category":"Unable to prosecute suspect","date":"2025-09"},"persistent_id":"54b1b6d196c28228190856c257fb02a1adea20206fc04d71204ffaa95e79888d","id":127615491,"location_subtype":"","month":"2025-04"},{"category":"criminal-damage-arson","location_type":"Force","location":{"latitude":"51.424535","street":{"id":1680772,"name":"On or near Kwesi Mews"},"longitude":"-0.111162"},"context":"","outcome_status":{"category":"Investigation complete; no suspect identified","date":"2025-04"},"persistent_id":"2a67ed9563997b0a0ee1c9848cae199808de6cdf00ce2fafa619acd43346ea92","id":127655599,"location_subtype":"","month":"2025-04"},{"category":"criminal-damage-arson","location_type":"Force","location":{"latitude":"51.426058","street":{"id":1676261,"name":"On or near Fayland Avenue"},"longitude":"-0.141710"},"context":"","outcome_status":{"category":"Unable to prosecute suspect","date":"2025-04"},"persistent_id":"82d25fd07394bb4ecbfac5784d54d8b247c0cd3d0c8f1ddfd0b5480a832bfd67","id":127598352,"location_subtype":"","month":"2025-04"},{"category":"criminal-damage-arson","location_type":"Force","location":{"latitude":"51.435642","street":{"id":1678447,"name":"On or near Streatham Court"},"longitude":"-0.127495"},"context":"","outcome_status":{"category":"Investigation complete; no suspect identified","date":"2025-09"},"persistent_id":"0581f75bd449f83fc246f66585cfbdcadd592c35bd2d224aa47e259b840118af","id":127591492,"location_subtype":"","month":"2025-04"},{"category":"criminal-damage-arson","location_type":"Force","location":{"latitude":"51.411889","street":{"id":1675650,"name":"On or near Woodside Way"},"longitude":"-0.146498"},"context":"","outcome_status":{"category":"Court result unavailable","date":"2025-11"},"persistent_id":"ff3256d2e4b8ca1dc0d45e9be7a5f44ed4faf26bc8e08fcfc47b19e0223e0174","id":127594229,"location_subtype":"","month":"2025-04"},{"category":"criminal-damage-arson","location_type":"Force","location":{"latitude":"51.419130","street":{"id":1675911,"name":"On or near Eastwood Street"},"longitude":"-0.143774"},"context":"","outcome_status":{"category":"Unable to prosecute suspect","date":"2025-04"},"persistent_id":"103787dddcd0067b5ca606187e7c193d41662071592d12392f4a249c320376d2","id":127655651,"location_subtype":"","month":"2025-04"},{"category":"criminal-damage-arson","location_type":"Force","location":{"latitude":"51.415542","street":{"id":1679011,"name":"On or near St Leonard's Walk"},"longitude":"-0.124002"},"context":"","outcome_status":{"category":"Unable to prosecute suspect","date":"2025-12"},"persistent_id":"d6d86e6dfe2af78f0d63b17621c5fd08cacd16b3588a2d306c5875cb489115d6","id":127655434,"location_subtype":"","month":"2025-04"},{"category":"criminal-damage-arson","location_type":"Force","location":{"latitude":"51.433826","street":{"id":1678517,"name":"On or near Woodleigh Gardens"},"longitude":"-0.126907"},"context":"","outcome_status":{"category":"Unable to prosecute suspect","date":"2025-05"},"persistent_id":"e7b1e5a33412cdb8dfee74fa03f56518798fdb70b97f3b71948d60bd59b8cc28","id":127591476,"location_subtype":"","month":"2025-04"},{"category":"criminal-damage-arson","location_type":"Force","location":{"latitude":"51.409958","street":{"id":1677166,"name":"On or near Chilmark Road"},"longitude":"-0.135274"},"context":"","outcome_status":{"category":"Unable to prosecute suspect","date":"2025-05"},"persistent_id":"208f83434b75865283b0c517080647c7a4d92ae455d88c42facc5489eb2d6c48","id":127592987,"location_subtype":"","month":"2025-04"},{"category":"criminal-damage-arson","location_type":"Force","location":{"latitude":"51.414010","street":{"id":1677548,"name":"On or near Sherwood Avenue"},"longitude":"-0.133915"},"context":"","outcome_status":{"category":"Investigation complete; no suspect identified","date":"2025-04"},"persistent_id":"c1c79d40ebac3841afe7d73eb1cff23e27e08cace09a941d13f31b00b833f357","id":127602347,"location_subtype":"","month":"2025-04"},{"category":"criminal-damage-arson","location_type":"Force","location":{"latitude":"51.411344","street":{"id":1679077,"name":"On or near Further/higher Educational Building"},"longitude":"-0.123541"},"context":"","outcome_status":{"category":"Investigation complete; no suspect identified","date":"2025-05"},"persistent_id":"c339008b0d974136b3253203d77d6600536f001e67083fa76df657a60c537548","id":127600805,"location_subtype":"","month":"2025-04"},{"category":"criminal-damage-arson","location_type":"Force","location":{"latitude":"51.429685","street":{"id":1676366,"name":"On or near Colson Way"},"longitude":"-0.141361"},"context":"","outcome_status":{"category":"Investigation complete; no suspect identified","date":"2025-05"},"persistent_id":"f5b1677d54f44e4f0280ac1cab20fd328928bf61f5ef15135a84d4721dbfe3db","id":127655679,"location_subtype":"","month":"2025-04"},{"category":"criminal-damage-arson","location_type":"Force","location":{"latitude":"51.429735","street":{"id":1677940,"name":"On or near Further/higher Educational Building"},"longitude":"-0.130887"},"context":"","outcome_status":{"category":"Investigation complete; no suspect identified","date":"2025-05"},"persistent_id":"5da712092174a7e3723d7230819ecf7dc7d12e612c09b765f4fc141699f87d8a","id":127590262,"location_subtype":"","month":"2025-04"},{"category":"criminal-damage-arson","location_type":"Force","location":{"latitude":"51.424865","street":{"id":1677908,"name":"On or near Supermarket"},"longitude":"-0.131157"},"context":"","outcome_status":{"category":"Unable to prosecute suspect","date":"2025-05"},"persistent_id":"e96058903c000ea5f393fba6a99d3ffcc3d9a571aba99efb082431d8005fb39d","id":127601087,"location_subtype":"","month":"2025-04"},{"category":"criminal-damage-arson","location_type":"Force","location":{"latitude":"51.430057","street":{"id":1678248,"name":"On or near Shrubbery Road"},"longitude":"-0.128529"},"context":"","outcome_status":{"category":"Investigation complete; no suspect identified","date":"2025-07"},"persistent_id":"ffd6ce32a4e6b70db4e1bfddb4161f4447be436c11e8a4ee75a8ba6749366248","id":127589398,"location_subtype":"","month":"2025-04"},{"category":"criminal-damage-arson","location_type":"Force","location":{"latitude":"51.424985","street":{"id":1676207,"name":"On or near Pretoria Road"},"longitude":"-0.142660"},"context":"","outcome_status":{"category":"Investigation complete; no suspect identified","date":"2025-05"},"persistent_id":"387f702092f39a8e23e5f1ab53402319e859ec5734b87e5a6cadddb56fc72b9a","id":127589356,"location_subtype":"","month":"2025-04"},{"category":"criminal-damage-arson","location_type":"Force","location":{"latitude":"51.432096","street":{"id":1677922,"name":"On or near Ockley Road"},"longitude":"-0.130689"},"context":"","outcome_status":{"category":"Investigation complete; no suspect identified","date":"2025-10"},"persistent_id":"9e4e8a8cc09638e32a9643e3826e0356da185a3412840541a8aa001dc08faf27","id":127589275,"location_subtype":"","month":"2025-04"},{"category":"criminal-damage-arson","location_type":"Force","location":{"latitude":"51.430057","street":{"id":1678248,"name":"On or near Shrubbery Road"},"longitude":"-0.128529"},"context":"","outcome_status":{"category":"Formal action is not in the public interest","date":"2025-11"},"persistent_id":"596b6f803cd12c6e9820ebe51021473d9b457ea1c3d867cd12e59ba7c81b6e05","id":127589564,"location_subtype":"","month":"2025-04"},{"category":"criminal-damage-arson","location_type":"Force","location":{"latitude":"51.429735","street":{"id":1677940,"name":"On or near Further/higher Educational Building"},"longitude":"-0.130887"},"context":"","outcome_status":{"category":"Status update unavailable","date":"2025-08"},"persistent_id":"83c814a3000dcc8676bb6b6a5c0d9b9b649d9305204c06f85958c91fd240ec2e","id":127589510,"location_subtype":"","month":"2025-04"},{"category":"criminal-damage-arson","location_type":"Force","location":{"latitude":"51.428556","street":{"id":1677333,"name":"On or near Ambleside Avenue"},"longitude":"-0.134819"},"context":"","outcome_status":{"category":"Awaiting court outcome","date":"2025-09"},"persistent_id":"90aeb0d69a04cb1c8cea3cc3bacd2ba6248ea89722f3e50c9034125e5112089d","id":127590840,"location_subtype":"","month":"2025-04"},{"category":"criminal-damage-arson","location_type":"Force","location":{"latitude":"51.428508","street":{"id":1676025,"name":"On or near Furzedown Road"},"longitude":"-0.144833"},"context":"","outcome_status":{"category":"Investigation complete; no suspect identified","date":"2025-10"},"persistent_id":"6fe77d3490668cc9d4d3d1c2b9a39e7385c2b31f2ed4c91966986884dd329061","id":127589135,"location_subtype":"","month":"2025-04"},{"category":"criminal-damage-arson","location_type":"Force","location":{"latitude":"51.410459","street":{"id":1679122,"name":"On or near Supermarket"},"longitude":"-0.123304"},"context":"","outcome_status":{"category":"Investigation complete; no suspect identified","date":"2025-07"},"persistent_id":"877e5c0acfd1b535389301c5abb49b7aab92b8e47c76580e54fc849653584108","id":127589174,"location_subtype":"","month":"2025-04"},{"category":"criminal-damage-arson","location_type":"Force","location":{"latitude":"51.428508","street":{"id":1676025,"name":"On or near Furzedown Road"},"longitude":"-0.144833"},"context":"","outcome_status":{"category":"Investigation complete; no suspect identified","date":"2025-05"},"persistent_id":"8af11adc1d4bd21a58001754e6da46f76a19069c75dcecc315418d7e10750698","id":127590116,"location_subtype":"","month":"2025-04"},{"category":"criminal-damage-arson","location_type":"Force","location":{"latitude":"51.419999","street":{"id":1676345,"name":"On or near Leverson Street"},"longitude":"-0.141265"},"context":"","outcome_status":{"category":"Investigation complete; no suspect identified","date":"2025-04"},"persistent_id":"ec35f75bac218b3bc7289b7ac4a3bb5b8225716b8ef6c0ab41a24e91446c2758","id":127591469,"location_subtype":"","month":"2025-04"},{"category":"criminal-damage-arson","location_type":"Force","location":{"latitude":"51.409556","street":{"id":1679258,"name":"On or near St Helen's Road"},"longitude":"-0.121414"},"context":"","outcome_status":{"category":"Investigation complete; no suspect identified","date":"2025-04"},"persistent_id":"87143e28dfb6e71fe2390108191d1500fe71f437c5b2f42bd6c51a841cd88578","id":127594638,"location_subtype":"","month":"2025-04"},{"category":"criminal-damage-arson","location_type":"Force","location":{"latitude":"51.418145","street":{"id":1677873,"name":"On or near Buckleigh Road"},"longitude":"-0.131029"},"context":"","outcome_status":{"category":"Unable to prosecute suspect","date":"2025-04"},"persistent_id":"2af5f3e135e3969c368f73b4043924bc5731a5d4bccdc63acf21c593ca0f5e16","id":127601259,"location_subtype":"","month":"2025-04"},{"category":"criminal-damage-arson","location_type":"Force","location":{"latitude":"51.419130","street":{"id":1675911,"name":"On or near Eastwood Street"},"longitude":"-0.143774"},"context":"","outcome_status":{"category":"Investigation complete; no suspect identified","date":"2025-04"},"persistent_id":"753c1900c239bdac164dee3610e75a0969f3de73b5f173bff015f0f411d942c8","id":127594358,"location_subtype":"","month":"2025-04"},{"category":"criminal-damage-arson","location_type":"Force","location":{"latitude":"51.419727","street":{"id":1678196,"name":"On or near Supermarket"},"longitude":"-0.129281"},"context":"","outcome_status":{"category":"Investigation complete; no suspect identified","date":"2025-04"},"persistent_id":"1f9f8bc86bfdc9e565a3c77450cbfd9f560aee09200bcaeef5915e440907775b","id":127592252,"location_subtype":"","month":"2025-04"},{"category":"criminal-damage-arson","location_type":"Force","location":{"latitude":"51.418866","street":{"id":1677186,"name":"On or near Streatham Common"},"longitude":"-0.136220"},"context":"","outcome_status":{"category":"Investigation complete; no suspect identified","date":"2025-04"},"persistent_id":"8b263b636ded45fcf8d915830a64638731ab30351b56f6e11c2ce783f776c423","id":127594825,"location_subtype":"","month":"2025-04"},{"category":"criminal-damage-arson","location_type":"Force","location":{"latitude":"51.432160","street":{"id":1680117,"name":"On or near Broadash Close"},"longitude":"-0.116703"},"context":"","outcome_status":{"category":"Investigation complete; no suspect identified","date":"2025-04"},"persistent_id":"e2241c7f376b8ecf00f576b33f54cdaf1579ad26d98c2dce8afdd89c7a3c7082","id":127594909,"location_subtype":"","month":"2025-04"},{"category":"criminal-damage-arson","location_type":"Force","location":{"latitude":"51.428355","street":{"id":1678425,"name":"On or near Ashlake Road"},"longitude":"-0.128382"},"context":"","outcome_status":{"category":"Investigation complete; no suspect identified","date":"2025-05"},"persistent_id":"72fce8c0c650917dcd20173dd9391794dcaed5ef176f4945005c194126e6aa35","id":127595257,"location_subtype":"","month":"2025-04"},{"category":"criminal-damage-arson","location_type":"Force","location":{"latitude":"51.418633","street":{"id":1676144,"name":"On or near Anvil Close"},"longitude":"-0.143608"},"context":"","outcome_status":{"category":"Investigation complete; no suspect identified","date":"2025-10"},"persistent_id":"37aa27a95738aa933ac0ae3ad1d0be062ce968620f43650ddbab9a149858e4cb","id":127595308,"location_subtype":"","month":"2025-04"},{"category":"criminal-damage-arson","location_type":"Force","location":{"latitude":"51.429479","street":{"id":1677189,"name":"On or near Thirlmere Road"},"longitude":"-0.136292"},"context":"","outcome_status":{"category":"Investigation complete; no suspect identified","date":"2025-04"},"persistent_id":"44a744dfc541d92f9862d1b374003b84533bb8858e7cb5b7207b5c75953b77f8","id":127596125,"location_subtype":"","month":"2025-04"},{"category":"criminal-damage-arson","location_type":"Force","location":{"latitude":"51.416407","street":{"id":1677341,"name":"On or near Woodgate Drive"},"longitude":"-0.134810"},"context":"","outcome_status":{"category":"Investigation complete; no suspect identified","date":"2025-04"},"persistent_id":"657c63df048a83f3f50a05c9081bc3c4a458a71e53a894d59f52269d8b866f44","id":127597898,"location_subtype":"","month":"2025-04"},{"category":"criminal-damage-arson","location_type":"Force","location":{"latitude":"51.428006","street":{"id":1677119,"name":"On or near Rydal Road"},"longitude":"-0.136395"},"context":"","outcome_status":{"category":"Investigation complete; no suspect identified","date":"2025-04"},"persistent_id":"c519c19c9a5561fb8e23ef70b05f15a524b1cb7bb7900fa22bc8e02717302ad7","id":127602784,"location_subtype":"","month":"2025-04"},{"category":"criminal-damage-arson","location_type":"Force","location":{"latitude":"51.432400","street":{"id":1680086,"name":"On or near Leigham Close"},"longitude":"-0.117096"},"context":"","outcome_status":{"category":"Investigation complete; no suspect identified","date":"2025-04"},"persistent_id":"dec4ec9672a1956e57a87dafa2dc321335fe6e7ccfb6c5931475608311188659","id":127655517,"location_subtype":"","month":"2025-04"},{"category":"drugs","location_type":"Force","location":{"latitude":"51.423958","street":{"id":1680635,"name":"On or near Winton Way"},"longitude":"-0.113257"},"context":"","outcome_status":{"category":"Unable to prosecute suspect","date":"2025-04"},"persistent_id":"92588a6d33e2d8fbeba44327b3c37295e19022baf44c6f3ef050160ec0ed3032","id":127667699,"location_subtype":"","month":"2025-04"},{"category":"drugs","location_type":"Force","location":{"latitude":"51.422378","street":{"id":1676309,"name":"On or near Penrith Street"},"longitude":"-0.142176"},"context":"","outcome_status":{"category":"Unable to prosecute suspect","date":"2025-04"},"persistent_id":"1a8a009aa2a7bc2b6236a6b994c050784f9cf0bbbb70c8fedbcc384f27b1c6ac","id":127669377,"location_subtype":"","month":"2025-04"},{"category":"drugs","location_type":"Force","location":{"latitude":"51.414160","street":{"id":1677360,"name":"On or near Bodiam Road"},"longitude":"-0.134326"},"context":"","outcome_status":{"category":"Awaiting court outcome","date":"2025-10"},"persistent_id":"42af64b7382fc05e05e14d3460cae8c7a4be1e1498c95bc889172eea0c3dc1a2","id":127671181,"location_subtype":"","month":"2025-04"},{"category":"drugs","location_type":"Force","location":{"latitude":"51.430257","street":{"id":1680716,"name":"On or near Uffington Road"},"longitude":"-0.111847"},"context":"","outcome_status":{"category":"Unable to prosecute suspect","date":"2025-04"},"persistent_id":"cf4872629670a0e5d616ba4327d1a0bf1139917ef0e9bb3cf596010e597a9958","id":127668843,"location_subtype":"","month":"2025-04"},{"category":"drugs","location_type":"Force","location":{"latitude":"51.424926","street":{"id":1680594,"name":"On or near Colyton Lane"},"longitude":"-0.114181"},"context":"","outcome_status":{"category":"Status update unavailable","date":"2025-08"},"persistent_id":"89fd87cfcccfbeddc50cf98cf376354b8ae0b1a78e72c81ff5e4a13445df100a","id":127671041,"location_subtype":"","month":"2025-04"},{"category":"drugs","location_type":"Force","location":{"latitude":"51.428729","street":{"id":1678956,"name":"On or near Wellfield Road"},"longitude":"-0.124238"},"context":"","outcome_status":{"category":"Unable to prosecute suspect","date":"2025-04"},"persistent_id":"c4430807dd17d2b901ad43a249063cdefce236059b9259a292dc445cfdfb1186","id":127669346,"location_subtype":"","month":"2025-04"},{"category":"drugs","location_type":"Force","location":{"latitude":"51.418568","street":{"id":1677251,"name":"On or near Parking Area"},"longitude":"-0.135556"},"context":"","outcome_status":{"category":"Court result unavailable","date":"2026-01"},"persistent_id":"b48418f1b9fd3b358c5570748d60800feb04dfd2e958f8770382e21bbdec1786","id":127669575,"location_subtype":"","month":"2025-04"},{"category":"drugs","location_type":"Force","location":{"latitude":"51.413084","street":{"id":1677527,"name":"On or near Woodmansterne Road"},"longitude":"-0.133924"},"context":"","outcome_status":{"category":"Unable to prosecute suspect","date":"2025-04"},"persistent_id":"2f2a55325493f5090fe7cd6eca6484965ee112431013c98d0b267247aaf99dc6","id":127667929,"location_subtype":"","month":"2025-04"},{"category":"drugs","location_type":"Force","location":{"latitude":"51.424535","street":{"id":1680772,"name":"On or near Kwesi Mews"},"longitude":"-0.111162"},"context":"","outcome_status":{"category":"Unable to prosecute suspect","date":"2025-04"},"persistent_id":"be894218dddd90a360102e0508c10b1ee3453bb3dd2a29991710730009f79f98","id":127669113,"location_subtype":"","month":"2025-04"},{"category":"drugs","location_type":"Force","location":{"latitude":"51.422966","street":{"id":1674892,"name":"On or near Welham Road"},"longitude":"-0.151458"},"context":"","outcome_status":{"category":"Offender given penalty notice","date":"2025-05"},"persistent_id":"39bc91ae1740ebee753020c698a9ee42feeabc49bd0c7388c41402f2497e0203","id":127669706,"location_subtype":"","month":"2025-04"},{"category":"other-theft","location_type":"Force","location":{"latitude":"51.408492","street":{"id":1679251,"name":"On or near Further/higher Educational Building"},"longitude":"-0.122335"},"context":"","outcome_status":{"category":"Investigation complete; no suspect identified","date":"2025-04"},"persistent_id":"5ecdda5986b4eecefd4ab9d17c68e9b79cfbe8380139f4da57c219bfdbd24930","id":127654433,"location_subtype":"","month":"2025-04"},{"category":"other-theft","location_type":"Force","location":{"latitude":"51.410459","street":{"id":1679122,"name":"On or near Supermarket"},"longitude":"-0.123304"},"context":"","outcome_status":{"category":"Investigation complete; no suspect identified","date":"2025-04"},"persistent_id":"f3c9b92a6319e9558abbe131d0d77bde60b8319bf2ba8c5ada4b09c3c9e77e24","id":127653301,"location_subtype":"","month":"2025-04"},{"category":"other-theft","location_type":"Force","location":{"latitude":"51.424535","street":{"id":1680772,"name":"On or near Kwesi Mews"},"longitude":"-0.111162"},"context":"","outcome_status":{"category":"Investigation complete; no suspect identified","date":"2025-04"},"persistent_id":"7087607ce237b623fab65beaf659c6e4d88d9d9b74f6e6287816ac7f615000c6","id":127633674,"location_subtype":"","month":"2025-04"},{"category":"other-theft","location_type":"Force","location":{"latitude":"51.414323","street":{"id":1679086,"name":"On or near Supermarket"},"longitude":"-0.123706"},"context":"","outcome_status":{"category":"Investigation complete; no suspect identified","date":"2025-04"},"persistent_id":"9b6c7ee0e51569e5da9ab999aa8f4805daf2d35ab8e583be1bbd8c4d85f8088c","id":127633670,"location_subtype":"","month":"2025-04"},{"category":"other-theft","location_type":"Force","location":{"latitude":"51.429513","street":{"id":1681103,"name":"On or near Thurlby Road"},"longitude":"-0.110367"},"context":"","outcome_status":{"category":"Status update unavailable","date":"2025-08"},"persistent_id":"bd72f0893f52c612f986bf6aee2801bf825875506bb0f13be940807bd14477e2","id":127649168,"location_subtype":"","month":"2025-04"},{"category":"other-theft","location_type":"Force","location":{"latitude":"51.426750","street":{"id":1677959,"name":"On or near Nightclub"},"longitude":"-0.130951"},"context":"","outcome_status":{"category":"Investigation complete; no suspect identified","date":"2025-04"},"persistent_id":"3de9750ab0b38ca819aeb707e645c307f7e122a0f0657dd241f7b9732f093ee5","id":127651489,"location_subtype":"","month":"2025-04"},{"category":"other-theft","location_type":"Force","location":{"latitude":"51.414937","street":{"id":1678382,"name":"On or near Hepworth Road"},"longitude":"-0.127233"},"context":"","outcome_status":{"category":"Unable to prosecute suspect","date":"2025-07"},"persistent_id":"df95abe2a4c3d9f4e05f4e7ca598b3570740b3794cc0460371f02f0293b6679e","id":127652999,"location_subtype":"","month":"2025-04"},{"category":"other-theft","location_type":"Force","location":{"latitude":"51.413263","street":{"id":1678746,"name":"On or near Acacia Road"},"longitude":"-0.125432"},"context":"","outcome_status":{"category":"Investigation complete; no suspect identified","date":"2025-04"},"persistent_id":"96a7852fb796cffe12747b4052ac6916be7ac08f3820c6dc07364978d426edb0","id":127653789,"location_subtype":"","month":"2025-04"},{"category":"other-theft","location_type":"Force","location":{"latitude":"51.424535","street":{"id":1680772,"name":"On or near Kwesi Mews"},"longitude":"-0.111162"},"context":"","outcome_status":{"category":"Investigation complete; no suspect identified","date":"2025-04"},"persistent_id":"193df734917c1b98a2193974317ad30ec71ff7346a1f6be7bbc1a18a721b9954","id":127651535,"location_subtype":"","month":"2025-04"},{"category":"other-theft","location_type":"Force","location":{"latitude":"51.426566","street":{"id":1675718,"name":"On or near Woodnook Road"},"longitude":"-0.146005"},"context":"","outcome_status":{"category":"Investigation complete; no suspect identified","date":"2025-04"},"persistent_id":"3b3470181cd86075ac99707ec5be60311623682e070cfdfe0633c6dacf3eafbc","id":127633696,"location_subtype":"","month":"2025-04"},{"category":"other-theft","location_type":"Force","location":{"latitude":"51.412429","street":{"id":1676199,"name":"On or near Lilian Road"},"longitude":"-0.143125"},"context":"","outcome_status":{"category":"Investigation complete; no suspect identified","date":"2025-04"},"persistent_id":"683ccea8841a59d9b34ebd5802a4b74a45d0edf62ebf3378d2771e6627b0f22a","id":127650757,"location_subtype":"","month":"2025-04"},{"category":"other-theft","location_type":"Force","location":{"latitude":"51.414084","street":{"id":1676988,"name":"On or near Helmsdale Road"},"longitude":"-0.138025"},"context":"","outcome_status":{"category":"Unable to prosecute suspect","date":"2025-04"},"persistent_id":"fd8fb0a3c9166104ebc5d63f0f9f7904f9402983c0dd0c7ab5e710389fff94ed","id":127624923,"location_subtype":"","month":"2025-04"},{"category":"other-theft","location_type":"Force","location":{"latitude":"51.411481","street":{"id":1675839,"name":"On or near Ebenezer Walk"},"longitude":"-0.145134"},"context":"","outcome_status":{"category":"Investigation complete; no suspect identified","date":"2025-04"},"persistent_id":"e43272be1d59f785ed185d29c818c01f17fa66afdaed4e7e99d1d04a295d839e","id":127653988,"location_subtype":"","month":"2025-04"},{"category":"other-theft","location_type":"Force","location":{"latitude":"51.423146","street":{"id":1681263,"name":"On or near Crown Lane"},"longitude":"-0.109206"},"context":"","outcome_status":{"category":"Investigation complete; no suspect identified","date":"2025-04"},"persistent_id":"baed017ef243e2d8b33371f9894ee07ac6ccda82dacc162ff9a7da8b4a0f1669","id":127652337,"location_subtype":"","month":"2025-04"},{"category":"other-theft","location_type":"Force","location":{"latitude":"51.413409","street":{"id":1678870,"name":"On or near London Road"},"longitude":"-0.124477"},"context":"","outcome_status":{"category":"Investigation complete; no suspect identified","date":"2025-04"},"persistent_id":"d1285e1c55c6d554f9fe0b814c2d585c3bf3fa96b3cb367e9b90db69a135acfa","id":127649520,"location_subtype":"","month":"2025-04"},{"category":"other-theft","location_type":"Force","location":{"latitude":"51.423716","street":{"id":1677535,"name":"On or near Ellora Road"},"longitude":"-0.132455"},"context":"","outcome_status":{"category":"Unable to prosecute suspect","date":"2025-06"},"persistent_id":"e41c668e1df7dd4e5d849b38f774be7a4b3e226815d91f10b57c9f62181784ea","id":127633290,"location_subtype":"","month":"2025-04"},{"category":"other-theft","location_type":"Force","location":{"latitude":"51.426869","street":{"id":1679075,"name":"On or near Grasmere Road"},"longitude":"-0.123193"},"context":"","outcome_status":{"category":"Investigation complete; no suspect identified","date":"2025-04"},"persistent_id":"ca5e319b4a95cc7a3a845772fc5c933fed2234f8dfb4bb9d7c4930c2b23fe9ed","id":127633708,"location_subtype":"","month":"2025-04"},{"category":"other-theft","location_type":"Force","location":{"latitude":"51.430546","street":{"id":1679875,"name":"On or near Sports/recreation Area"},"longitude":"-0.118054"},"context":"","outcome_status":{"category":"Investigation complete; no suspect identified","date":"2025-07"},"persistent_id":"8ec9795ae5c74091cf2e2a3c9af2f5c6aa918b576c588a1ecc0967ac375e0da7","id":127624787,"location_subtype":"","month":"2025-04"},{"category":"other-theft","location_type":"Force","location":{"latitude":"51.432096","street":{"id":1677922,"name":"On or near Ockley Road"},"longitude":"-0.130689"},"context":"","outcome_status":{"category":"Investigation complete; no suspect identified","date":"2025-05"},"persistent_id":"d15321be2006ce6d2d092ffffa25e47b339d8992255b8bfe34d4a76e2156c33e","id":127650319,"location_subtype":"","month":"2025-04"},{"category":"other-theft","location_type":"Force","location":{"latitude":"51.408682","street":{"id":1677003,"name":"On or near Lymington Close"},"longitude":"-0.137597"},"context":"","outcome_status":{"category":"Unable to prosecute suspect","date":"2025-07"},"persistent_id":"580929893f217634259562870d1ea9ed69c83c85cd558b059d9526814e35668f","id":127650293,"location_subtype":"","month":"2025-04"},{"category":"other-theft","location_type":"Force","location":{"latitude":"51.420052","street":{"id":1675766,"name":"On or near A216"},"longitude":"-0.146340"},"context":"","outcome_status":{"category":"Investigation complete; no suspect identified","date":"2025-04"},"persistent_id":"99eb9fe27e65e95b9d2273591b0108ffc7ddceda40da038c12b5b526f158de75","id":127652595,"location_subtype":"","month":"2025-04"},{"category":"other-theft","location_type":"Force","location":{"latitude":"51.418302","street":{"id":1678061,"name":"On or near Shears Lane"},"longitude":"-0.130735"},"context":"","outcome_status":{"category":"Investigation complete; no suspect identified","date":"2025-04"},"persistent_id":"99b45b81513732d9392a9cf1edbc8077a06e362ba12c510ebc707727e4a6ff8a","id":127650506,"location_subtype":"","month":"2025-04"},{"category":"other-theft","location_type":"Force","location":{"latitude":"51.431922","street":{"id":1680655,"name":"On or near St Peter's Gardens"},"longitude":"-0.113605"},"context":"","outcome_status":{"category":"Investigation complete; no suspect identified","date":"2025-04"},"persistent_id":"2ed2205cc47f704bec2f7f34b99b5beb76f07e3d560dd471a3feac88cd91bc68","id":127653499,"location_subtype":"","month":"2025-04"},{"category":"other-theft","location_type":"Force","location":{"latitude":"51.430997","street":{"id":1678088,"name":"On or near Supermarket"},"longitude":"-0.130001"},"context":"","outcome_status":{"category":"Investigation complete; no suspect identified","date":"2025-11"},"persistent_id":"1fd1b6a2e65da84a1247fb92cacfb9470e055f15bcee9d6dc59515894f2dd257","id":127649610,"location_subtype":"","month":"2025-04"},{"category":"other-theft","location_type":"Force","location":{"latitude":"51.427456","street":{"id":1677576,"name":"On or near Gleneagle Mews"},"longitude":"-0.131799"},"context":"","outcome_status":{"category":"Investigation complete; no suspect identified","date":"2025-07"},"persistent_id":"d8bdbf5cef01912f4c03c79217c5ca016507e6cbb0ac68994d1219301d8a26b8","id":127654041,"location_subtype":"","month":"2025-04"},{"category":"other-theft","location_type":"Force","location":{"latitude":"51.422966","street":{"id":1674892,"name":"On or near Welham Road"},"longitude":"-0.151458"},"context":"","outcome_status":{"category":"Investigation complete; no suspect identified","date":"2025-06"},"persistent_id":"a2c34515adb8e1f14ffb7a816a483c3b54d621392e560af8376cdf7623ff7076","id":127652735,"location_subtype":"","month":"2025-04"},{"category":"other-theft","location_type":"Force","location":{"latitude":"51.413948","street":{"id":1679470,"name":"On or near Kuala Gardens"},"longitude":"-0.121061"},"context":"","outcome_status":{"category":"Investigation complete; no suspect identified","date":"2025-05"},"persistent_id":"b994afca491664defae0943f89b2f2e832c7a31b46f26f5b6696e2fe8ccadef1","id":127653309,"location_subtype":"","month":"2025-04"},{"category":"possession-of-weapons","location_type":"Force","location":{"latitude":"51.425631","street":{"id":1677858,"name":"On or near Streatham"},"longitude":"-0.131860"},"context":"","outcome_status":{"category":"Awaiting court outcome","date":"2025-08"},"persistent_id":"c42ddf6dc590cf7ec2417837a8971394a4f9dd3c6ca123b326c092640f0e886b","id":127657658,"location_subtype":"","month":"2025-04"},{"category":"public-order","location_type":"Force","location":{"latitude":"51.423319","street":{"id":1677351,"name":"On or near Hambro Road"},"longitude":"-0.134586"},"context":"","outcome_status":{"category":"Status update unavailable","date":"2025-08"},"persistent_id":"c0ed670ae96313227884de93543b886515fc9ca92f4cea4ae350c21039bce1d7","id":127583787,"location_subtype":"","month":"2025-04"},{"category":"public-order","location_type":"Force","location":{"latitude":"51.435642","street":{"id":1678447,"name":"On or near Streatham Court"},"longitude":"-0.127495"},"context":"","outcome_status":{"category":"Investigation complete; no suspect identified","date":"2025-07"},"persistent_id":"be35846164e22e885eeb4ab227a32267eb872d090206eabb3feb7a09f306b5f9","id":127585318,"location_subtype":"","month":"2025-04"},{"category":"public-order","location_type":"Force","location":{"latitude":"51.419897","street":{"id":1676721,"name":"On or near Edgington Road"},"longitude":"-0.138853"},"context":"","outcome_status":{"category":"Unable to prosecute suspect","date":"2025-06"},"persistent_id":"a8f5e5d8917216455298d424f9cc44c06e1d9e3eb799ac642a2dd688dfe6d61f","id":127581396,"location_subtype":"","month":"2025-04"},{"category":"public-order","location_type":"Force","location":{"latitude":"51.415521","street":{"id":1678628,"name":"On or near Rochester Close"},"longitude":"-0.125527"},"context":"","outcome_status":{"category":"Unable to prosecute suspect","date":"2025-12"},"persistent_id":"ec1e8b6c84dda3b0ef9d8959c31bef3f191fb55381794b6ea63f10ddd67c2679","id":127656595,"location_subtype":"","month":"2025-04"},{"category":"public-order","location_type":"Force","location":{"latitude":"51.432096","street":{"id":1677922,"name":"On or near Ockley Road"},"longitude":"-0.130689"},"context":"","outcome_status":{"category":"Awaiting court outcome","date":"2025-11"},"persistent_id":"e2bb5b7b13ca3192158df7fd5212ef680b610fb79fe969c1500f0989b561e934","id":127584685,"location_subtype":"","month":"2025-04"},{"category":"public-order","location_type":"Force","location":{"latitude":"51.428261","street":{"id":1680128,"name":"On or near Etherstone Green"},"longitude":"-0.116331"},"context":"","outcome_status":{"category":"Unable to prosecute suspect","date":"2025-08"},"persistent_id":"f837fcae963d9db3956de1b692ba951a6bc65cb9c0370fcc2fb447d5aad37bfb","id":127580318,"location_subtype":"","month":"2025-04"},{"category":"public-order","location_type":"Force","location":{"latitude":"51.408014","street":{"id":1679274,"name":"On or near Sherlock Close"},"longitude":"-0.122225"},"context":"","outcome_status":{"category":"Investigation complete; no suspect identified","date":"2025-08"},"persistent_id":"ebb96c84aab44a0649f753f9a66a3f1e9951d34e32c4e42b2ea3ab0344596d94","id":127581183,"location_subtype":"","month":"2025-04"},{"category":"public-order","location_type":"Force","location":{"latitude":"51.430997","street":{"id":1678088,"name":"On or near Supermarket"},"longitude":"-0.130001"},"context":"","outcome_status":{"category":"Investigation complete; no suspect identified","date":"2025-08"},"persistent_id":"152ec112b63313bddab327c17f0f0cad997f5909df3eb44f54b7c6be0a80c911","id":127580746,"location_subtype":"","month":"2025-04"},{"category":"public-order","location_type":"Force","location":{"latitude":"51.433386","street":{"id":1679681,"name":"On or near Leigham Court Road"},"longitude":"-0.119688"},"context":"","outcome_status":{"category":"Investigation complete; no suspect identified","date":"2025-04"},"persistent_id":"5d3af65217ad4d9ceb949163895b7bb343820c748ecac32d9fb18b8a4eee6537","id":127583176,"location_subtype":"","month":"2025-04"},{"category":"public-order","location_type":"Force","location":{"latitude":"51.430680","street":{"id":1680657,"name":"On or near Rockhampton Road"},"longitude":"-0.112980"},"context":"","outcome_status":{"category":"Investigation complete; no suspect identified","date":"2025-04"},"persistent_id":"8299fa3a9b2ce643c6e90159c180b6ab38f60dd8a0b107fb075d38a8405ec8b8","id":127581642,"location_subtype":"","month":"2025-04"},{"category":"public-order","location_type":"Force","location":{"latitude":"51.409556","street":{"id":1679258,"name":"On or near St Helen's Road"},"longitude":"-0.121414"},"context":"","outcome_status":{"category":"Unable to prosecute suspect","date":"2025-06"},"persistent_id":"2c1d3b8f4b0b96df8a4b3b8de38fefd135fe84b4a47f9ecce337474b52d4fc61","id":127581869,"location_subtype":"","month":"2025-04"},{"category":"public-order","location_type":"Force","location":{"latitude":"51.423716","street":{"id":1677535,"name":"On or near Ellora Road"},"longitude":"-0.132455"},"context":"","outcome_status":{"category":"Unable to prosecute suspect","date":"2025-05"},"persistent_id":"ade5005b2679440818e685609f79daffcc04f18505fc92739e28d5a8fc9e6742","id":127580485,"location_subtype":"","month":"2025-04"},{"category":"public-order","location_type":"Force","location":{"latitude":"51.414160","street":{"id":1677360,"name":"On or near Bodiam Road"},"longitude":"-0.134326"},"context":"","outcome_status":{"category":"Status update unavailable","date":"2025-08"},"persistent_id":"693f6776da1935a8bbfa0030f6521e63bab754e0d821f51b65931a4a17058174","id":127658962,"location_subtype":"","month":"2025-04"},{"category":"public-order","location_type":"Force","location":{"latitude":"51.411114","street":{"id":1676369,"name":"On or near Rowan Close"},"longitude":"-0.141813"},"context":"","outcome_status":{"category":"Investigation complete; no suspect identified","date":"2025-05"},"persistent_id":"46bbe6549532b750310dac47a052517765fad320438a4c9abcfb2f735a67fa8b","id":127582494,"location_subtype":"","month":"2025-04"},{"category":"public-order","location_type":"Force","location":{"latitude":"51.420814","street":{"id":1678235,"name":"On or near Westwell Road Approach"},"longitude":"-0.129208"},"context":"","outcome_status":{"category":"Investigation complete; no suspect identified","date":"2025-04"},"persistent_id":"a346335ba2991b57e7f1712d6a7b1469f7d76635adfb077eda243ff99f17dd97","id":127582394,"location_subtype":"","month":"2025-04"},{"category":"public-order","location_type":"Force","location":{"latitude":"51.409099","street":{"id":1679182,"name":"On or near Semley Place"},"longitude":"-0.122640"},"context":"","outcome_status":{"category":"Unable to prosecute suspect","date":"2025-09"},"persistent_id":"f7d30bd5e5fbb144820643fe6825792e6bc18e479e5b2efdf36f1c15ec3c684c","id":127581697,"location_subtype":"","month":"2025-04"},{"category":"public-order","location_type":"Force","location":{"latitude":"51.426208","street":{"id":1677971,"name":"On or near Shopping Area"},"longitude":"-0.131347"},"context":"","outcome_status":{"category":"Awaiting court outcome","date":"2025-10"},"persistent_id":"46686b25d148b2b5af8888c45ae545caa0ae0fbe2d4fb8608809c2157c9b43c5","id":127658998,"location_subtype":"","month":"2025-04"},{"category":"public-order","location_type":"Force","location":{"latitude":"51.429735","street":{"id":1677940,"name":"On or near Further/higher Educational Building"},"longitude":"-0.130887"},"context":"","outcome_status":{"category":"Unable to prosecute suspect","date":"2025-05"},"persistent_id":"0f1f7dea8ad6c54f39dc6987977eb77c671160916e00a0e8be1b9c0af8b01ba4","id":127583003,"location_subtype":"","month":"2025-04"},{"category":"public-order","location_type":"Force","location":{"latitude":"51.427859","street":{"id":1677921,"name":"On or near William Dyce Mews"},"longitude":"-0.131711"},"context":"","outcome_status":{"category":"Investigation complete; no suspect identified","date":"2025-10"},"persistent_id":"6a0f1ed51e2ba7eda0d5b0bc2438650d642ce2cdd164c70891d67877575565ee","id":127583698,"location_subtype":"","month":"2025-04"},{"category":"public-order","location_type":"Force","location":{"latitude":"51.432115","street":{"id":1677261,"name":"On or near Garrad's Road"},"longitude":"-0.135810"},"context":"","outcome_status":{"category":"Unable to prosecute suspect","date":"2025-05"},"persistent_id":"c0f648af02ca6f53914b86f514934d01c26bc77ab9fc8154d529108df0b17bc8","id":127656283,"location_subtype":"","month":"2025-04"},{"category":"public-order","location_type":"Force","location":{"latitude":"51.430640","street":{"id":1676387,"name":"On or near Tooting Bec Road"},"longitude":"-0.140330"},"context":"","outcome_status":{"category":"Investigation complete; no suspect identified","date":"2025-06"},"persistent_id":"deccafcd409766f8610be4864fe35d3667161e581112cf841d2e76431659fca0","id":127656313,"location_subtype":"","month":"2025-04"},{"category":"public-order","location_type":"Force","location":{"latitude":"51.411368","street":{"id":1678940,"name":"On or near Roche Road"},"longitude":"-0.124503"},"context":"","outcome_status":{"category":"Unable to prosecute suspect","date":"2025-04"},"persistent_id":"cf4551760a9964b182fecc537ddbb1d925dbde55c69fc6f02ecf2fab8941e83a","id":127581368,"location_subtype":"","month":"2025-04"},{"category":"public-order","location_type":"Force","location":{"latitude":"51.413144","street":{"id":1677716,"name":"On or near Runnymede Crescent"},"longitude":"-0.132067"},"context":"","outcome_status":{"category":"Unable to prosecute suspect","date":"2025-04"},"persistent_id":"cca7a13d98aba66c8ac9eadd39d9b9766bafb115c79137a4e08ff76f31bc8297","id":127581326,"location_subtype":"","month":"2025-04"},{"category":"public-order","location_type":"Force","location":{"latitude":"51.409830","street":{"id":1679473,"name":"On or near St Helen's Crescent"},"longitude":"-0.121101"},"context":"","outcome_status":{"category":"Unable to prosecute suspect","date":"2025-04"},"persistent_id":"1af866ce2ed4cc99f3fe8e49b3d1b2c924f91e1eb1f2cf0f4f4b7f99aac78928","id":127582207,"location_subtype":"","month":"2025-04"},{"category":"public-order","location_type":"Force","location":{"latitude":"51.419727","street":{"id":1678196,"name":"On or near Supermarket"},"longitude":"-0.129281"},"context":"","outcome_status":{"category":"Unable to prosecute suspect","date":"2025-05"},"persistent_id":"5cc983521b0e5e9ddf7ecdc18218d1199f6f7c5fc8ab410e7d565be00c506fa0","id":127580614,"location_subtype":"","month":"2025-04"},{"category":"public-order","location_type":"Force","location":{"latitude":"51.414129","street":{"id":1675556,"name":"On or near Bennetts Close"},"longitude":"-0.147112"},"context":"","outcome_status":{"category":"Court result unavailable","date":"2025-11"},"persistent_id":"ee2c529a5d848ef8ca315c54a203b7f89f23ef13e9dc04be10243fc208da1670","id":127656643,"location_subtype":"","month":"2025-04"},{"category":"public-order","location_type":"Force","location":{"latitude":"51.426822","street":{"id":1676703,"name":"On or near Fir Tree Close"},"longitude":"-0.139464"},"context":"","outcome_status":{"category":"Unable to prosecute suspect","date":"2025-05"},"persistent_id":"d63ccfc9b5bf5d525bc360c80f14c8df7cae8ea241ddd421eaf807f806976752","id":127585002,"location_subtype":"","month":"2025-04"},{"category":"public-order","location_type":"Force","location":{"latitude":"51.433826","street":{"id":1678517,"name":"On or near Woodleigh Gardens"},"longitude":"-0.126907"},"context":"","outcome_status":{"category":"Unable to prosecute suspect","date":"2025-11"},"persistent_id":"a7aa5ae33dc95867c4b130e89abcc7fd9f245ff4c10795f96e0ce620bfea277e","id":127656051,"location_subtype":"","month":"2025-04"},{"category":"public-order","location_type":"Force","location":{"latitude":"51.413332","street":{"id":1679020,"name":"On or near Parking Area"},"longitude":"-0.123560"},"context":"","outcome_status":{"category":"Unable to prosecute suspect","date":"2025-04"},"persistent_id":"b6f1caca937fbaf1c93c10b98d91454737ba2a4754a7c8f8138dbd870e2541e8","id":127580238,"location_subtype":"","month":"2025-04"},{"category":"public-order","location_type":"Force","location":{"latitude":"51.422191","street":{"id":1676573,"name":"On or near Masters Close"},"longitude":"-0.139983"},"context":"","outcome_status":{"category":"Investigation complete; no suspect identified","date":"2025-04"},"persistent_id":"face5262da5397540fc683cd1d5850f635c5402cdd8703ecc418aab8a1159a6a","id":127656049,"location_subtype":"","month":"2025-04"},{"category":"public-order","location_type":"Force","location":{"latitude":"51.432096","street":{"id":1677922,"name":"On or near Ockley Road"},"longitude":"-0.130689"},"context":"","outcome_status":{"category":"Unable to prosecute suspect","date":"2025-05"},"persistent_id":"bc20c75b6853f96f6262cfb513310428101fe7e5e9b0c134b7fd08fda7516d10","id":127656167,"location_subtype":"","month":"2025-04"},{"category":"public-order","location_type":"Force","location":{"latitude":"51.424608","street":{"id":1676823,"name":"On or near Conyer's Road"},"longitude":"-0.137612"},"context":"","outcome_status":{"category":"Investigation complete; no suspect identified","date":"2025-04"},"persistent_id":"f91d93d35e590c5e0684455bb55df0150d3b6da8bedd9d7d629c0dbc45b2406e","id":127583063,"location_subtype":"","month":"2025-04"},{"category":"public-order","location_type":"Force","location":{"latitude":"51.410459","street":{"id":1679122,"name":"On or near Supermarket"},"longitude":"-0.123304"},"context":"","outcome_status":{"category":"Investigation complete; no suspect identified","date":"2025-07"},"persistent_id":"329655eea36b163cb11349229a6286850e291a1e59af25fc86fc00c5e88a4f05","id":127584141,"location_subtype":"","month":"2025-04"},{"category":"public-order","location_type":"Force","location":{"latitude":"51.429735","street":{"id":1677940,"name":"On or near Further/higher Educational Building"},"longitude":"-0.130887"},"context":"","outcome_status":{"category":"Investigation complete; no suspect identified","date":"2025-06"},"persistent_id":"b377ce71987fdf229db1f1cde0847aa4761ca07a1633628fba35514325431e12","id":127583824,"location_subtype":"","month":"2025-04"},{"category":"robbery","location_type":"Force","location":{"latitude":"51.420859","street":{"id":1675918,"name":"On or near Welham Road"},"longitude":"-0.145603"},"context":"","outcome_status":{"category":"Investigation complete; no suspect identified","date":"2025-09"},"persistent_id":"7b229bf1626b44eccb847c64a2cc06e13e198c54075f7f938e3a83062627d6a7","id":127622902,"location_subtype":"","month":"2025-04"},{"category":"robbery","location_type":"Force","location":{"latitude":"51.435041","street":{"id":1678105,"name":"On or near Blakemore Road"},"longitude":"-0.129260"},"context":"","outcome_status":{"category":"Unable to prosecute suspect","date":"2025-04"},"persistent_id":"69af9817d75cf2cf56927d64f2ae012125c13201b6587e3c715366e015f194b8","id":127624186,"location_subtype":"","month":"2025-04"},{"category":"robbery","location_type":"Force","location":{"latitude":"51.415372","street":{"id":1676551,"name":"On or near Supermarket"},"longitude":"-0.139310"},"context":"","outcome_status":{"category":"Unable to prosecute suspect","date":"2025-05"},"persistent_id":"88a8ebd8f1848ad46db32c914bfbdc4408616b71c49480204536b3cc38922390","id":127623041,"location_subtype":"","month":"2025-04"},{"category":"robbery","location_type":"Force","location":{"latitude":"51.423959","street":{"id":1678172,"name":"On or near Albert Carr Gardens"},"longitude":"-0.129051"},"context":"","outcome_status":{"category":"Investigation complete; no suspect identified","date":"2025-05"},"persistent_id":"0c1c6676110d98b40423233d23a54dff023495b53d250b2b4669c3f7a0e429f1","id":127623981,"location_subtype":"","month":"2025-04"},{"category":"robbery","location_type":"Force","location":{"latitude":"51.416384","street":{"id":1676370,"name":"On or near Abercairn Road"},"longitude":"-0.141829"},"context":"","outcome_status":{"category":"Status update unavailable","date":"2025-08"},"persistent_id":"8cc47485f95b6524c16d6fbe5a7a8da978cfd56ce36b04e6422e87d958e0bafc","id":127623450,"location_subtype":"","month":"2025-04"},{"category":"robbery","location_type":"Force","location":{"latitude":"51.410459","street":{"id":1679122,"name":"On or near Supermarket"},"longitude":"-0.123304"},"context":"","outcome_status":{"category":"Awaiting court outcome","date":"2025-08"},"persistent_id":"c69ceb2a387863d0a7585e0b96fb32531a877c0607e99c3097b111b9d510653e","id":127622780,"location_subtype":"","month":"2025-04"},{"category":"robbery","location_type":"Force","location":{"latitude":"51.435041","street":{"id":1678105,"name":"On or near Blakemore Road"},"longitude":"-0.129260"},"context":"","outcome_status":{"category":"Unable to prosecute suspect","date":"2025-07"},"persistent_id":"664e6bcf7b8e3f190f42853d310f165753815ffa456a367e3730c68f0efc14a7","id":127624314,"location_subtype":"","month":"2025-04"},{"category":"robbery","location_type":"Force","location":{"latitude":"51.432096","street":{"id":1677922,"name":"On or near Ockley Road"},"longitude":"-0.130689"},