[{"category":"anti-social-behaviour","location_type":"Force","location":{"latitude":"51.093621","street":{"id":2053219,"name":"On or near Goddards Close"},"longitude":"0.524885"},"context":"","outcome_status":null,"persistent_id":"","id":131122219,"location_subtype":"","month":"2025-09"},{"category":"anti-social-behaviour","location_type":"Force","location":{"latitude":"51.093621","street":{"id":2053219,"name":"On or near Goddards Close"},"longitude":"0.524885"},"context":"","outcome_status":null,"persistent_id":"","id":131123057,"location_subtype":"","month":"2025-09"},{"category":"anti-social-behaviour","location_type":"Force","location":{"latitude":"51.098231","street":{"id":2053785,"name":"On or near Carriers Road"},"longitude":"0.535006"},"context":"","outcome_status":null,"persistent_id":"","id":131122246,"location_subtype":"","month":"2025-09"},{"category":"anti-social-behaviour","location_type":"Force","location":{"latitude":"51.098609","street":{"id":2053828,"name":"On or near Rectory Fields"},"longitude":"0.535427"},"context":"","outcome_status":null,"persistent_id":"","id":131123060,"location_subtype":"","month":"2025-09"},{"category":"criminal-damage-arson","location_type":"Force","location":{"latitude":"51.096229","street":{"id":2053767,"name":"On or near Crane Lane"},"longitude":"0.534868"},"context":"","outcome_status":{"category":"Investigation complete; no suspect identified","date":"2025-10"},"persistent_id":"df974443b66f63d98f6a637ed936de409a4bcfa01c6b675dbda5ed082efd0e76","id":131131354,"location_subtype":"","month":"2025-09"},{"category":"criminal-damage-arson","location_type":"Force","location":{"latitude":"51.088010","street":{"id":2053896,"name":"On or near Tilsden Lane"},"longitude":"0.543459"},"context":"","outcome_status":{"category":"Investigation complete; no suspect identified","date":"2025-09"},"persistent_id":"ed378bc33e078a16bb0c242131aee5f2097f974e19fe24b0b04104a3bb5440fc","id":131132089,"location_subtype":"","month":"2025-09"},{"category":"criminal-damage-arson","location_type":"Force","location":{"latitude":"51.096349","street":{"id":2053696,"name":"On or near Bank Street"},"longitude":"0.533447"},"context":"","outcome_status":{"category":"Investigation complete; no suspect identified","date":"2025-09"},"persistent_id":"362977909d44ac1a3180fb7851bebf2aa2eadf9b40c9bdb1e2f80f3db786070f","id":131129834,"location_subtype":"","month":"2025-09"},{"category":"criminal-damage-arson","location_type":"Force","location":{"latitude":"51.094561","street":{"id":2054089,"name":"On or near Tippens Close"},"longitude":"0.539162"},"context":"","outcome_status":{"category":"Unable to prosecute suspect","date":"2025-09"},"persistent_id":"a3f934e0ea8d2f3909303745eb5c2966a14ee5ee9aef6f24c44a5af31d349a53","id":131133790,"location_subtype":"","month":"2025-09"},{"category":"criminal-damage-arson","location_type":"Force","location":{"latitude":"51.094181","street":{"id":2053852,"name":"On or near Brookside"},"longitude":"0.535156"},"context":"","outcome_status":{"category":"Investigation complete; no suspect identified","date":"2025-09"},"persistent_id":"d630a25eb52b9b9e1be269945324c0f8a7e7c7628281622734c54b7b245ad56e","id":131130613,"location_subtype":"","month":"2025-09"},{"category":"criminal-damage-arson","location_type":"Force","location":{"latitude":"51.097040","street":{"id":2053790,"name":"On or near Rectory Lane"},"longitude":"0.534770"},"context":"","outcome_status":{"category":"Investigation complete; no suspect identified","date":"2025-09"},"persistent_id":"4985f7f8a8e2da498d6cd83f63b14e186bae7b413f9506057b5f8e0dfbf4f055","id":131127301,"location_subtype":"","month":"2025-09"},{"category":"criminal-damage-arson","location_type":"Force","location":{"latitude":"51.103607","street":{"id":2053988,"name":"On or near Angley Road"},"longitude":"0.537201"},"context":"","outcome_status":{"category":"Investigation complete; no suspect identified","date":"2025-09"},"persistent_id":"87ec3c54c0a86a541c4f8442f3689cd69353278f8ceca7848b852e8ada4060c4","id":131123678,"location_subtype":"","month":"2025-09"},{"category":"criminal-damage-arson","location_type":"Force","location":{"latitude":"51.096455","street":{"id":2053504,"name":"On or near Causton Road"},"longitude":"0.531467"},"context":"","outcome_status":{"category":"Investigation complete; no suspect identified","date":"2025-09"},"persistent_id":"77697a77ab31fbd6de09afa54c4131458883542459b0f4ba089dfd276c9b6e3e","id":131123675,"location_subtype":"","month":"2025-09"},{"category":"drugs","location_type":"Force","location":{"latitude":"51.108966","street":{"id":2054344,"name":"On or near Petrol Station"},"longitude":"0.547167"},"context":"","outcome_status":{"category":"Awaiting court outcome","date":"2025-10"},"persistent_id":"dc61761531c2935d0b8c955d9fbf64f5bd375fc6ed4aafd277db220dfb187eec","id":131123700,"location_subtype":"","month":"2025-09"},{"category":"drugs","location_type":"Force","location":{"latitude":"51.100673","street":{"id":2053533,"name":"On or near Angley Road"},"longitude":"0.530655"},"context":"","outcome_status":{"category":"Investigation complete; no suspect identified","date":"2025-09"},"persistent_id":"d86fd4a341db32dad1036329acc4d675fa12177cbe4cded3cc23b3b714a275e8","id":131128436,"location_subtype":"","month":"2025-09"},{"category":"public-order","location_type":"Force","location":{"latitude":"51.096229","street":{"id":2053767,"name":"On or near Crane Lane"},"longitude":"0.534868"},"context":"","outcome_status":{"category":"Unable to prosecute suspect","date":"2025-11"},"persistent_id":"6ea6aec2296ad6e3b0e51658b4c88b5b15da5daa5dc3a77085d7b9affb748011","id":131129589,"location_subtype":"","month":"2025-09"},{"category":"public-order","location_type":"Force","location":{"latitude":"51.095943","street":{"id":2053367,"name":"On or near Wheatfield Drive"},"longitude":"0.527297"},"context":"","outcome_status":{"category":"Status update unavailable","date":"2026-01"},"persistent_id":"0a3ea02f565d13e19c0e7190ac68efcfc8632a884f7307ac5434f92af709423b","id":131126728,"location_subtype":"","month":"2025-09"},{"category":"shoplifting","location_type":"Force","location":{"latitude":"51.096455","street":{"id":2053504,"name":"On or near Causton Road"},"longitude":"0.531467"},"context":"","outcome_status":{"category":"Status update unavailable","date":"2026-01"},"persistent_id":"3e3db745ed34549f5be133d53af32084145b2bfe32757b064b11509fb8ef3215","id":131128167,"location_subtype":"","month":"2025-09"},{"category":"shoplifting","location_type":"Force","location":{"latitude":"51.096229","street":{"id":2053767,"name":"On or near Crane Lane"},"longitude":"0.534868"},"context":"","outcome_status":{"category":"Awaiting court outcome","date":"2025-09"},"persistent_id":"3c6f7d5e23da67a9e494b57d76324229a81c67117965fea39daedbac09a6e55b","id":131132234,"location_subtype":"","month":"2025-09"},{"category":"violent-crime","location_type":"Force","location":{"latitude":"51.095943","street":{"id":2053367,"name":"On or near Wheatfield Drive"},"longitude":"0.527297"},"context":"","outcome_status":{"category":"Investigation complete; no suspect identified","date":"2025-09"},"persistent_id":"8976871fd66d1c049d359866b7c3869e9c31c499c74ffb5ea7a58d9f9dc3dd1f","id":131131194,"location_subtype":"","month":"2025-09"},{"category":"violent-crime","location_type":"Force","location":{"latitude":"51.094909","street":{"id":2054047,"name":"On or near The Hill"},"longitude":"0.538910"},"context":"","outcome_status":{"category":"Unable to prosecute suspect","date":"2025-10"},"persistent_id":"4e16ae7b8889f54504c6e0ee6c37cfc132194c58f0a8377cb36dda3672724ceb","id":131134003,"location_subtype":"","month":"2025-09"},{"category":"violent-crime","location_type":"Force","location":{"latitude":"51.096229","street":{"id":2053767,"name":"On or near Crane Lane"},"longitude":"0.534868"},"context":"","outcome_status":{"category":"Investigation complete; no suspect identified","date":"2025-10"},"persistent_id":"9e76928e9221b8b38fc3e72158fbfcdc6f3a47e1b2dae8dbbeabf06ad5a2cf43","id":131131619,"location_subtype":"","month":"2025-09"}]