[{"category":"anti-social-behaviour","location_type":"Force","location":{"latitude":"51.194261","street":{"id":2046448,"name":"On or near Clare Avenue"},"longitude":"0.259820"},"context":"","outcome_status":null,"persistent_id":"","id":128745947,"location_subtype":"","month":"2025-06"},{"category":"anti-social-behaviour","location_type":"Force","location":{"latitude":"51.196992","street":{"id":2047044,"name":"On or near Castle Street"},"longitude":"0.274783"},"context":"","outcome_status":null,"persistent_id":"","id":128746215,"location_subtype":"","month":"2025-06"},{"category":"anti-social-behaviour","location_type":"Force","location":{"latitude":"51.188036","street":{"id":2047480,"name":"On or near Somerhill Road"},"longitude":"0.287193"},"context":"","outcome_status":null,"persistent_id":"","id":128746367,"location_subtype":"","month":"2025-06"},{"category":"anti-social-behaviour","location_type":"Force","location":{"latitude":"51.196708","street":{"id":2046924,"name":"On or near The Slade"},"longitude":"0.271806"},"context":"","outcome_status":null,"persistent_id":"","id":128746441,"location_subtype":"","month":"2025-06"},{"category":"anti-social-behaviour","location_type":"Force","location":{"latitude":"51.194100","street":{"id":2047028,"name":"On or near B2260"},"longitude":"0.273696"},"context":"","outcome_status":null,"persistent_id":"","id":128748965,"location_subtype":"","month":"2025-06"},{"category":"anti-social-behaviour","location_type":"Force","location":{"latitude":"51.196642","street":{"id":2047101,"name":"On or near High Street"},"longitude":"0.275224"},"context":"","outcome_status":null,"persistent_id":"","id":128745433,"location_subtype":"","month":"2025-06"},{"category":"anti-social-behaviour","location_type":"Force","location":{"latitude":"51.194200","street":{"id":2047211,"name":"On or near Whitefriars Wharf"},"longitude":"0.278224"},"context":"","outcome_status":null,"persistent_id":"","id":128748461,"location_subtype":"","month":"2025-06"},{"category":"anti-social-behaviour","location_type":"Force","location":{"latitude":"51.190133","street":{"id":2046891,"name":"On or near Alexandra Road"},"longitude":"0.270467"},"context":"","outcome_status":null,"persistent_id":"","id":128743970,"location_subtype":"","month":"2025-06"},{"category":"anti-social-behaviour","location_type":"Force","location":{"latitude":"51.189722","street":{"id":2046843,"name":"On or near Police Station"},"longitude":"0.270332"},"context":"","outcome_status":null,"persistent_id":"","id":128744111,"location_subtype":"","month":"2025-06"},{"category":"anti-social-behaviour","location_type":"Force","location":{"latitude":"51.192546","street":{"id":2046836,"name":"On or near Holford Street"},"longitude":"0.269397"},"context":"","outcome_status":null,"persistent_id":"","id":128744125,"location_subtype":"","month":"2025-06"},{"category":"anti-social-behaviour","location_type":"Force","location":{"latitude":"51.196708","street":{"id":2046924,"name":"On or near The Slade"},"longitude":"0.271806"},"context":"","outcome_status":null,"persistent_id":"","id":128744153,"location_subtype":"","month":"2025-06"},{"category":"anti-social-behaviour","location_type":"Force","location":{"latitude":"51.193055","street":{"id":2046767,"name":"On or near Avebury Avenue"},"longitude":"0.269594"},"context":"","outcome_status":null,"persistent_id":"","id":128744878,"location_subtype":"","month":"2025-06"},{"category":"anti-social-behaviour","location_type":"Force","location":{"latitude":"51.187388","street":{"id":2047615,"name":"On or near Hazlewood Close"},"longitude":"0.290896"},"context":"","outcome_status":null,"persistent_id":"","id":128744546,"location_subtype":"","month":"2025-06"},{"category":"anti-social-behaviour","location_type":"Force","location":{"latitude":"51.194100","street":{"id":2047028,"name":"On or near B2260"},"longitude":"0.273696"},"context":"","outcome_status":null,"persistent_id":"","id":128744614,"location_subtype":"","month":"2025-06"},{"category":"anti-social-behaviour","location_type":"Force","location":{"latitude":"51.194440","street":{"id":2047076,"name":"On or near Botany"},"longitude":"0.275144"},"context":"","outcome_status":null,"persistent_id":"","id":128744620,"location_subtype":"","month":"2025-06"},{"category":"anti-social-behaviour","location_type":"Force","location":{"latitude":"51.190339","street":{"id":2046773,"name":"On or near Lawn Road"},"longitude":"0.267285"},"context":"","outcome_status":null,"persistent_id":"","id":128745227,"location_subtype":"","month":"2025-06"},{"category":"anti-social-behaviour","location_type":"Force","location":{"latitude":"51.194750","street":{"id":2046991,"name":"On or near Parking Area"},"longitude":"0.273070"},"context":"","outcome_status":null,"persistent_id":"","id":128746506,"location_subtype":"","month":"2025-06"},{"category":"anti-social-behaviour","location_type":"Force","location":{"latitude":"51.188644","street":{"id":2047224,"name":"On or near Pembury Grove"},"longitude":"0.277692"},"context":"","outcome_status":null,"persistent_id":"","id":128746584,"location_subtype":"","month":"2025-06"},{"category":"anti-social-behaviour","location_type":"Force","location":{"latitude":"51.194100","street":{"id":2047028,"name":"On or near B2260"},"longitude":"0.273696"},"context":"","outcome_status":null,"persistent_id":"","id":128747489,"location_subtype":"","month":"2025-06"},{"category":"anti-social-behaviour","location_type":"Force","location":{"latitude":"51.189722","street":{"id":2046843,"name":"On or near Police Station"},"longitude":"0.270332"},"context":"","outcome_status":null,"persistent_id":"","id":128748482,"location_subtype":"","month":"2025-06"},{"category":"anti-social-behaviour","location_type":"Force","location":{"latitude":"51.186245","street":{"id":2046378,"name":"On or near Masefield Way"},"longitude":"0.257611"},"context":"","outcome_status":null,"persistent_id":"","id":128748626,"location_subtype":"","month":"2025-06"},{"category":"anti-social-behaviour","location_type":"Force","location":{"latitude":"51.188036","street":{"id":2047480,"name":"On or near Somerhill Road"},"longitude":"0.287193"},"context":"","outcome_status":null,"persistent_id":"","id":128747921,"location_subtype":"","month":"2025-06"},{"category":"anti-social-behaviour","location_type":"Force","location":{"latitude":"51.185066","street":{"id":2047092,"name":"On or near Taylor Close"},"longitude":"0.275298"},"context":"","outcome_status":null,"persistent_id":"","id":128747883,"location_subtype":"","month":"2025-06"},{"category":"anti-social-behaviour","location_type":"Force","location":{"latitude":"51.195454","street":{"id":2047234,"name":"On or near Mortley Close"},"longitude":"0.278529"},"context":"","outcome_status":null,"persistent_id":"","id":128749125,"location_subtype":"","month":"2025-06"},{"category":"anti-social-behaviour","location_type":"Force","location":{"latitude":"51.182999","street":{"id":2046710,"name":"On or near Brickworks Close"},"longitude":"0.266424"},"context":"","outcome_status":null,"persistent_id":"","id":128748036,"location_subtype":"","month":"2025-06"},{"category":"anti-social-behaviour","location_type":"Force","location":{"latitude":"51.202222","street":{"id":2047197,"name":"On or near Elm Lane"},"longitude":"0.278248"},"context":"","outcome_status":null,"persistent_id":"","id":128747113,"location_subtype":"","month":"2025-06"},{"category":"anti-social-behaviour","location_type":"Force","location":{"latitude":"51.193055","street":{"id":2046767,"name":"On or near Avebury Avenue"},"longitude":"0.269594"},"context":"","outcome_status":null,"persistent_id":"","id":128746771,"location_subtype":"","month":"2025-06"},{"category":"anti-social-behaviour","location_type":"Force","location":{"latitude":"51.184559","street":{"id":2046817,"name":"On or near Judd Road"},"longitude":"0.269005"},"context":"","outcome_status":null,"persistent_id":"","id":128745368,"location_subtype":"","month":"2025-06"},{"category":"anti-social-behaviour","location_type":"Force","location":{"latitude":"51.199819","street":{"id":2046919,"name":"On or near The Crescent"},"longitude":"0.271430"},"context":"","outcome_status":null,"persistent_id":"","id":128744607,"location_subtype":"","month":"2025-06"},{"category":"anti-social-behaviour","location_type":"Force","location":{"latitude":"51.189722","street":{"id":2046843,"name":"On or near Police Station"},"longitude":"0.270332"},"context":"","outcome_status":null,"persistent_id":"","id":128743680,"location_subtype":"","month":"2025-06"},{"category":"anti-social-behaviour","location_type":"Force","location":{"latitude":"51.190893","street":{"id":2046851,"name":"On or near Supermarket"},"longitude":"0.270246"},"context":"","outcome_status":null,"persistent_id":"","id":128745245,"location_subtype":"","month":"2025-06"},{"category":"anti-social-behaviour","location_type":"Force","location":{"latitude":"51.190133","street":{"id":2046891,"name":"On or near Alexandra Road"},"longitude":"0.270467"},"context":"","outcome_status":null,"persistent_id":"","id":128745404,"location_subtype":"","month":"2025-06"},{"category":"anti-social-behaviour","location_type":"Force","location":{"latitude":"51.185844","street":{"id":2047142,"name":"On or near A2014"},"longitude":"0.275966"},"context":"","outcome_status":null,"persistent_id":"","id":128745575,"location_subtype":"","month":"2025-06"},{"category":"anti-social-behaviour","location_type":"Force","location":{"latitude":"51.182999","street":{"id":2046710,"name":"On or near Brickworks Close"},"longitude":"0.266424"},"context":"","outcome_status":null,"persistent_id":"","id":128745873,"location_subtype":"","month":"2025-06"},{"category":"anti-social-behaviour","location_type":"Force","location":{"latitude":"51.194803","street":{"id":2046961,"name":"On or near River Walk"},"longitude":"0.272686"},"context":"","outcome_status":null,"persistent_id":"","id":128749140,"location_subtype":"","month":"2025-06"},{"category":"anti-social-behaviour","location_type":"Force","location":{"latitude":"51.194440","street":{"id":2047076,"name":"On or near Botany"},"longitude":"0.275144"},"context":"","outcome_status":null,"persistent_id":"","id":128749107,"location_subtype":"","month":"2025-06"},{"category":"anti-social-behaviour","location_type":"Force","location":{"latitude":"51.199015","street":{"id":2047379,"name":"On or near Garden Road"},"longitude":"0.282226"},"context":"","outcome_status":null,"persistent_id":"","id":128749083,"location_subtype":"","month":"2025-06"},{"category":"bicycle-theft","location_type":"Force","location":{"latitude":"51.197877","street":{"id":2047014,"name":"On or near Annison Street"},"longitude":"0.274140"},"context":"","outcome_status":{"category":"Investigation complete; no suspect identified","date":"2025-06"},"persistent_id":"1760bdaf17d68028496b052e9d4b2c53a8f6627285077ae96d3021ffbd3f9dd4","id":128761646,"location_subtype":"","month":"2025-06"},{"category":"burglary","location_type":"Force","location":{"latitude":"51.185535","street":{"id":2047383,"name":"On or near Mann Square"},"longitude":"0.283063"},"context":"","outcome_status":{"category":"Investigation complete; no suspect identified","date":"2025-07"},"persistent_id":"afc0242a3bf3af6f9c085cca49ef7d41ceb675c36ec660a6b85cd626d6b14761","id":128751217,"location_subtype":"","month":"2025-06"},{"category":"burglary","location_type":"Force","location":{"latitude":"51.194100","street":{"id":2047028,"name":"On or near B2260"},"longitude":"0.273696"},"context":"","outcome_status":{"category":"Investigation complete; no suspect identified","date":"2025-06"},"persistent_id":"f5d0669545041ff6bd00115ebeec005d094b5f499a0e3ac1f6be6155f08ee6f3","id":128770517,"location_subtype":"","month":"2025-06"},{"category":"criminal-damage-arson","location_type":"Force","location":{"latitude":"51.194440","street":{"id":2047076,"name":"On or near Botany"},"longitude":"0.275144"},"context":"","outcome_status":{"category":"Investigation complete; no suspect identified","date":"2025-07"},"persistent_id":"c2585a43003c2292e4d92b3159c7c8818b1914d7026b91d7a63ee3657e1bcce9","id":128755575,"location_subtype":"","month":"2025-06"},{"category":"criminal-damage-arson","location_type":"Force","location":{"latitude":"51.189722","street":{"id":2046843,"name":"On or near Police Station"},"longitude":"0.270332"},"context":"","outcome_status":{"category":"Court result unavailable","date":"2025-12"},"persistent_id":"d1e3c4311eedbf275f450aa0e04e78a8490def411249dcd8ba6f13e5791d43ae","id":128768173,"location_subtype":"","month":"2025-06"},{"category":"criminal-damage-arson","location_type":"Force","location":{"latitude":"51.194750","street":{"id":2046991,"name":"On or near Parking Area"},"longitude":"0.273070"},"context":"","outcome_status":{"category":"Investigation complete; no suspect identified","date":"2025-06"},"persistent_id":"fdd0019c52125caa719a0da7b8278d60ce8e7a9db2268922b933686f9d9bb040","id":128755179,"location_subtype":"","month":"2025-06"},{"category":"criminal-damage-arson","location_type":"Force","location":{"latitude":"51.192006","street":{"id":2047414,"name":"On or near Morley Road"},"longitude":"0.284198"},"context":"","outcome_status":{"category":"Unable to prosecute suspect","date":"2025-06"},"persistent_id":"8ffde57eee869f8c8d5ee2b8bc812793cf13b1001e626cbfcf6fcaa485fb896c","id":128757006,"location_subtype":"","month":"2025-06"},{"category":"criminal-damage-arson","location_type":"Force","location":{"latitude":"51.189722","street":{"id":2046843,"name":"On or near Police Station"},"longitude":"0.270332"},"context":"","outcome_status":{"category":"Court result unavailable","date":"2025-12"},"persistent_id":"377f932f5329099d14fcd77495ab52d1a460a160681ba5ef75389b2d5bed4079","id":128756605,"location_subtype":"","month":"2025-06"},{"category":"criminal-damage-arson","location_type":"Force","location":{"latitude":"51.191206","street":{"id":2046826,"name":"On or near Albert Road"},"longitude":"0.268974"},"context":"","outcome_status":{"category":"Unable to prosecute suspect","date":"2025-06"},"persistent_id":"638fe454d28e361d47d77591d595276e525f95c5eb64d0f4da5b784446ff2a9c","id":128755902,"location_subtype":"","month":"2025-06"},{"category":"criminal-damage-arson","location_type":"Force","location":{"latitude":"51.189722","street":{"id":2046843,"name":"On or near Police Station"},"longitude":"0.270332"},"context":"","outcome_status":{"category":"Court result unavailable","date":"2025-12"},"persistent_id":"5f726cbfe3010678cf690559c9642cb0662c16a7db79ca550555ed1f8fa8e432","id":128756235,"location_subtype":"","month":"2025-06"},{"category":"criminal-damage-arson","location_type":"Force","location":{"latitude":"51.189722","street":{"id":2046843,"name":"On or near Police Station"},"longitude":"0.270332"},"context":"","outcome_status":{"category":"Court result unavailable","date":"2025-12"},"persistent_id":"9668f385393c668d0981fc9ed83f1d430847acd5c6da62387cd71c19f645657e","id":128755903,"location_subtype":"","month":"2025-06"},{"category":"criminal-damage-arson","location_type":"Force","location":{"latitude":"51.192132","street":{"id":2046895,"name":"On or near Railway Approach"},"longitude":"0.271767"},"context":"","outcome_status":{"category":"Unable to prosecute suspect","date":"2025-07"},"persistent_id":"055c90fd265f98117dedf3382cbee6de35d50ea9c0d70f5a4559e55db00235c4","id":128765297,"location_subtype":"","month":"2025-06"},{"category":"criminal-damage-arson","location_type":"Force","location":{"latitude":"51.189756","street":{"id":2047073,"name":"On or near St. Eanswythe's Court"},"longitude":"0.276459"},"context":"","outcome_status":{"category":"Investigation complete; no suspect identified","date":"2025-06"},"persistent_id":"0e4e7f98f519a4f5948f963378419652507f8b60587bd4eb25e7b1bb5137d2f0","id":128755576,"location_subtype":"","month":"2025-06"},{"category":"criminal-damage-arson","location_type":"Force","location":{"latitude":"51.185535","street":{"id":2047383,"name":"On or near Mann Square"},"longitude":"0.283063"},"context":"","outcome_status":{"category":"Investigation complete; no suspect identified","date":"2025-06"},"persistent_id":"a848a40210bb1ea611520fe4e147caf083bd55f0b48aefa6f10e90bb69654c19","id":128755181,"location_subtype":"","month":"2025-06"},{"category":"criminal-damage-arson","location_type":"Force","location":{"latitude":"51.194803","street":{"id":2046961,"name":"On or near River Walk"},"longitude":"0.272686"},"context":"","outcome_status":{"category":"Investigation complete; no suspect identified","date":"2025-06"},"persistent_id":"5aaa24005cf0327d282c9e4882ed4800b46343bfa6608e9b56da95c40957d5ff","id":128766831,"location_subtype":"","month":"2025-06"},{"category":"criminal-damage-arson","location_type":"Force","location":{"latitude":"51.189722","street":{"id":2046843,"name":"On or near Police Station"},"longitude":"0.270332"},"context":"","outcome_status":{"category":"Local resolution","date":"2025-06"},"persistent_id":"58abf5575ebfcd91ec1ee7280468f3288725c6f9f8f10679300fda1368fd1ce3","id":128755178,"location_subtype":"","month":"2025-06"},{"category":"criminal-damage-arson","location_type":"Force","location":{"latitude":"51.197781","street":{"id":2047430,"name":"On or near Supermarket"},"longitude":"0.284282"},"context":"","outcome_status":{"category":"Unable to prosecute suspect","date":"2025-06"},"persistent_id":"3980815bc9973e59fa8f085db75f5424a6e789d5bea86563daffcbffd73a0a91","id":128750247,"location_subtype":"","month":"2025-06"},{"category":"criminal-damage-arson","location_type":"Force","location":{"latitude":"51.189722","street":{"id":2046843,"name":"On or near Police Station"},"longitude":"0.270332"},"context":"","outcome_status":{"category":"Unable to prosecute suspect","date":"2025-08"},"persistent_id":"4cc15255f4b2a412d7d8e5d5dad704973847871496903e3f28ee67dfcc15527e","id":128752203,"location_subtype":"","month":"2025-06"},{"category":"criminal-damage-arson","location_type":"Force","location":{"latitude":"51.188098","street":{"id":2047403,"name":"On or near Brionne Gardens"},"longitude":"0.284492"},"context":"","outcome_status":{"category":"Unable to prosecute suspect","date":"2025-07"},"persistent_id":"b93576e9a267f96705a07999e958e2904903d7cc8bebab4a8e609e4c0959bde9","id":128758633,"location_subtype":"","month":"2025-06"},{"category":"criminal-damage-arson","location_type":"Force","location":{"latitude":"51.189722","street":{"id":2046843,"name":"On or near Police Station"},"longitude":"0.270332"},"context":"","outcome_status":{"category":"Court result unavailable","date":"2025-12"},"persistent_id":"078c516bad2b6caf79845a50d1f412533e07d2631461b6d9b50f5f7e09acfb4a","id":128765294,"location_subtype":"","month":"2025-06"},{"category":"criminal-damage-arson","location_type":"Force","location":{"latitude":"51.187366","street":{"id":2047462,"name":"On or near The Wynd"},"longitude":"0.285085"},"context":"","outcome_status":{"category":"Investigation complete; no suspect identified","date":"2025-06"},"persistent_id":"e6aa102b7416af4612147d9cb76ce9f003616d326df77c676ae9dce718ec5096","id":128759866,"location_subtype":"","month":"2025-06"},{"category":"drugs","location_type":"Force","location":{"latitude":"51.197877","street":{"id":2047014,"name":"On or near Annison Street"},"longitude":"0.274140"},"context":"","outcome_status":{"category":"Awaiting court outcome","date":"2025-09"},"persistent_id":"a31dc90f41b923aabd1a56ba359d18194d5e2226bcfc2d9774574b5339027458","id":128773014,"location_subtype":"","month":"2025-06"},{"category":"drugs","location_type":"Force","location":{"latitude":"51.189722","street":{"id":2046843,"name":"On or near Police Station"},"longitude":"0.270332"},"context":"","outcome_status":{"category":"Further action is not in the public interest","date":"2025-08"},"persistent_id":"c26cc6de671e01e8e06b1b774a39c6523df55ab11a047d88f057ac079ad6dd1b","id":128757447,"location_subtype":"","month":"2025-06"},{"category":"drugs","location_type":"Force","location":{"latitude":"51.188385","street":{"id":2047156,"name":"On or near Bridge Close"},"longitude":"0.277150"},"context":"","outcome_status":{"category":"Status update unavailable","date":"2025-10"},"persistent_id":"4f2cf234ddeabc71fb1d807868a328693e58b3cc5d0c0ce9c66df7d7326b8f22","id":128766953,"location_subtype":"","month":"2025-06"},{"category":"drugs","location_type":"Force","location":{"latitude":"51.186518","street":{"id":2047199,"name":"On or near Goldsmid Road"},"longitude":"0.278789"},"context":"","outcome_status":{"category":"Court result unavailable","date":"2025-12"},"persistent_id":"ad87032eb49cb105b31d30e3905e55fa945209b852f403143494f177c221f896","id":128754751,"location_subtype":"","month":"2025-06"},{"category":"drugs","location_type":"Force","location":{"latitude":"51.194176","street":{"id":2047113,"name":"On or near Supermarket"},"longitude":"0.275761"},"context":"","outcome_status":{"category":"Local resolution","date":"2025-06"},"persistent_id":"48d4561bf292f078ef944c6c3069bbbbc153daf198682a7a55a9e41923675c2d","id":128749388,"location_subtype":"","month":"2025-06"},{"category":"drugs","location_type":"Force","location":{"latitude":"51.189722","street":{"id":2046843,"name":"On or near Police Station"},"longitude":"0.270332"},"context":"","outcome_status":{"category":"Unable to prosecute suspect","date":"2025-12"},"persistent_id":"43398d480f4938b35b71adf866eb51c3627b72333db33fb62ee4c2ccb2cf5915","id":128759942,"location_subtype":"","month":"2025-06"},{"category":"drugs","location_type":"Force","location":{"latitude":"51.184790","street":{"id":2046690,"name":"On or near Fosse Bank Close"},"longitude":"0.265439"},"context":"","outcome_status":{"category":"Court result unavailable","date":"2025-12"},"persistent_id":"2bd409cb36b16809477130fab65fde3a01d0f8baf2f723954f7235cb5faa7df1","id":128759938,"location_subtype":"","month":"2025-06"},{"category":"drugs","location_type":"Force","location":{"latitude":"51.186898","street":{"id":2046848,"name":"On or near Springwell Road"},"longitude":"0.269420"},"context":"","outcome_status":{"category":"Unable to prosecute suspect","date":"2025-09"},"persistent_id":"e332cf0fdc1bf04256184828a52b8225e36bba2ef65ba5be317d6b4bcfead211","id":128760775,"location_subtype":"","month":"2025-06"},{"category":"drugs","location_type":"Force","location":{"latitude":"51.184879","street":{"id":2047406,"name":"On or near Tudeley Lane"},"longitude":"0.284418"},"context":"","outcome_status":{"category":"Court result unavailable","date":"2025-12"},"persistent_id":"3084d3fe7feb2b4ea1c23e13973c43f3822cb50d3e73127b0575d7aec2d5c74a","id":128760777,"location_subtype":"","month":"2025-06"},{"category":"other-theft","location_type":"Force","location":{"latitude":"51.189644","street":{"id":2047175,"name":"On or near Rose Street"},"longitude":"0.277584"},"context":"","outcome_status":{"category":"Unable to prosecute suspect","date":"2025-06"},"persistent_id":"4386231f99655e23e8aca8d6ac992024dcdbe6e4828e0cfad6f909f14ed388bd","id":128753223,"location_subtype":"","month":"2025-06"},{"category":"other-theft","location_type":"Force","location":{"latitude":"51.194261","street":{"id":2046448,"name":"On or near Clare Avenue"},"longitude":"0.259820"},"context":"","outcome_status":{"category":"Unable to prosecute suspect","date":"2025-06"},"persistent_id":"01cf333ca957e719642038ba81faa6efd5388a1aba819dc20f9f6164aa857982","id":128751438,"location_subtype":"","month":"2025-06"},{"category":"other-theft","location_type":"Force","location":{"latitude":"51.186932","street":{"id":2046596,"name":"On or near Dame Kelly Holmes Way"},"longitude":"0.264886"},"context":"","outcome_status":{"category":"Investigation complete; no suspect identified","date":"2025-06"},"persistent_id":"88595d6d0f1a439b53ec5ffe63ff5d41c17435cbda6ae92b0d2f4dbeb2a6e7ad","id":128749462,"location_subtype":"","month":"2025-06"},{"category":"other-theft","location_type":"Force","location":{"latitude":"51.190133","street":{"id":2046891,"name":"On or near Alexandra Road"},"longitude":"0.270467"},"context":"","outcome_status":{"category":"Investigation complete; no suspect identified","date":"2025-06"},"persistent_id":"8f64cd600678625fc1de484319d8eff7d59caf9da3af1aeaaea4a367d917ae11","id":128752378,"location_subtype":"","month":"2025-06"},{"category":"other-theft","location_type":"Force","location":{"latitude":"51.185842","street":{"id":2046754,"name":"On or near Woodside Road"},"longitude":"0.267766"},"context":"","outcome_status":{"category":"Investigation complete; no suspect identified","date":"2025-06"},"persistent_id":"1a275b51a9dbb47cdb5f4fe1a2f368c728d15c29515e9c925b5de020cdb211ce","id":128755641,"location_subtype":"","month":"2025-06"},{"category":"other-theft","location_type":"Force","location":{"latitude":"51.189722","street":{"id":2046843,"name":"On or near Police Station"},"longitude":"0.270332"},"context":"","outcome_status":{"category":"Unable to prosecute suspect","date":"2025-07"},"persistent_id":"1c50424db3d8f66065f60197d33f2100b92088932789ce476b71b72f5eaae7e1","id":128758693,"location_subtype":"","month":"2025-06"},{"category":"other-theft","location_type":"Force","location":{"latitude":"51.196750","street":{"id":2047206,"name":"On or near East Street"},"longitude":"0.277519"},"context":"","outcome_status":{"category":"Unable to prosecute suspect","date":"2025-07"},"persistent_id":"caaf7105558d60bf705cfe2e01b209a7d8ab07e7375065e50c8e9482292d2d4b","id":128769559,"location_subtype":"","month":"2025-06"},{"category":"other-theft","location_type":"Force","location":{"latitude":"51.196642","street":{"id":2047101,"name":"On or near High Street"},"longitude":"0.275224"},"context":"","outcome_status":{"category":"Unable to prosecute suspect","date":"2025-06"},"persistent_id":"2b6c0abd3084712e50b706805f487a771b630fc0c4d00177ff5975727e8b679a","id":128749466,"location_subtype":"","month":"2025-06"},{"category":"other-theft","location_type":"Force","location":{"latitude":"51.192852","street":{"id":2047221,"name":"On or near Parking Area"},"longitude":"0.278630"},"context":"","outcome_status":{"category":"Investigation complete; no suspect identified","date":"2025-06"},"persistent_id":"f1f9259f3120932ab761584e4b7a30c67b6b8911c82893ca61ff6b3303a7786a","id":128754790,"location_subtype":"","month":"2025-06"},{"category":"possession-of-weapons","location_type":"Force","location":{"latitude":"51.186518","street":{"id":2047199,"name":"On or near Goldsmid Road"},"longitude":"0.278789"},"context":"","outcome_status":{"category":"Court result unavailable","date":"2025-12"},"persistent_id":"ff64875261f55c17ca6c1207c570f89de73c69b154fd78c1b7a4dd857201dc51","id":128754830,"location_subtype":"","month":"2025-06"},{"category":"public-order","location_type":"Force","location":{"latitude":"51.196992","street":{"id":2047044,"name":"On or near Castle Street"},"longitude":"0.274783"},"context":"","outcome_status":{"category":"Investigation complete; no suspect identified","date":"2025-07"},"persistent_id":"43b6ee0a16f843bcff5f6d694b132e1371871d66736c5b8c5f93c42ce361cfa2","id":128761946,"location_subtype":"","month":"2025-06"},{"category":"public-order","location_type":"Force","location":{"latitude":"51.189722","street":{"id":2046843,"name":"On or near Police Station"},"longitude":"0.270332"},"context":"","outcome_status":{"category":"Awaiting court outcome","date":"2025-11"},"persistent_id":"24ef1974e39f85bca25052da30911e129e2a6a732c990a6d57e8a64397683af0","id":128754165,"location_subtype":"","month":"2025-06"},{"category":"public-order","location_type":"Force","location":{"latitude":"51.193134","street":{"id":2046893,"name":"On or near Parking Area"},"longitude":"0.271115"},"context":"","outcome_status":{"category":"Investigation complete; no suspect identified","date":"2025-11"},"persistent_id":"02eaee33deadc33ee84d4b3aedd119bbac8f2dfd26bf3085e6127623d233d8d5","id":128758720,"location_subtype":"","month":"2025-06"},{"category":"public-order","location_type":"Force","location":{"latitude":"51.188644","street":{"id":2047224,"name":"On or near Pembury Grove"},"longitude":"0.277692"},"context":"","outcome_status":{"category":"Investigation complete; no suspect identified","date":"2025-06"},"persistent_id":"230a4d24e4ffe0a115c1f68aab2b9c0153cfdbecf5e7b6bd329c768892fbb978","id":128757524,"location_subtype":"","month":"2025-06"},{"category":"robbery","location_type":"Force","location":{"latitude":"51.195766","street":{"id":2047380,"name":"On or near Crabapple Road"},"longitude":"0.282824"},"context":"","outcome_status":{"category":"Investigation complete; no suspect identified","date":"2025-07"},"persistent_id":"7d737f583fbf26fd0a8f79f8acd3b50ce0c0031210f99dedb48c805b2d5554c9","id":128755690,"location_subtype":"","month":"2025-06"},{"category":"robbery","location_type":"Force","location":{"latitude":"51.194750","street":{"id":2046991,"name":"On or near Parking Area"},"longitude":"0.273070"},"context":"","outcome_status":{"category":"Investigation complete; no suspect identified","date":"2025-07"},"persistent_id":"5ed200ac80eb3df87f3f5cc2f915f6cbdabc2bc19696c0a8217d8ce2677a1beb","id":128758362,"location_subtype":"","month":"2025-06"},{"category":"robbery","location_type":"Force","location":{"latitude":"51.194176","street":{"id":2047113,"name":"On or near Supermarket"},"longitude":"0.275761"},"context":"","outcome_status":{"category":"Investigation complete; no suspect identified","date":"2025-07"},"persistent_id":"8b4e49ca8439f8f2b3d693bcdbc81c83855e6a631d31309825e296fd4b321339","id":128757145,"location_subtype":"","month":"2025-06"},{"category":"shoplifting","location_type":"Force","location":{"latitude":"51.194750","street":{"id":2046991,"name":"On or near Parking Area"},"longitude":"0.273070"},"context":"","outcome_status":{"category":"Further action is not in the public interest","date":"2025-07"},"persistent_id":"78ccae3dfac4e46a9da7c430c4f62fa9cc1f4c9f93eaabd2e840e423ca90407c","id":128756758,"location_subtype":"","month":"2025-06"},{"category":"shoplifting","location_type":"Force","location":{"latitude":"51.192448","street":{"id":2047075,"name":"On or near Supermarket"},"longitude":"0.274946"},"context":"","outcome_status":{"category":"Investigation complete; no suspect identified","date":"2025-07"},"persistent_id":"acbb262413364f74eb7654eea447192d1898b34d4df55ffc7ee74a3cde4fb1d5","id":128765812,"location_subtype":"","month":"2025-06"},{"category":"shoplifting","location_type":"Force","location":{"latitude":"51.194176","street":{"id":2047113,"name":"On or near Supermarket"},"longitude":"0.275761"},"context":"","outcome_status":{"category":"Investigation complete; no suspect identified","date":"2025-06"},"persistent_id":"dc015f18776b8116e99153d0b7e763236c14b620cab67beaf234819dd7785eb3","id":128749629,"location_subtype":"","month":"2025-06"},{"category":"shoplifting","location_type":"Force","location":{"latitude":"51.194750","street":{"id":2046991,"name":"On or near Parking Area"},"longitude":"0.273070"},"context":"","outcome_status":{"category":"Further action is not in the public interest","date":"2025-07"},"persistent_id":"cced81dc5d7082bd8cdef087369a5912eea7dcf53131386d2963b66b60483bce","id":128767319,"location_subtype":"","month":"2025-06"},{"category":"shoplifting","location_type":"Force","location":{"latitude":"51.195766","street":{"id":2047380,"name":"On or near Crabapple Road"},"longitude":"0.282824"},"context":"","outcome_status":{"category":"Investigation complete; no suspect identified","date":"2025-06"},"persistent_id":"eb7e7d825bdc01c961b8e4d3ce5e0291ea4c414f95b595a84672ec2693481b9c","id":128763005,"location_subtype":"","month":"2025-06"},{"category":"shoplifting","location_type":"Force","location":{"latitude":"51.187835","street":{"id":2046789,"name":"On or near Petrol Station"},"longitude":"0.267964"},"context":"","outcome_status":{"category":"Court result unavailable","date":"2025-12"},"persistent_id":"3f79ad7faab55f9a358454313c7c054767a444b0586952b4ef8be51570dcb450","id":128764369,"location_subtype":"","month":"2025-06"},{"category":"shoplifting","location_type":"Force","location":{"latitude":"51.194176","street":{"id":2047113,"name":"On or near Supermarket"},"longitude":"0.275761"},"context":"","outcome_status":{"category":"Investigation complete; no suspect identified","date":"2025-07"},"persistent_id":"06ba9236034136a0f7f96d6e1b07ad1f5a06b0c60a22f1983b9c83f5ebb2c652","id":128764374,"location_subtype":"","month":"2025-06"},{"category":"shoplifting","location_type":"Force","location":{"latitude":"51.192448","street":{"id":2047075,"name":"On or near Supermarket"},"longitude":"0.274946"},"context":"","outcome_status":{"category":"Investigation complete; no suspect identified","date":"2025-06"},"persistent_id":"3632483908149071536460d88e01065b379c3da3baff18d0ddb507dad36cd5f4","id":128750619,"location_subtype":"","month":"2025-06"},{"category":"shoplifting","location_type":"Force","location":{"latitude":"51.192448","street":{"id":2047075,"name":"On or near Supermarket"},"longitude":"0.274946"},"context":"","outcome_status":{"category":"Awaiting court outcome","date":"2026-01"},"persistent_id":"1b36ae21eb1db1256f2ed8ece9732c7ca4884f184399d7465625a8e04c902ba4","id":128760132,"location_subtype":"","month":"2025-06"},{"category":"shoplifting","location_type":"Force","location":{"latitude":"51.190893","street":{"id":2046851,"name":"On or near Supermarket"},"longitude":"0.270246"},"context":"","outcome_status":{"category":"Investigation complete; no suspect identified","date":"2025-06"},"persistent_id":"ad2e7c259d25f2ea78c47560df8a3d45da1b506f56d8b17c76ce82ae58cf2cb6","id":128757558,"location_subtype":"","month":"2025-06"},{"category":"shoplifting","location_type":"Force","location":{"latitude":"51.192559","street":{"id":2047045,"name":"On or near Parking Area"},"longitude":"0.273835"},"context":"","outcome_status":{"category":"Investigation complete; no suspect identified","date":"2025-07"},"persistent_id":"ef5dc86d44f4beed3e95785e4427ff9b7fad44a8f275018e053842be9384787a","id":128760979,"location_subtype":"","month":"2025-06"},{"category":"shoplifting","location_type":"Force","location":{"latitude":"51.195766","street":{"id":2047380,"name":"On or near Crabapple Road"},"longitude":"0.282824"},"context":"","outcome_status":{"category":"Investigation complete; no suspect identified","date":"2025-06"},"persistent_id":"fb3b85e6fa8dafbe168ffdba49e88232f33b30a1e2f4d066b9fe4514f3f61de7","id":128758371,"location_subtype":"","month":"2025-06"},{"category":"shoplifting","location_type":"Force","location":{"latitude":"51.197781","street":{"id":2047430,"name":"On or near Supermarket"},"longitude":"0.284282"},"context":"","outcome_status":{"category":"Investigation complete; no suspect identified","date":"2025-07"},"persistent_id":"8b06157c968f73da08d7e3d57559b8229eb0bacfad8461a5b9915b702be10f1c","id":128764379,"location_subtype":"","month":"2025-06"},{"category":"shoplifting","location_type":"Force","location":{"latitude":"51.192448","street":{"id":2047075,"name":"On or near Supermarket"},"longitude":"0.274946"},"context":"","outcome_status":{"category":"Investigation complete; no suspect identified","date":"2025-06"},"persistent_id":"5770a7fb4baf4130e6961a5ff231b28253d33adfc70f5e2876050442c228ef4f","id":128769757,"location_subtype":"","month":"2025-06"},{"category":"shoplifting","location_type":"Force","location":{"latitude":"51.197781","street":{"id":2047430,"name":"On or near Supermarket"},"longitude":"0.284282"},"context":"","outcome_status":{"category":"Investigation complete; no suspect identified","date":"2025-06"},"persistent_id":"b2db60c7044e92310054e2191b708016f857cdd56a01f184aa72f9e58674ced9","id":128757559,"location_subtype":"","month":"2025-06"},{"category":"shoplifting","location_type":"Force","location":{"latitude":"51.190893","street":{"id":2046851,"name":"On or near Supermarket"},"longitude":"0.270246"},"context":"","outcome_status":{"category":"Further action is not in the public interest","date":"2025-06"},"persistent_id":"61ea2af9a7dcf45b7b2a4007dd58a03b8bd2dd429093a094f619700ae78c3b75","id":128750617,"location_subtype":"","month":"2025-06"},{"category":"shoplifting","location_type":"Force","location":{"latitude":"51.190893","street":{"id":2046851,"name":"On or near Supermarket"},"longitude":"0.270246"},"context":"","outcome_status":{"category":"Court result unavailable","date":"2025-12"},"persistent_id":"aaa7df3deaa38810a50b60bd6960c536a23ef103efeeed25593ee7f0f663b853","id":128758370,"location_subtype":"","month":"2025-06"},{"category":"shoplifting","location_type":"Force","location":{"latitude":"51.187835","street":{"id":2046789,"name":"On or near Petrol Station"},"longitude":"0.267964"},"context":"","outcome_status":{"category":"Investigation complete; no suspect identified","date":"2025-06"},"persistent_id":"2e0e0e840b10c3801c85b231217aea3a09368569841cb75695e815d46e5c93f4","id":128768547,"location_subtype":"","month":"2025-06"},{"category":"shoplifting","location_type":"Force","location":{"latitude":"51.192559","street":{"id":2047045,"name":"On or near Parking Area"},"longitude":"0.273835"},"context":"","outcome_status":{"category":"Investigation complete; no suspect identified","date":"2025-06"},"persistent_id":"2561e31fa8e6d0e74f9dee9ab39c82bb9ec749f7a3909099f142d73fcef04104","id":128754237,"location_subtype":"","month":"2025-06"},{"category":"shoplifting","location_type":"Force","location":{"latitude":"51.192448","street":{"id":2047075,"name":"On or near Supermarket"},"longitude":"0.274946"},"context":"","outcome_status":{"category":"Unable to prosecute suspect","date":"2025-06"},"persistent_id":"e9c294653267814ace119229298895af8cc965aa44cf4c0bd018383a9621e5f2","id":128754239,"location_subtype":"","month":"2025-06"},{"category":"theft-from-the-person","location_type":"Force","location":{"latitude":"51.186953","street":{"id":2046304,"name":"On or near Chaucer Gardens"},"longitude":"0.256329"},"context":"","outcome_status":{"category":"Investigation complete; no suspect identified","date":"2025-06"},"persistent_id":"a5e08afb072f1190d3017a999d40faf36d757359680fa19a387843bf4502fec9","id":129512477,"location_subtype":"","month":"2025-06"},{"category":"vehicle-crime","location_type":"Force","location":{"latitude":"51.187058","street":{"id":2047126,"name":"On or near Drayton Road"},"longitude":"0.276011"},"context":"","outcome_status":{"category":"Investigation complete; no suspect identified","date":"2025-06"},"persistent_id":"b26393752b6947c57d52f661d679737122805736e45aaa88dd9d74dde2e25f66","id":128768651,"location_subtype":"","month":"2025-06"},{"category":"vehicle-crime","location_type":"Force","location":{"latitude":"51.185535","street":{"id":2047383,"name":"On or near Mann Square"},"longitude":"0.283063"},"context":"","outcome_status":{"category":"Unable to prosecute suspect","date":"2025-06"},"persistent_id":"db2ec9d70a8657921e983a34e0b44f83520ce812567335d4ddc88061758c8f4b","id":128757600,"location_subtype":"","month":"2025-06"},{"category":"vehicle-crime","location_type":"Force","location":{"latitude":"51.196362","street":{"id":2047263,"name":"On or near Lockside"},"longitude":"0.279934"},"context":"","outcome_status":{"category":"Status update unavailable","date":"2025-10"},"persistent_id":"72df34de8890f5af627003a13a8616e9a0d8011e114caca6657a9a2d2a77b7cc","id":128767466,"location_subtype":"","month":"2025-06"},{"category":"vehicle-crime","location_type":"Force","location":{"latitude":"51.205254","street":{"id":2047163,"name":"On or near Petrol Station"},"longitude":"0.276794"},"context":"","outcome_status":{"category":"Investigation complete; no suspect identified","date":"2025-06"},"persistent_id":"ac648f3e78e633b317ef499094a94da95797c8844b7150413f12e132e4177fc1","id":128763098,"location_subtype":"","month":"2025-06"},{"category":"vehicle-crime","location_type":"Force","location":{"latitude":"51.182767","street":{"id":2046827,"name":"On or near Treetops"},"longitude":"0.270033"},"context":"","outcome_status":{"category":"Unable to prosecute suspect","date":"2025-07"},"persistent_id":"ce83d0c43c71b3c5e37815490111e85b58a3285d82ae96e84c75280afc634f41","id":128767460,"location_subtype":"","month":"2025-06"},{"category":"vehicle-crime","location_type":"Force","location":{"latitude":"51.196750","street":{"id":2047206,"name":"On or near East Street"},"longitude":"0.277519"},"context":"","outcome_status":{"category":"Investigation complete; no suspect identified","date":"2025-07"},"persistent_id":"2e194ed6462b31c643c34592361a0fc1ca37dc167f56c6c01f2eb12409c5b98b","id":128758408,"location_subtype":"","month":"2025-06"},{"category":"vehicle-crime","location_type":"Force","location":{"latitude":"51.196362","street":{"id":2047263,"name":"On or near Lockside"},"longitude":"0.279934"},"context":"","outcome_status":{"category":"Status update unavailable","date":"2025-10"},"persistent_id":"663f879487c65465dffe7120a9201e49e4688846b0eff702f88031aad5e21160","id":128769915,"location_subtype":"","month":"2025-06"},{"category":"vehicle-crime","location_type":"Force","location":{"latitude":"51.199229","street":{"id":2046856,"name":"On or near Hawden Road"},"longitude":"0.270785"},"context":"","outcome_status":{"category":"Awaiting court outcome","date":"2025-12"},"persistent_id":"e5ee97c861d454cf3b1c0b543c47c5fcaa22a9c74c92a572fa5e818c97fc40a2","id":128769909,"location_subtype":"","month":"2025-06"},{"category":"vehicle-crime","location_type":"Force","location":{"latitude":"51.196362","street":{"id":2047263,"name":"On or near Lockside"},"longitude":"0.279934"},"context":"","outcome_status":{"category":"Status update unavailable","date":"2025-10"},"persistent_id":"e4b05db89b8094f1e25b78b55e9775edc4c2d101cc26bef822e8a6f144ac7df6","id":128767464,"location_subtype":"","month":"2025-06"},{"category":"vehicle-crime","location_type":"Force","location":{"latitude":"51.199476","street":{"id":2047042,"name":"On or near Lansdowne Road"},"longitude":"0.273803"},"context":"","outcome_status":{"category":"Investigation complete; no suspect identified","date":"2025-06"},"persistent_id":"899062729bbe9b3a951039850680ef6d4f601afec0c945035e52d8cfb94b7928","id":128758407,"location_subtype":"","month":"2025-06"},{"category":"vehicle-crime","location_type":"Force","location":{"latitude":"51.202553","street":{"id":2047195,"name":"On or near Manor Grove"},"longitude":"0.277434"},"context":"","outcome_status":{"category":"Investigation complete; no suspect identified","date":"2025-06"},"persistent_id":"17353ed893586b2b40b496384bc122a8d39fa48cec8f14d9e68999f824616aa5","id":128757599,"location_subtype":"","month":"2025-06"},{"category":"vehicle-crime","location_type":"Force","location":{"latitude":"51.199476","street":{"id":2047042,"name":"On or near Lansdowne Road"},"longitude":"0.273803"},"context":"","outcome_status":{"category":"Investigation complete; no suspect identified","date":"2025-06"},"persistent_id":"85e31a6de9e7a03747e9de5a0102ede3d357ac3f12f4608e48f96b0667ae00ee","id":128756795,"location_subtype":"","month":"2025-06"},{"category":"violent-crime","location_type":"Force","location":{"latitude":"51.185869","street":{"id":2047613,"name":"On or near Oakshott Close"},"longitude":"0.289891"},"context":"","outcome_status":{"category":"Unable to prosecute suspect","date":"2025-06"},"persistent_id":"edf67a3e95d4499f762def2bdc7f1d390ee44818a2ccb92d937fca821db61903","id":128750829,"location_subtype":"","month":"2025-06"},{"category":"violent-crime","location_type":"Force","location":{"latitude":"51.192164","street":{"id":2047107,"name":"On or near Parking Area"},"longitude":"0.276105"},"context":"","outcome_status":{"category":"Unable to prosecute suspect","date":"2025-06"},"persistent_id":"4c8e4bb9e69a4c619fecd39f7635f8bc4e6d7ada85b13474eeac466b4070076f","id":128752701,"location_subtype":"","month":"2025-06"},{"category":"violent-crime","location_type":"Force","location":{"latitude":"51.185535","street":{"id":2047383,"name":"On or near Mann Square"},"longitude":"0.283063"},"context":"","outcome_status":{"category":"Unable to prosecute suspect","date":"2025-06"},"persistent_id":"5adc92c3311784f07ba919307a13e39ee10bb9c91100d727c05c36dbda5ccc92","id":128753517,"location_subtype":"","month":"2025-06"},{"category":"violent-crime","location_type":"Force","location":{"latitude":"51.189644","street":{"id":2047175,"name":"On or near Rose Street"},"longitude":"0.277584"},"context":"","outcome_status":{"category":"Unable to prosecute suspect","date":"2025-07"},"persistent_id":"bf169b33250a71f69cf32753681f3849e6cf766acf76b51337df57a3cdce1390","id":128757242,"location_subtype":"","month":"2025-06"},{"category":"violent-crime","location_type":"Force","location":{"latitude":"51.194764","street":{"id":2046497,"name":"On or near Barden Park Road"},"longitude":"0.262622"},"context":"","outcome_status":{"category":"Unable to prosecute suspect","date":"2025-07"},"persistent_id":"032ab6946373a844b8372ebb7923eee88ffa8129cd07b02eba5bd2b4f8f86f98","id":128752689,"location_subtype":"","month":"2025-06"},{"category":"violent-crime","location_type":"Force","location":{"latitude":"51.189722","street":{"id":2046843,"name":"On or near Police Station"},"longitude":"0.270332"},"context":"","outcome_status":{"category":"Awaiting court outcome","date":"2025-10"},"persistent_id":"b29fcf15e3c58247c5382abe07cb0592d477022ca5dffbf373312ca540139a1e","id":128751760,"location_subtype":"","month":"2025-06"},{"category":"violent-crime","location_type":"Force","location":{"latitude":"51.184836","street":{"id":2046335,"name":"On or near Keyes Gardens"},"longitude":"0.257470"},"context":"","outcome_status":{"category":"Unable to prosecute suspect","date":"2025-06"},"persistent_id":"6c7fec281bb09180ff8c2ce69f54258cddcd396615fdd55ba8aa55444d612956","id":128749776,"location_subtype":"","month":"2025-06"},{"category":"violent-crime","location_type":"Force","location":{"latitude":"51.189572","street":{"id":2047319,"name":"On or near Hectorage Road"},"longitude":"0.282189"},"context":"","outcome_status":{"category":"Status update unavailable","date":"2025-10"},"persistent_id":"a9af59570e74fc5bee5ed020b80bab20fa18169cb711bad19752655a4fea7743","id":128753515,"location_subtype":"","month":"2025-06"},{"category":"violent-crime","location_type":"Force","location":{"latitude":"51.195435","street":{"id":2046348,"name":"On or near Audley Rise"},"longitude":"0.256743"},"context":"","outcome_status":{"category":"Unable to prosecute suspect","date":"2025-06"},"persistent_id":"1b7b3ed01cec1c5ec9220dbf490a06cfe9986c8cfe140f59b3b2731fb6eec511","id":128749774,"location_subtype":"","month":"2025-06"},{"category":"violent-crime","location_type":"Force","location":{"latitude":"51.194100","street":{"id":2047028,"name":"On or near B2260"},"longitude":"0.273696"},"context":"","outcome_status":{"category":"Unable to prosecute suspect","date":"2025-06"},"persistent_id":"a4b0ed369fa1cc4196ed6f49b107a6325f7400a913156fa03a7e56a9f3224c9c","id":128749782,"location_subtype":"","month":"2025-06"},{"category":"violent-crime","location_type":"Force","location":{"latitude":"51.195166","street":{"id":2047279,"name":"On or near Redbud Road"},"longitude":"0.282193"},"context":"","outcome_status":{"category":"Unable to prosecute suspect","date":"2025-06"},"persistent_id":"19934c9c9ab5dda2dad9bf5a68a4b8d6fc967635a4195125bcec6fc1deaf98b5","id":128749791,"location_subtype":"","month":"2025-06"},{"category":"violent-crime","location_type":"Force","location":{"latitude":"51.185535","street":{"id":2047383,"name":"On or near Mann Square"},"longitude":"0.283063"},"context":"","outcome_status":{"category":"Unable to prosecute suspect","date":"2025-06"},"persistent_id":"72c6968c0d3c9c76e671a1363f1bd81ba841f9d6a7900a0f3c2d6be834c92ccc","id":128749793,"location_subtype":"","month":"2025-06"},{"category":"violent-crime","location_type":"Force","location":{"latitude":"51.185574","street":{"id":2047567,"name":"On or near Hops Close"},"longitude":"0.289361"},"context":"","outcome_status":{"category":"Unable to prosecute suspect","date":"2025-06"},"persistent_id":"c3bb4c1b888d959252725386b5944dc238861d1eb86bd58bd6aba5bdea7f8a43","id":128753519,"location_subtype":"","month":"2025-06"},{"category":"violent-crime","location_type":"Force","location":{"latitude":"51.182627","street":{"id":2047266,"name":"On or near Vauxhall Gardens"},"longitude":"0.280458"},"context":"","outcome_status":{"category":"Unable to prosecute suspect","date":"2025-06"},"persistent_id":"e537b323340fa8a81881d635999008f734e1c5e420a03a1b02a49a730cfd5b28","id":128750822,"location_subtype":"","month":"2025-06"},{"category":"violent-crime","location_type":"Force","location":{"latitude":"51.197781","street":{"id":2047430,"name":"On or near Supermarket"},"longitude":"0.284282"},"context":"","outcome_status":{"category":"Investigation complete; no suspect identified","date":"2025-06"},"persistent_id":"7039a37fbfa0c7cc1e7476d6a5a3348b3a86758d25ee052a43e6e339b7939d62","id":128750825,"location_subtype":"","month":"2025-06"},{"category":"violent-crime","location_type":"Force","location":{"latitude":"51.182627","street":{"id":2047266,"name":"On or near Vauxhall Gardens"},"longitude":"0.280458"},"context":"","outcome_status":{"category":"Court result unavailable","date":"2025-12"},"persistent_id":"6ff1cc0df17e2e8a3506d7a4cb36b55f89050c01abb2b8640bbe2e1b5d73b75d","id":128751770,"location_subtype":"","month":"2025-06"},{"category":"violent-crime","location_type":"Force","location":{"latitude":"51.187369","street":{"id":2046449,"name":"On or near Shakespeare Road"},"longitude":"0.259483"},"context":"","outcome_status":{"category":"Investigation complete; no suspect identified","date":"2025-08"},"persistent_id":"af1864cf7528b466b1e1f4d75e0e43ac867236d85aaee26ccd53abf74d1bb921","id":128754439,"location_subtype":"","month":"2025-06"},{"category":"violent-crime","location_type":"Force","location":{"latitude":"51.194750","street":{"id":2046991,"name":"On or near Parking Area"},"longitude":"0.273070"},"context":"","outcome_status":{"category":"Status update unavailable","date":"2025-10"},"persistent_id":"8ae219acf55fac0a7496a432b7f36c767ecd8bf1b6677aeec607a2a4362a16b7","id":128754980,"location_subtype":"","month":"2025-06"},{"category":"violent-crime","location_type":"Force","location":{"latitude":"51.189722","street":{"id":2046843,"name":"On or near Police Station"},"longitude":"0.270332"},"context":"","outcome_status":{"category":"Awaiting court outcome","date":"2025-12"},"persistent_id":"ec6b365ea8d4de9bbb2a5ecca7a8ca16b2ea5a8aa6af0ed164846dffa9afb854","id":128754977,"location_subtype":"","month":"2025-06"},{"category":"violent-crime","location_type":"Force","location":{"latitude":"51.193499","street":{"id":2046946,"name":"On or near Lambert's Yard"},"longitude":"0.272650"},"context":"","outcome_status":{"category":"Unable to prosecute suspect","date":"2025-07"},"persistent_id":"571d3c89934dfcbdf016f3efae06e844cb8331932bc0aaf6bfaa294c04d3b8e8","id":128752699,"location_subtype":"","month":"2025-06"},{"category":"violent-crime","location_type":"Force","location":{"latitude":"51.196362","street":{"id":2047263,"name":"On or near Lockside"},"longitude":"0.279934"},"context":"","outcome_status":{"category":"Unable to prosecute suspect","date":"2025-07"},"persistent_id":"4a17f03e4e46eda643e614d1835898bf824b3a93aed8b5f240c7fb53e0821f61","id":128766069,"location_subtype":"","month":"2025-06"},{"category":"violent-crime","location_type":"Force","location":{"latitude":"51.197877","street":{"id":2047014,"name":"On or near Annison Street"},"longitude":"0.274140"},"context":"","outcome_status":{"category":"Unable to prosecute suspect","date":"2025-06"},"persistent_id":"bae34c1b1bcd86b106fc97c5697e1628bbc162f97435f112911a384a06611f22","id":128755399,"location_subtype":"","month":"2025-06"},{"category":"violent-crime","location_type":"Force","location":{"latitude":"51.192132","street":{"id":2046895,"name":"On or near Railway Approach"},"longitude":"0.271767"},"context":"","outcome_status":{"category":"Unable to prosecute suspect","date":"2025-07"},"persistent_id":"67370228848941d48905caad6074fc068db30591bb9a655623e28059eeec9cd8","id":128766066,"location_subtype":"","month":"2025-06"},{"category":"violent-crime","location_type":"Force","location":{"latitude":"51.190016","street":{"id":2047018,"name":"On or near Commercial Road"},"longitude":"0.274168"},"context":"","outcome_status":{"category":"Investigation complete; no suspect identified","date":"2025-06"},"persistent_id":"ce1e310f65d61dfc839b8d528fa37950a3c82ea223635eda1973d92aeee1485b","id":128760299,"location_subtype":"","month":"2025-06"},{"category":"violent-crime","location_type":"Force","location":{"latitude":"51.194750","street":{"id":2046991,"name":"On or near Parking Area"},"longitude":"0.273070"},"context":"","outcome_status":{"category":"Court result unavailable","date":"2025-12"},"persistent_id":"41a60805e0a34c7b501ac2b018bfac21bd924afbf8deff56023ce97053f8db71","id":128755755,"location_subtype":"","month":"2025-06"},{"category":"violent-crime","location_type":"Force","location":{"latitude":"51.182627","street":{"id":2047266,"name":"On or near Vauxhall Gardens"},"longitude":"0.280458"},"context":"","outcome_status":{"category":"Unable to prosecute suspect","date":"2025-06"},"persistent_id":"ae8ad62d2ade06b5f1bae5d2a795a442b940a6f30a0aabbc3117804aa767befd","id":128756098,"location_subtype":"","month":"2025-06"},{"category":"violent-crime","location_type":"Force","location":{"latitude":"51.188098","street":{"id":2047403,"name":"On or near Brionne Gardens"},"longitude":"0.284492"},"context":"","outcome_status":{"category":"Unable to prosecute suspect","date":"2025-07"},"persistent_id":"5bfc87076c244755ed355f1824e4504cd6ee4a6104ddc550531654447bbacb51","id":128762214,"location_subtype":"","month":"2025-06"},{"category":"violent-crime","location_type":"Force","location":{"latitude":"51.189722","street":{"id":2046843,"name":"On or near Police Station"},"longitude":"0.270332"},"context":"","outcome_status":{"category":"Unable to prosecute suspect","date":"2025-08"},"persistent_id":"031d43f66c262c6f812e4799b5e4aa528bdea8a21ac7a095290dc3c938ec2e6e","id":128756827,"location_subtype":"","month":"2025-06"},{"category":"violent-crime","location_type":"Force","location":{"latitude":"51.193499","street":{"id":2046946,"name":"On or near Lambert's Yard"},"longitude":"0.272650"},"context":"","outcome_status":{"category":"Offender given a caution","date":"2025-07"},"persistent_id":"7a1e0e00e7b7474a50ad7a55286ace77b2a71e4e8bbe4ee55c686b0af6056f58","id":128759447,"location_subtype":"","month":"2025-06"},{"category":"violent-crime","location_type":"Force","location":{"latitude":"51.192006","street":{"id":2047414,"name":"On or near Morley Road"},"longitude":"0.284198"},"context":"","outcome_status":{"category":"Unable to prosecute suspect","date":"2025-06"},"persistent_id":"63f06fbcc90913c830bd6340cec74d3d5c68a3cd68f94e7ddb81d81268f3d55f","id":128757243,"location_subtype":"","month":"2025-06"},{"category":"violent-crime","location_type":"Force","location":{"latitude":"51.192006","street":{"id":2047414,"name":"On or near Morley Road"},"longitude":"0.284198"},"context":"","outcome_status":{"category":"Unable to prosecute suspect","date":"2025-06"},"persistent_id":"4719b5b0697360c6a6ef76c90a513b4a679d99e22f2ae6dc9a92574f4b8b0c92","id":128757244,"location_subtype":"","month":"2025-06"},{"category":"violent-crime","location_type":"Force","location":{"latitude":"51.194764","street":{"id":2046497,"name":"On or near Barden Park Road"},"longitude":"0.262622"},"context":"","outcome_status":{"category":"Unable to prosecute suspect","date":"2025-06"},"persistent_id":"18bb9f0b274c8bab571ba40d2d438301098cff17a02550dac56134d34e1ac658","id":128758045,"location_subtype":"","month":"2025-06"},{"category":"violent-crime","location_type":"Force","location":{"latitude":"51.191603","street":{"id":2046857,"name":"On or near Tonbridge"},"longitude":"0.270267"},"context":"","outcome_status":{"category":"Status update unavailable","date":"2025-10"},"persistent_id":"f577b0a69d0981f9d688e2c786906adce9182d6f4ba5d14f58161d79385d9bc9","id":129472405,"location_subtype":"","month":"2025-06"},{"category":"violent-crime","location_type":"Force","location":{"latitude":"51.193499","street":{"id":2046946,"name":"On or near Lambert's Yard"},"longitude":"0.272650"},"context":"","outcome_status":{"category":"Local resolution","date":"2025-07"},"persistent_id":"49c9348ab2aa543cdc606ce6e1d0562a66688e955d049ac1ce8900109c7b739c","id":128759445,"location_subtype":"","month":"2025-06"},{"category":"violent-crime","location_type":"Force","location":{"latitude":"51.184559","street":{"id":2046817,"name":"On or near Judd Road"},"longitude":"0.269005"},"context":"","outcome_status":{"category":"Unable to prosecute suspect","date":"2025-06"},"persistent_id":"46c244bb9179cac0e1c8375519853af88b9a528c402b6011cbb6ae6ee3147aa3","id":128763217,"location_subtype":"","month":"2025-06"},{"category":"violent-crime","location_type":"Force","location":{"latitude":"51.198898","street":{"id":2047322,"name":"On or near Mitre Court"},"longitude":"0.281276"},"context":"","outcome_status":{"category":"Unable to prosecute suspect","date":"2025-09"},"persistent_id":"cf9cc876ed2e0ec18d2958488e37da93de9e63e4e6723b2a4e88e41670579d58","id":128764662,"location_subtype":"","month":"2025-06"},{"category":"violent-crime","location_type":"Force","location":{"latitude":"51.189722","street":{"id":2046843,"name":"On or near Police Station"},"longitude":"0.270332"},"context":"","outcome_status":{"category":"Court result unavailable","date":"2025-12"},"persistent_id":"aee570b26df2a7b77bcc6226fb0a05cb85bf7aecadbcf0878712f2b8e5ebb125","id":128764649,"location_subtype":"","month":"2025-06"},{"category":"violent-crime","location_type":"Force","location":{"latitude":"51.190914","street":{"id":2046805,"name":"On or near Wincliff Road"},"longitude":"0.268215"},"context":"","outcome_status":{"category":"Court result unavailable","date":"2025-12"},"persistent_id":"9e87350d98b2b85cb0d6d8935a94c2c1bbb922eadb35762491912da414e8a0f8","id":128764646,"location_subtype":"","month":"2025-06"},{"category":"violent-crime","location_type":"Force","location":{"latitude":"51.193134","street":{"id":2046893,"name":"On or near Parking Area"},"longitude":"0.271115"},"context":"","outcome_status":{"category":"Unable to prosecute suspect","date":"2025-07"},"persistent_id":"8202339267afdd3b21c561fd3cad55f240b8b0b2acb0c2029eafefdef8a08edd","id":128759443,"location_subtype":"","month":"2025-06"},{"category":"violent-crime","location_type":"Force","location":{"latitude":"51.188627","street":{"id":2047568,"name":"On or near Thiepval Drive"},"longitude":"0.291888"},"context":"","outcome_status":{"category":"Unable to prosecute suspect","date":"2025-09"},"persistent_id":"bbff28b114c1524844aed099584e904856a7d0b2840349b9ba421e3b6f028fff","id":128766075,"location_subtype":"","month":"2025-06"},{"category":"violent-crime","location_type":"Force","location":{"latitude":"51.197066","street":{"id":2046871,"name":"On or near Parking Area"},"longitude":"0.270550"},"context":"","outcome_status":{"category":"Unable to prosecute suspect","date":"2025-07"},"persistent_id":"0514e937712e64a3663f3bbb9f6d12abadb383628d77b7244b470b3772ec75fa","id":128758436,"location_subtype":"","month":"2025-06"},{"category":"violent-crime","location_type":"Force","location":{"latitude":"51.194764","street":{"id":2046497,"name":"On or near Barden Park Road"},"longitude":"0.262622"},"context":"","outcome_status":{"category":"Unable to prosecute suspect","date":"2025-07"},"persistent_id":"7859b8f98ec7e82f650ab89b5c52fbb67120adf76100fc0d1fc014cc3c23a431","id":128768758,"location_subtype":"","month":"2025-06"},{"category":"violent-crime","location_type":"Force","location":{"latitude":"51.197066","street":{"id":2046871,"name":"On or near Parking Area"},"longitude":"0.270550"},"context":"","outcome_status":{"category":"Unable to prosecute suspect","date":"2025-07"},"persistent_id":"ebbbf7358de5ffbe946ea0d0bbba0ffc051aa401fc0c7b8d22c2de8a1dd89055","id":128758435,"location_subtype":"","month":"2025-06"},{"category":"violent-crime","location_type":"Force","location":{"latitude":"51.191603","street":{"id":2046857,"name":"On or near Tonbridge"},"longitude":"0.270267"},"context":"","outcome_status":{"category":"Investigation complete; no suspect identified","date":"2025-07"},"persistent_id":"f032c3f9838b90b2f3ea695a6e6b04f41de33b30e47f7bbfddf2829d144f85a8","id":128771190,"location_subtype":"","month":"2025-06"},{"category":"violent-crime","location_type":"Force","location":{"latitude":"51.185574","street":{"id":2047567,"name":"On or near Hops Close"},"longitude":"0.289361"},"context":"","outcome_status":{"category":"Unable to prosecute suspect","date":"2025-06"},"persistent_id":"1470b370ddc202ebc97ad13aadc383290902e1c2280e7d4f465b4d60db25524e","id":128757645,"location_subtype":"","month":"2025-06"},{"category":"violent-crime","location_type":"Force","location":{"latitude":"51.190893","street":{"id":2046851,"name":"On or near Supermarket"},"longitude":"0.270246"},"context":"","outcome_status":{"category":"Status update unavailable","date":"2025-10"},"persistent_id":"f7cb219dfe1a8a2a2c458e10fd1ddb166d43da4511a44ece003c8bbbd692a3f4","id":129801027,"location_subtype":"","month":"2025-06"},{"category":"violent-crime","location_type":"Force","location":{"latitude":"51.190339","street":{"id":2046773,"name":"On or near Lawn Road"},"longitude":"0.267285"},"context":"","outcome_status":{"category":"Unable to prosecute suspect","date":"2025-07"},"persistent_id":"b9429a24371cb0a040e28c7b05fb9f91dd25704e625e94e424d040d475adab0a","id":128750813,"location_subtype":"","month":"2025-06"},{"category":"violent-crime","location_type":"Force","location":{"latitude":"51.186074","street":{"id":2047350,"name":"On or near King's Road"},"longitude":"0.282173"},"context":"","outcome_status":{"category":"Unable to prosecute suspect","date":"2025-09"},"persistent_id":"9d0eb972e94f05c5295162e5f0a03820d8c9d20924cf13b6f6678e2bc43feb50","id":129548086,"location_subtype":"","month":"2025-06"},{"category":"violent-crime","location_type":"Force","location":{"latitude":"51.185066","street":{"id":2047092,"name":"On or near Taylor Close"},"longitude":"0.275298"},"context":"","outcome_status":{"category":"Status update unavailable","date":"2025-10"},"persistent_id":"c1ee6ba82de00d7a7fdd634eb6e90e711b9afab57c61a74afe448383767596d3","id":128761155,"location_subtype":"","month":"2025-06"},{"category":"violent-crime","location_type":"Force","location":{"latitude":"51.189925","street":{"id":2046938,"name":"On or near Priory Walk"},"longitude":"0.271945"},"context":"","outcome_status":{"category":"Awaiting court outcome","date":"2026-01"},"persistent_id":"da5e62e21f96a0cde3fa47ab0186d3a5a9d2db227ea82b2ed515de47aa960b3f","id":128761154,"location_subtype":"","month":"2025-06"},{"category":"violent-crime","location_type":"Force","location":{"latitude":"51.197066","street":{"id":2046871,"name":"On or near Parking Area"},"longitude":"0.270550"},"context":"","outcome_status":{"category":"Offender given a caution","date":"2025-10"},"persistent_id":"120cd4863f8e83728ab90165178d7f970c905d7ab083c753fefda43b9e759ed0","id":128755398,"location_subtype":"","month":"2025-06"},{"category":"violent-crime","location_type":"Force","location":{"latitude":"51.193499","street":{"id":2046946,"name":"On or near Lambert's Yard"},"longitude":"0.272650"},"context":"","outcome_status":{"category":"Unable to prosecute suspect","date":"2025-08"},"persistent_id":"ebc86cd34e5f6030d318f75d72d71409504b055cf558054a9373ed22903ebad3","id":128751766,"location_subtype":"","month":"2025-06"},{"category":"violent-crime","location_type":"Force","location":{"latitude":"51.182627","street":{"id":2047266,"name":"On or near Vauxhall Gardens"},"longitude":"0.280458"},"context":"","outcome_status":{"category":"Unable to prosecute suspect","date":"2025-06"},"persistent_id":"884e9ec29c5439376c69af3d9ac04000c6897b64f23e46f4dc06113d448f0c19","id":128754984,"location_subtype":"","month":"2025-06"},{"category":"violent-crime","location_type":"Force","location":{"latitude":"51.197781","street":{"id":2047430,"name":"On or near Supermarket"},"longitude":"0.284282"},"context":"","outcome_status":{"category":"Action to be taken by another organisation","date":"2025-07"},"persistent_id":"312b8ad4c4c9e08dfc53a9b924928a32cc64146c5d09803bce90d74311ce7317","id":128751772,"location_subtype":"","month":"2025-06"},{"category":"violent-crime","location_type":"Force","location":{"latitude":"51.195587","street":{"id":2046391,"name":"On or near Ives Road"},"longitude":"0.259112"},"context":"","outcome_status":{"category":"Unable to prosecute suspect","date":"2025-06"},"persistent_id":"22031f655860214f6700c9d849e4f0c82dee6205a54340e30c8efc1f702faffa","id":128756429,"location_subtype":"","month":"2025-06"},{"category":"violent-crime","location_type":"Force","location":{"latitude":"51.188585","street":{"id":2046823,"name":"On or near Waterloo Place"},"longitude":"0.268673"},"context":"","outcome_status":{"category":"Investigation complete; no suspect identified","date":"2025-06"},"persistent_id":"871408ef1cef3b7df53e3056eee2b32da5c5a104d9dbc7e3cb561c43106b13b6","id":128756433,"location_subtype":"","month":"2025-06"},{"category":"violent-crime","location_type":"Force","location":{"latitude":"51.189722","street":{"id":2046843,"name":"On or near Police Station"},"longitude":"0.270332"},"context":"","outcome_status":{"category":"Unable to prosecute suspect","date":"2025-06"},"persistent_id":"2d270c06d149fe9b018f2b2a634bc6ba9829ec860bdaf70e2e890ede24c04d56","id":128756434,"location_subtype":"","month":"2025-06"},{"category":"other-crime","location_type":"Force","location":{"latitude":"51.194750","street":{"id":2046991,"name":"On or near Parking Area"},"longitude":"0.273070"},"context":"","outcome_status":{"category":"Unable to prosecute suspect","date":"2025-06"},"persistent_id":"dad1a001b2d4ced24ef259ff20735266a296d70df5a426c6245730a2dba352cb","id":128753194,"location_subtype":"","month":"2025-06"},{"category":"other-crime","location_type":"Force","location":{"latitude":"51.184387","street":{"id":2046483,"name":"On or near Westrise"},"longitude":"0.261627"},"context":"","outcome_status":{"category":"Unable to prosecute suspect","date":"2025-07"},"persistent_id":"07d8451bbeda54b7466a91047dc966d61600aefee729d4c7639264baba3d0ce9","id":128769508,"location_subtype":"","month":"2025-06"},{"category":"other-crime","location_type":"Force","location":{"latitude":"51.196642","street":{"id":2047101,"name":"On or near High Street"},"longitude":"0.275224"},"context":"","outcome_status":{"category":"Unable to prosecute suspect","date":"2025-06"},"persistent_id":"4f0124abc897251866471692d96cebd5eb8bd5c7fe97169773ae42cc96ef07aa","id":128758305,"location_subtype":"","month":"2025-06"},{"category":"other-crime","location_type":"Force","location":{"latitude":"51.194176","street":{"id":2047113,"name":"On or near Supermarket"},"longitude":"0.275761"},"context":"","outcome_status":{"category":"Investigation complete; no suspect identified","date":"2025-07"},"persistent_id":"f1077ab9627865ec3996bab43cff205ca728daa74e53f1dc421932893b42c9ce","id":128756282,"location_subtype":"","month":"2025-06"},{"category":"other-crime","location_type":"Force","location":{"latitude":"51.189722","street":{"id":2046843,"name":"On or near Police Station"},"longitude":"0.270332"},"context":"","outcome_status":{"category":"Unable to prosecute suspect","date":"2025-06"},"persistent_id":"4e1bc8790617287da87d96f48a0e661d3471d4e5360dc80cd399e624d29300fb","id":128764077,"location_subtype":"","month":"2025-06"},{"category":"other-crime","location_type":"Force","location":{"latitude":"51.200016","street":{"id":2047165,"name":"On or near Keswick Close"},"longitude":"0.278411"},"context":"","outcome_status":{"category":"Status update unavailable","date":"2025-10"},"persistent_id":"d3f69e90d8dbdb7be08fbe4d42c46723df1d24e52e7e3c8c13669038a93ea92b","id":128761793,"location_subtype":"","month":"2025-06"}]