[{"category":"criminal-damage-arson","location_type":"Force","location":{"latitude":"50.481555","street":{"id":1781225,"name":"On or near Merrifield Road"},"longitude":"-3.786663"},"context":"","outcome_status":{"category":"Investigation complete; no suspect identified","date":"2025-10"},"persistent_id":"0896b8a46c78d7989b1fb072ec14424c95f0e27a301dbfa913408e78750d01f3","id":130555997,"location_subtype":"","month":"2025-08"},{"category":"criminal-damage-arson","location_type":"Force","location":{"latitude":"50.480616","street":{"id":1781304,"name":"On or near New Road"},"longitude":"-3.781018"},"context":"","outcome_status":{"category":"Unable to prosecute suspect","date":"2025-09"},"persistent_id":"cb8f7f188b2efc9e296adb65770d5279621b4ea592f8f2f0c059c28cae15fe65","id":130567489,"location_subtype":"","month":"2025-08"},{"category":"criminal-damage-arson","location_type":"Force","location":{"latitude":"50.480111","street":{"id":1781272,"name":"On or near Parking Area"},"longitude":"-3.779350"},"context":"","outcome_status":{"category":"Investigation complete; no suspect identified","date":"2025-08"},"persistent_id":"fdd9c98e749a179ccfb1d330fdd6455463db15316420a608c85130ae11cb6c8e","id":130572522,"location_subtype":"","month":"2025-08"},{"category":"criminal-damage-arson","location_type":"Force","location":{"latitude":"50.481846","street":{"id":1781264,"name":"On or near Market Street"},"longitude":"-3.782911"},"context":"","outcome_status":{"category":"Investigation complete; no suspect identified","date":"2025-09"},"persistent_id":"9d99184777d036bc5dadb4541c7faeef1e1cf7346f462486dbfb24da73ab984e","id":130556823,"location_subtype":"","month":"2025-08"},{"category":"criminal-damage-arson","location_type":"Force","location":{"latitude":"50.481846","street":{"id":1781264,"name":"On or near Market Street"},"longitude":"-3.782911"},"context":"","outcome_status":{"category":"Investigation complete; no suspect identified","date":"2025-08"},"persistent_id":"68dd59ca52005c7dcb81ad91fec0cac4d22c457963c0d26d62a0b5eb1237d719","id":130557433,"location_subtype":"","month":"2025-08"},{"category":"other-theft","location_type":"Force","location":{"latitude":"50.481021","street":{"id":1781343,"name":"On or near Parking Area"},"longitude":"-3.778651"},"context":"","outcome_status":{"category":"Investigation complete; no suspect identified","date":"2025-08"},"persistent_id":"4ee3c80793309a65b0fc4abc6f6b0ed896ee31a1dfbf319e5d78b79bdf4c8e28","id":130560438,"location_subtype":"","month":"2025-08"},{"category":"other-theft","location_type":"Force","location":{"latitude":"50.482131","street":{"id":1781332,"name":"On or near Mardle Way"},"longitude":"-3.779581"},"context":"","outcome_status":{"category":"Investigation complete; no suspect identified","date":"2025-11"},"persistent_id":"61e2cd8120f37d75dcb6b61c114fc5e0e1020676ead9df94c86c9060a992bd69","id":130557826,"location_subtype":"","month":"2025-08"},{"category":"other-theft","location_type":"Force","location":{"latitude":"50.494297","street":{"id":1781324,"name":"On or near Northwood Lane"},"longitude":"-3.777416"},"context":"","outcome_status":{"category":"Investigation complete; no suspect identified","date":"2025-08"},"persistent_id":"8bc457987390664d54c5e5898eef61c589b70c3af05eeed311a50d4d70e88b0b","id":130568274,"location_subtype":"","month":"2025-08"},{"category":"possession-of-weapons","location_type":"Force","location":{"latitude":"50.481846","street":{"id":1781264,"name":"On or near Market Street"},"longitude":"-3.782911"},"context":"","outcome_status":{"category":"Awaiting court outcome","date":"2025-08"},"persistent_id":"121d659d0611a2019ad42dfb3f49ba6641c93892a4a003c2c0bae6ba40df6c23","id":130563577,"location_subtype":"","month":"2025-08"},{"category":"public-order","location_type":"Force","location":{"latitude":"50.481846","street":{"id":1781264,"name":"On or near Market Street"},"longitude":"-3.782911"},"context":"","outcome_status":{"category":"Status update unavailable","date":"2025-12"},"persistent_id":"da09f0e4025d0047285e0a8dc96c5be29d181eccba0cf7ee63c38334e60cf7b1","id":130556883,"location_subtype":"","month":"2025-08"},{"category":"public-order","location_type":"Force","location":{"latitude":"50.481967","street":{"id":1781399,"name":"On or near Petrol Station"},"longitude":"-3.772034"},"context":"","outcome_status":{"category":"Awaiting court outcome","date":"2025-08"},"persistent_id":"b33dc13c6916007a10b863dc01b8389b642b00cf312ee84d0858d12ae0a52dac","id":130574980,"location_subtype":"","month":"2025-08"},{"category":"violent-crime","location_type":"Force","location":{"latitude":"50.480819","street":{"id":1781422,"name":"On or near The Orchard"},"longitude":"-3.773020"},"context":"","outcome_status":{"category":"Unable to prosecute suspect","date":"2025-08"},"persistent_id":"e5611bba8bffe631abd28aefd3768bfec67f97355610597aaed9a52e13ceead6","id":130570986,"location_subtype":"","month":"2025-08"},{"category":"violent-crime","location_type":"Force","location":{"latitude":"50.481021","street":{"id":1781343,"name":"On or near Parking Area"},"longitude":"-3.778651"},"context":"","outcome_status":{"category":"Investigation complete; no suspect identified","date":"2025-08"},"persistent_id":"2bd08a9ed95d256adc584bb82a4ea53797410618557a1acade8614ce5da9a75d","id":130570919,"location_subtype":"","month":"2025-08"},{"category":"violent-crime","location_type":"Force","location":{"latitude":"50.481846","street":{"id":1781264,"name":"On or near Market Street"},"longitude":"-3.782911"},"context":"","outcome_status":{"category":"Investigation complete; no suspect identified","date":"2025-08"},"persistent_id":"588c5f7b0f470776bc580e9ffaae97bfd17c1eef13c33b8e78752d59093dcf09","id":130573612,"location_subtype":"","month":"2025-08"},{"category":"violent-crime","location_type":"Force","location":{"latitude":"50.483388","street":{"id":1781289,"name":"On or near Church Street"},"longitude":"-3.782645"},"context":"","outcome_status":{"category":"Status update unavailable","date":"2025-12"},"persistent_id":"0f386e032ea6fa0ac3e092866e97714b21e9f5549fb1813ec1db431b73001169","id":130567893,"location_subtype":"","month":"2025-08"},{"category":"violent-crime","location_type":"Force","location":{"latitude":"50.484460","street":{"id":1781490,"name":"On or near Dartbridge Road"},"longitude":"-3.770745"},"context":"","outcome_status":{"category":"Unable to prosecute suspect","date":"2025-08"},"persistent_id":"20fa3984ea244d0d65ecc31af5d6a68ee97b081eb330505281accfffea18efec","id":130576966,"location_subtype":"","month":"2025-08"},{"category":"violent-crime","location_type":"Force","location":{"latitude":"50.480616","street":{"id":1781304,"name":"On or near New Road"},"longitude":"-3.781018"},"context":"","outcome_status":{"category":"Unable to prosecute suspect","date":"2025-09"},"persistent_id":"037e0ba62894ff580a384d6a66c821143297f8c196b7c8b14b96b63a5f0b7463","id":130566961,"location_subtype":"","month":"2025-08"},{"category":"violent-crime","location_type":"Force","location":{"latitude":"50.480616","street":{"id":1781304,"name":"On or near New Road"},"longitude":"-3.781018"},"context":"","outcome_status":{"category":"Unable to prosecute suspect","date":"2026-01"},"persistent_id":"c10ee047a8286f7f22998d80e2bab3fd3ae3c9766bc6a9e398005ef8bd56add1","id":130567184,"location_subtype":"","month":"2025-08"},{"category":"violent-crime","location_type":"Force","location":{"latitude":"50.483305","street":{"id":1781256,"name":"On or near Silver Street"},"longitude":"-3.783938"},"context":"","outcome_status":{"category":"Unable to prosecute suspect","date":"2025-09"},"persistent_id":"bc6eed60b323d434eabb70586e8366c28392f06a6b6796e7b91b2df9323f82e0","id":130558238,"location_subtype":"","month":"2025-08"},{"category":"violent-crime","location_type":"Force","location":{"latitude":"50.481243","street":{"id":1781342,"name":"On or near Supermarket"},"longitude":"-3.779407"},"context":"","outcome_status":{"category":"Unable to prosecute suspect","date":"2025-09"},"persistent_id":"80efe1143282c8b42c52bc71a908b8e780bad7ed813834b8338645a8c9cdda75","id":130561966,"location_subtype":"","month":"2025-08"},{"category":"violent-crime","location_type":"Force","location":{"latitude":"50.487697","street":{"id":1781477,"name":"On or near A384"},"longitude":"-3.769048"},"context":"","outcome_status":{"category":"Unable to prosecute suspect","date":"2025-09"},"persistent_id":"15d6e3de30dbd3cc377b8ff0ad0266c2449533ed211449c16abc42f974ac5f02","id":130560670,"location_subtype":"","month":"2025-08"}]