[{"category":"anti-social-behaviour","location_type":"Force","location":{"latitude":"50.103510","street":{"id":1764926,"name":"On or near Sanctuary Lane"},"longitude":"-5.268642"},"context":"","outcome_status":null,"persistent_id":"","id":127491912,"location_subtype":"","month":"2025-04"},{"category":"anti-social-behaviour","location_type":"Force","location":{"latitude":"50.100014","street":{"id":1764754,"name":"On or near Parking Area"},"longitude":"-5.279033"},"context":"","outcome_status":null,"persistent_id":"","id":127491480,"location_subtype":"","month":"2025-04"},{"category":"anti-social-behaviour","location_type":"Force","location":{"latitude":"50.113318","street":{"id":1764885,"name":"On or near Chytroose Close"},"longitude":"-5.266652"},"context":"","outcome_status":null,"persistent_id":"","id":127491234,"location_subtype":"","month":"2025-04"},{"category":"anti-social-behaviour","location_type":"Force","location":{"latitude":"50.102629","street":{"id":1764804,"name":"On or near Willows Mews"},"longitude":"-5.275337"},"context":"","outcome_status":null,"persistent_id":"","id":127491232,"location_subtype":"","month":"2025-04"},{"category":"anti-social-behaviour","location_type":"Force","location":{"latitude":"50.101470","street":{"id":1764905,"name":"On or near Kingsley Way"},"longitude":"-5.269524"},"context":"","outcome_status":null,"persistent_id":"","id":127492255,"location_subtype":"","month":"2025-04"},{"category":"anti-social-behaviour","location_type":"Force","location":{"latitude":"50.101470","street":{"id":1764905,"name":"On or near Kingsley Way"},"longitude":"-5.269524"},"context":"","outcome_status":null,"persistent_id":"","id":127493016,"location_subtype":"","month":"2025-04"},{"category":"criminal-damage-arson","location_type":"Force","location":{"latitude":"50.101292","street":{"id":1764776,"name":"On or near Champion's Court"},"longitude":"-5.277736"},"context":"","outcome_status":{"category":"Further investigation is not in the public interest","date":"2025-05"},"persistent_id":"31bf28e2eac1a02e0e517c1f035ad064a805b50675777f80f9192cbddf3476a1","id":127487976,"location_subtype":"","month":"2025-04"},{"category":"criminal-damage-arson","location_type":"Force","location":{"latitude":"50.100669","street":{"id":1764815,"name":"On or near Angel Place"},"longitude":"-5.274952"},"context":"","outcome_status":{"category":"Investigation complete; no suspect identified","date":"2025-04"},"persistent_id":"6b0573698e884449e1e3d3879f621f3cf770e9c7999eda23732eb9c6c59c5b08","id":127490642,"location_subtype":"","month":"2025-04"},{"category":"criminal-damage-arson","location_type":"Force","location":{"latitude":"50.100014","street":{"id":1764754,"name":"On or near Parking Area"},"longitude":"-5.279033"},"context":"","outcome_status":{"category":"Investigation complete; no suspect identified","date":"2025-04"},"persistent_id":"55088751ea37355bed8ced925e43f44873ff46a58b8ab3cbaba6ba5917daf5cf","id":127485304,"location_subtype":"","month":"2025-04"},{"category":"criminal-damage-arson","location_type":"Force","location":{"latitude":"50.098032","street":{"id":1764758,"name":"On or near Park Crescent"},"longitude":"-5.278198"},"context":"","outcome_status":{"category":"Investigation complete; no suspect identified","date":"2025-04"},"persistent_id":"e6c5c551e0a58b9afdff020392b285883b87ce653b6ca90637609b9070d501c1","id":127487721,"location_subtype":"","month":"2025-04"},{"category":"drugs","location_type":"Force","location":{"latitude":"50.100691","street":{"id":1764783,"name":"On or near Coinagehall Street"},"longitude":"-5.275471"},"context":"","outcome_status":{"category":"Status update unavailable","date":"2025-08"},"persistent_id":"fad859ce5d2e5a53d7842ac4881493fa53f02226f8aa771635b238fac335aa4b","id":127491096,"location_subtype":"","month":"2025-04"},{"category":"drugs","location_type":"Force","location":{"latitude":"50.112439","street":{"id":1764810,"name":"On or near Parc An Gew"},"longitude":"-5.274217"},"context":"","outcome_status":{"category":"Investigation complete; no suspect identified","date":"2025-04"},"persistent_id":"d99d9009cabf3552f4675f4e880aeac2b961fb5e347549334217bf6ed36944cd","id":127490327,"location_subtype":"","month":"2025-04"},{"category":"other-theft","location_type":"Force","location":{"latitude":"50.101034","street":{"id":1764826,"name":"On or near Market Place"},"longitude":"-5.274138"},"context":"","outcome_status":{"category":"Unable to prosecute suspect","date":"2025-04"},"persistent_id":"d310531a9dbce754b469ae781b263743699da8a2445e7657bcfa5242aa6891a3","id":127485344,"location_subtype":"","month":"2025-04"},{"category":"shoplifting","location_type":"Force","location":{"latitude":"50.101053","street":{"id":1764779,"name":"On or near Lady Street"},"longitude":"-5.277300"},"context":"","outcome_status":{"category":"Investigation complete; no suspect identified","date":"2025-05"},"persistent_id":"fc73de586e214b94dafa33da60bfce798c54644bed777af7602147bae727db4b","id":127485847,"location_subtype":"","month":"2025-04"},{"category":"violent-crime","location_type":"Force","location":{"latitude":"50.103510","street":{"id":1764926,"name":"On or near Sanctuary Lane"},"longitude":"-5.268642"},"context":"","outcome_status":{"category":"Unable to prosecute suspect","date":"2025-04"},"persistent_id":"c480cf523a6815eb9a71f394e3234bcd25a0bcda7609c7976f05ad91e23e3793","id":127482676,"location_subtype":"","month":"2025-04"},{"category":"violent-crime","location_type":"Force","location":{"latitude":"50.111123","street":{"id":1764959,"name":"On or near Trenethick Parc"},"longitude":"-5.266027"},"context":"","outcome_status":{"category":"Investigation complete; no suspect identified","date":"2025-04"},"persistent_id":"23cdaa2a0d4efa8d2b5ab9e420fab0727c1a941d22ecdceb03ae90891bba3552","id":127489908,"location_subtype":"","month":"2025-04"},{"category":"violent-crime","location_type":"Force","location":{"latitude":"50.106853","street":{"id":1764897,"name":"On or near Cunnack Close"},"longitude":"-5.269751"},"context":"","outcome_status":{"category":"Unable to prosecute suspect","date":"2025-11"},"persistent_id":"825388b2c260b61f2aa0ce0e1d549db5d8d37465fc52edf1ad530521a984e710","id":127485105,"location_subtype":"","month":"2025-04"},{"category":"violent-crime","location_type":"Force","location":{"latitude":"50.099302","street":{"id":1764828,"name":"On or near Penview Crescent"},"longitude":"-5.273684"},"context":"","outcome_status":{"category":"Unable to prosecute suspect","date":"2025-05"},"persistent_id":"f749caf2c57b8ef25c2146bafdcc894901c409f9b34073bd9f95a695fd00e51c","id":127483149,"location_subtype":"","month":"2025-04"},{"category":"violent-crime","location_type":"Force","location":{"latitude":"50.096069","street":{"id":1764566,"name":"On or near Porthleven Road"},"longitude":"-5.284595"},"context":"","outcome_status":{"category":"Unable to prosecute suspect","date":"2025-05"},"persistent_id":"5c05fade801a4dcc315f590a2e5f196f733129ac90ea3058ffc21925d1a3bc56","id":127486794,"location_subtype":"","month":"2025-04"},{"category":"violent-crime","location_type":"Force","location":{"latitude":"50.101079","street":{"id":1764773,"name":"On or near Almshouse Hill"},"longitude":"-5.277973"},"context":"","outcome_status":{"category":"Unable to prosecute suspect","date":"2025-05"},"persistent_id":"51fa0fc9a95630b4171ea2c7bac94bb49b581c02edbea02031acb5a6828aa2be","id":127485430,"location_subtype":"","month":"2025-04"},{"category":"violent-crime","location_type":"Force","location":{"latitude":"50.112658","street":{"id":1764790,"name":"On or near Nanscober Place"},"longitude":"-5.276036"},"context":"","outcome_status":{"category":"Status update unavailable","date":"2025-08"},"persistent_id":"bf28bdbc7a821e0229e2a3f5ebbe7a8a1067fe8765e5178df0c795db946c9832","id":127481067,"location_subtype":"","month":"2025-04"},{"category":"violent-crime","location_type":"Force","location":{"latitude":"50.106853","street":{"id":1764897,"name":"On or near Cunnack Close"},"longitude":"-5.269751"},"context":"","outcome_status":{"category":"Unable to prosecute suspect","date":"2025-04"},"persistent_id":"9aeab4f7518e4f58992fb5181df7d1d050c3c431c3d2d72dea7578fa51f84d30","id":127487397,"location_subtype":"","month":"2025-04"},{"category":"other-crime","location_type":"Force","location":{"latitude":"50.099381","street":{"id":1764756,"name":"On or near Shopping Area"},"longitude":"-5.279435"},"context":"","outcome_status":{"category":"Further investigation is not in the public interest","date":"2025-05"},"persistent_id":"c202c25de2a370221b35b7bd92dc281f1808c35ff23c3d8ff52d217b39b064f6","id":127482036,"location_subtype":"","month":"2025-04"}]