[{"category":"anti-social-behaviour","location_type":"Force","location":{"latitude":"54.555424","street":{"id":2341688,"name":"On or near Teesside Shopping Park"},"longitude":"-1.274202"},"context":"","outcome_status":null,"persistent_id":"","id":127816102,"location_subtype":"","month":"2025-04"},{"category":"anti-social-behaviour","location_type":"Force","location":{"latitude":"54.554928","street":{"id":2071548,"name":"On or near A1032"},"longitude":"-1.261981"},"context":"","outcome_status":null,"persistent_id":"","id":127816487,"location_subtype":"","month":"2025-04"},{"category":"anti-social-behaviour","location_type":"Force","location":{"latitude":"54.557959","street":{"id":2341813,"name":"On or near Knights Square"},"longitude":"-1.265328"},"context":"","outcome_status":null,"persistent_id":"","id":127814559,"location_subtype":"","month":"2025-04"},{"category":"anti-social-behaviour","location_type":"Force","location":{"latitude":"54.552859","street":{"id":2071571,"name":"On or near Balfour Terrace"},"longitude":"-1.261693"},"context":"","outcome_status":null,"persistent_id":"","id":127814562,"location_subtype":"","month":"2025-04"},{"category":"anti-social-behaviour","location_type":"Force","location":{"latitude":"54.555429","street":{"id":2071535,"name":"On or near Kirby Avenue"},"longitude":"-1.263116"},"context":"","outcome_status":null,"persistent_id":"","id":127814563,"location_subtype":"","month":"2025-04"},{"category":"anti-social-behaviour","location_type":"Force","location":{"latitude":"54.550652","street":{"id":2071506,"name":"On or near Pannell Avenue"},"longitude":"-1.263790"},"context":"","outcome_status":null,"persistent_id":"","id":127814564,"location_subtype":"","month":"2025-04"},{"category":"anti-social-behaviour","location_type":"Force","location":{"latitude":"54.549582","street":{"id":2072278,"name":"On or near Newham Avenue"},"longitude":"-1.243247"},"context":"","outcome_status":null,"persistent_id":"","id":127814567,"location_subtype":"","month":"2025-04"},{"category":"anti-social-behaviour","location_type":"Force","location":{"latitude":"54.536989","street":{"id":2071668,"name":"On or near Sherburn Close"},"longitude":"-1.257405"},"context":"","outcome_status":null,"persistent_id":"","id":127814570,"location_subtype":"","month":"2025-04"},{"category":"anti-social-behaviour","location_type":"Force","location":{"latitude":"54.550119","street":{"id":2072862,"name":"On or near Sutton Way"},"longitude":"-1.231611"},"context":"","outcome_status":null,"persistent_id":"","id":127815291,"location_subtype":"","month":"2025-04"},{"category":"anti-social-behaviour","location_type":"Force","location":{"latitude":"54.553078","street":{"id":2071744,"name":"On or near Kirkgate Road"},"longitude":"-1.254825"},"context":"","outcome_status":null,"persistent_id":"","id":127815303,"location_subtype":"","month":"2025-04"},{"category":"anti-social-behaviour","location_type":"Force","location":{"latitude":"54.563655","street":{"id":2072127,"name":"On or near Brompton Street"},"longitude":"-1.244703"},"context":"","outcome_status":null,"persistent_id":"","id":127815307,"location_subtype":"","month":"2025-04"},{"category":"anti-social-behaviour","location_type":"Force","location":{"latitude":"54.561639","street":{"id":2071985,"name":"On or near Latham Road"},"longitude":"-1.248421"},"context":"","outcome_status":null,"persistent_id":"","id":127815309,"location_subtype":"","month":"2025-04"},{"category":"anti-social-behaviour","location_type":"Force","location":{"latitude":"54.536113","street":{"id":2071702,"name":"On or near Earlsdon Avenue"},"longitude":"-1.256726"},"context":"","outcome_status":null,"persistent_id":"","id":127815317,"location_subtype":"","month":"2025-04"},{"category":"anti-social-behaviour","location_type":"Force","location":{"latitude":"54.550119","street":{"id":2072862,"name":"On or near Sutton Way"},"longitude":"-1.231611"},"context":"","outcome_status":null,"persistent_id":"","id":127814815,"location_subtype":"","month":"2025-04"},{"category":"anti-social-behaviour","location_type":"Force","location":{"latitude":"54.557249","street":{"id":2341812,"name":"On or near Queensbury Grove"},"longitude":"-1.266902"},"context":"","outcome_status":null,"persistent_id":"","id":127814817,"location_subtype":"","month":"2025-04"},{"category":"anti-social-behaviour","location_type":"Force","location":{"latitude":"54.555388","street":{"id":2071501,"name":"On or near Bruce Avenue"},"longitude":"-1.265235"},"context":"","outcome_status":null,"persistent_id":"","id":127814818,"location_subtype":"","month":"2025-04"},{"category":"anti-social-behaviour","location_type":"Force","location":{"latitude":"54.557178","street":{"id":2071846,"name":"On or near Rockliffe Road"},"longitude":"-1.250884"},"context":"","outcome_status":null,"persistent_id":"","id":127814820,"location_subtype":"","month":"2025-04"},{"category":"anti-social-behaviour","location_type":"Force","location":{"latitude":"54.556006","street":{"id":2071735,"name":"On or near Oxford Road"},"longitude":"-1.254586"},"context":"","outcome_status":null,"persistent_id":"","id":127814821,"location_subtype":"","month":"2025-04"},{"category":"anti-social-behaviour","location_type":"Force","location":{"latitude":"54.549587","street":{"id":2072611,"name":"On or near Beverley Road"},"longitude":"-1.234048"},"context":"","outcome_status":null,"persistent_id":"","id":127817725,"location_subtype":"","month":"2025-04"},{"category":"anti-social-behaviour","location_type":"Force","location":{"latitude":"54.549587","street":{"id":2072611,"name":"On or near Beverley Road"},"longitude":"-1.234048"},"context":"","outcome_status":null,"persistent_id":"","id":127817724,"location_subtype":"","month":"2025-04"},{"category":"anti-social-behaviour","location_type":"Force","location":{"latitude":"54.549587","street":{"id":2072611,"name":"On or near Beverley Road"},"longitude":"-1.234048"},"context":"","outcome_status":null,"persistent_id":"","id":127815778,"location_subtype":"","month":"2025-04"},{"category":"anti-social-behaviour","location_type":"Force","location":{"latitude":"54.550119","street":{"id":2072862,"name":"On or near Sutton Way"},"longitude":"-1.231611"},"context":"","outcome_status":null,"persistent_id":"","id":127815777,"location_subtype":"","month":"2025-04"},{"category":"anti-social-behaviour","location_type":"Force","location":{"latitude":"54.537518","street":{"id":2071655,"name":"On or near Brusselton Close"},"longitude":"-1.258709"},"context":"","outcome_status":null,"persistent_id":"","id":127817504,"location_subtype":"","month":"2025-04"},{"category":"anti-social-behaviour","location_type":"Force","location":{"latitude":"54.536327","street":{"id":2071696,"name":"On or near Partridge Avenue"},"longitude":"-1.256583"},"context":"","outcome_status":null,"persistent_id":"","id":127817745,"location_subtype":"","month":"2025-04"},{"category":"anti-social-behaviour","location_type":"Force","location":{"latitude":"54.536113","street":{"id":2071702,"name":"On or near Earlsdon Avenue"},"longitude":"-1.256726"},"context":"","outcome_status":null,"persistent_id":"","id":127817746,"location_subtype":"","month":"2025-04"},{"category":"anti-social-behaviour","location_type":"Force","location":{"latitude":"54.551711","street":{"id":2071802,"name":"On or near Westgate Road"},"longitude":"-1.253226"},"context":"","outcome_status":null,"persistent_id":"","id":127815783,"location_subtype":"","month":"2025-04"},{"category":"anti-social-behaviour","location_type":"Force","location":{"latitude":"54.555424","street":{"id":2341688,"name":"On or near Teesside Shopping Park"},"longitude":"-1.274202"},"context":"","outcome_status":null,"persistent_id":"","id":127816103,"location_subtype":"","month":"2025-04"},{"category":"anti-social-behaviour","location_type":"Force","location":{"latitude":"54.559079","street":{"id":2072120,"name":"On or near Windsor Road"},"longitude":"-1.244401"},"context":"","outcome_status":null,"persistent_id":"","id":127816731,"location_subtype":"","month":"2025-04"},{"category":"anti-social-behaviour","location_type":"Force","location":{"latitude":"54.559477","street":{"id":2071590,"name":"On or near Nesham Avenue"},"longitude":"-1.260801"},"context":"","outcome_status":null,"persistent_id":"","id":127816020,"location_subtype":"","month":"2025-04"},{"category":"anti-social-behaviour","location_type":"Force","location":{"latitude":"54.549790","street":{"id":2071515,"name":"On or near Croft Avenue"},"longitude":"-1.263991"},"context":"","outcome_status":null,"persistent_id":"","id":127816029,"location_subtype":"","month":"2025-04"},{"category":"anti-social-behaviour","location_type":"Force","location":{"latitude":"54.560923","street":{"id":2072174,"name":"On or near Brompton Road"},"longitude":"-1.244584"},"context":"","outcome_status":null,"persistent_id":"","id":127816957,"location_subtype":"","month":"2025-04"},{"category":"anti-social-behaviour","location_type":"Force","location":{"latitude":"54.551969","street":{"id":2071471,"name":"On or near Guthrie Avenue"},"longitude":"-1.267569"},"context":"","outcome_status":null,"persistent_id":"","id":127817225,"location_subtype":"","month":"2025-04"},{"category":"anti-social-behaviour","location_type":"Force","location":{"latitude":"54.559593","street":{"id":2071708,"name":"On or near Burlam Road"},"longitude":"-1.254721"},"context":"","outcome_status":null,"persistent_id":"","id":127817226,"location_subtype":"","month":"2025-04"},{"category":"anti-social-behaviour","location_type":"Force","location":{"latitude":"54.545477","street":{"id":2341700,"name":"On or near Coniston Shops"},"longitude":"-1.258132"},"context":"","outcome_status":null,"persistent_id":"","id":127816961,"location_subtype":"","month":"2025-04"},{"category":"anti-social-behaviour","location_type":"Force","location":{"latitude":"54.545477","street":{"id":2341700,"name":"On or near Coniston Shops"},"longitude":"-1.258132"},"context":"","outcome_status":null,"persistent_id":"","id":127811048,"location_subtype":"","month":"2025-04"},{"category":"anti-social-behaviour","location_type":"Force","location":{"latitude":"54.546731","street":{"id":2072872,"name":"On or near Hoylake Road"},"longitude":"-1.230191"},"context":"","outcome_status":null,"persistent_id":"","id":127810797,"location_subtype":"","month":"2025-04"},{"category":"anti-social-behaviour","location_type":"Force","location":{"latitude":"54.549587","street":{"id":2072611,"name":"On or near Beverley Road"},"longitude":"-1.234048"},"context":"","outcome_status":null,"persistent_id":"","id":127810798,"location_subtype":"","month":"2025-04"},{"category":"anti-social-behaviour","location_type":"Force","location":{"latitude":"54.563082","street":{"id":2071978,"name":"On or near Addison Road"},"longitude":"-1.247915"},"context":"","outcome_status":null,"persistent_id":"","id":127810803,"location_subtype":"","month":"2025-04"},{"category":"anti-social-behaviour","location_type":"Force","location":{"latitude":"54.558847","street":{"id":2071683,"name":"On or near Garden Court"},"longitude":"-1.257781"},"context":"","outcome_status":null,"persistent_id":"","id":127810804,"location_subtype":"","month":"2025-04"},{"category":"anti-social-behaviour","location_type":"Force","location":{"latitude":"54.554731","street":{"id":2072616,"name":"On or near Beech Grove Road"},"longitude":"-1.237446"},"context":"","outcome_status":null,"persistent_id":"","id":127810808,"location_subtype":"","month":"2025-04"},{"category":"anti-social-behaviour","location_type":"Force","location":{"latitude":"54.541950","street":{"id":2071664,"name":"On or near Elwick Avenue"},"longitude":"-1.257439"},"context":"","outcome_status":null,"persistent_id":"","id":127810811,"location_subtype":"","month":"2025-04"},{"category":"anti-social-behaviour","location_type":"Force","location":{"latitude":"54.536113","street":{"id":2071702,"name":"On or near Earlsdon Avenue"},"longitude":"-1.256726"},"context":"","outcome_status":null,"persistent_id":"","id":127810813,"location_subtype":"","month":"2025-04"},{"category":"anti-social-behaviour","location_type":"Force","location":{"latitude":"54.549587","street":{"id":2072611,"name":"On or near Beverley Road"},"longitude":"-1.234048"},"context":"","outcome_status":null,"persistent_id":"","id":127810539,"location_subtype":"","month":"2025-04"},{"category":"anti-social-behaviour","location_type":"Force","location":{"latitude":"54.558847","street":{"id":2071683,"name":"On or near Garden Court"},"longitude":"-1.257781"},"context":"","outcome_status":null,"persistent_id":"","id":127810545,"location_subtype":"","month":"2025-04"},{"category":"anti-social-behaviour","location_type":"Force","location":{"latitude":"54.558847","street":{"id":2071683,"name":"On or near Garden Court"},"longitude":"-1.257781"},"context":"","outcome_status":null,"persistent_id":"","id":127810546,"location_subtype":"","month":"2025-04"},{"category":"anti-social-behaviour","location_type":"Force","location":{"latitude":"54.549331","street":{"id":2071628,"name":"On or near Rockingham Court"},"longitude":"-1.259438"},"context":"","outcome_status":null,"persistent_id":"","id":127810553,"location_subtype":"","month":"2025-04"},{"category":"anti-social-behaviour","location_type":"Force","location":{"latitude":"54.552402","street":{"id":2072789,"name":"On or near Evergreen Walk"},"longitude":"-1.233006"},"context":"","outcome_status":null,"persistent_id":"","id":127811300,"location_subtype":"","month":"2025-04"},{"category":"anti-social-behaviour","location_type":"Force","location":{"latitude":"54.554505","street":{"id":2071527,"name":"On or near Picton Avenue"},"longitude":"-1.263411"},"context":"","outcome_status":null,"persistent_id":"","id":127811304,"location_subtype":"","month":"2025-04"},{"category":"anti-social-behaviour","location_type":"Force","location":{"latitude":"54.560043","street":{"id":2072646,"name":"On or near Cumberland Road"},"longitude":"-1.236234"},"context":"","outcome_status":null,"persistent_id":"","id":127811309,"location_subtype":"","month":"2025-04"},{"category":"anti-social-behaviour","location_type":"Force","location":{"latitude":"54.537518","street":{"id":2071655,"name":"On or near Brusselton Close"},"longitude":"-1.258709"},"context":"","outcome_status":null,"persistent_id":"","id":127815535,"location_subtype":"","month":"2025-04"},{"category":"anti-social-behaviour","location_type":"Force","location":{"latitude":"54.548174","street":{"id":2072804,"name":"On or near Portrush Close"},"longitude":"-1.230875"},"context":"","outcome_status":null,"persistent_id":"","id":127812083,"location_subtype":"","month":"2025-04"},{"category":"anti-social-behaviour","location_type":"Force","location":{"latitude":"54.559477","street":{"id":2071590,"name":"On or near Nesham Avenue"},"longitude":"-1.260801"},"context":"","outcome_status":null,"persistent_id":"","id":127812087,"location_subtype":"","month":"2025-04"},{"category":"anti-social-behaviour","location_type":"Force","location":{"latitude":"54.558847","street":{"id":2071683,"name":"On or near Garden Court"},"longitude":"-1.257781"},"context":"","outcome_status":null,"persistent_id":"","id":127812090,"location_subtype":"","month":"2025-04"},{"category":"anti-social-behaviour","location_type":"Force","location":{"latitude":"54.556164","street":{"id":2072631,"name":"On or near Sycamore Road"},"longitude":"-1.236693"},"context":"","outcome_status":null,"persistent_id":"","id":127812096,"location_subtype":"","month":"2025-04"},{"category":"anti-social-behaviour","location_type":"Force","location":{"latitude":"54.552565","street":{"id":2072445,"name":"On or near Emerson Avenue"},"longitude":"-1.240254"},"context":"","outcome_status":null,"persistent_id":"","id":127812097,"location_subtype":"","month":"2025-04"},{"category":"anti-social-behaviour","location_type":"Force","location":{"latitude":"54.549587","street":{"id":2072611,"name":"On or near Beverley Road"},"longitude":"-1.234048"},"context":"","outcome_status":null,"persistent_id":"","id":127811827,"location_subtype":"","month":"2025-04"},{"category":"anti-social-behaviour","location_type":"Force","location":{"latitude":"54.552859","street":{"id":2071571,"name":"On or near Balfour Terrace"},"longitude":"-1.261693"},"context":"","outcome_status":null,"persistent_id":"","id":127811833,"location_subtype":"","month":"2025-04"},{"category":"anti-social-behaviour","location_type":"Force","location":{"latitude":"54.558847","street":{"id":2071683,"name":"On or near Garden Court"},"longitude":"-1.257781"},"context":"","outcome_status":null,"persistent_id":"","id":127811834,"location_subtype":"","month":"2025-04"},{"category":"anti-social-behaviour","location_type":"Force","location":{"latitude":"54.545379","street":{"id":2071882,"name":"On or near Church Drive"},"longitude":"-1.249570"},"context":"","outcome_status":null,"persistent_id":"","id":127811839,"location_subtype":"","month":"2025-04"},{"category":"anti-social-behaviour","location_type":"Force","location":{"latitude":"54.561738","street":{"id":2071607,"name":"On or near Bethune Road"},"longitude":"-1.260203"},"context":"","outcome_status":null,"persistent_id":"","id":127812548,"location_subtype":"","month":"2025-04"},{"category":"anti-social-behaviour","location_type":"Force","location":{"latitude":"54.554731","street":{"id":2072616,"name":"On or near Beech Grove Road"},"longitude":"-1.237446"},"context":"","outcome_status":null,"persistent_id":"","id":127812553,"location_subtype":"","month":"2025-04"},{"category":"anti-social-behaviour","location_type":"Force","location":{"latitude":"54.549582","street":{"id":2072278,"name":"On or near Newham Avenue"},"longitude":"-1.243247"},"context":"","outcome_status":null,"persistent_id":"","id":127812554,"location_subtype":"","month":"2025-04"},{"category":"anti-social-behaviour","location_type":"Force","location":{"latitude":"54.557249","street":{"id":2341812,"name":"On or near Queensbury Grove"},"longitude":"-1.266902"},"context":"","outcome_status":null,"persistent_id":"","id":127812315,"location_subtype":"","month":"2025-04"},{"category":"anti-social-behaviour","location_type":"Force","location":{"latitude":"54.555424","street":{"id":2341688,"name":"On or near Teesside Shopping Park"},"longitude":"-1.274202"},"context":"","outcome_status":null,"persistent_id":"","id":127812911,"location_subtype":"","month":"2025-04"},{"category":"anti-social-behaviour","location_type":"Force","location":{"latitude":"54.550841","street":{"id":2071256,"name":"On or near Parking Area"},"longitude":"-1.273981"},"context":"","outcome_status":null,"persistent_id":"","id":127812407,"location_subtype":"","month":"2025-04"},{"category":"anti-social-behaviour","location_type":"Force","location":{"latitude":"54.549587","street":{"id":2072611,"name":"On or near Beverley Road"},"longitude":"-1.234048"},"context":"","outcome_status":null,"persistent_id":"","id":127812776,"location_subtype":"","month":"2025-04"},{"category":"anti-social-behaviour","location_type":"Force","location":{"latitude":"54.549587","street":{"id":2072611,"name":"On or near Beverley Road"},"longitude":"-1.234048"},"context":"","outcome_status":null,"persistent_id":"","id":127812777,"location_subtype":"","month":"2025-04"},{"category":"anti-social-behaviour","location_type":"Force","location":{"latitude":"54.556045","street":{"id":2071917,"name":"On or near Dorman Gardens"},"longitude":"-1.249235"},"context":"","outcome_status":null,"persistent_id":"","id":127812782,"location_subtype":"","month":"2025-04"},{"category":"anti-social-behaviour","location_type":"Force","location":{"latitude":"54.554505","street":{"id":2071527,"name":"On or near Picton Avenue"},"longitude":"-1.263411"},"context":"","outcome_status":null,"persistent_id":"","id":127813081,"location_subtype":"","month":"2025-04"},{"category":"anti-social-behaviour","location_type":"Force","location":{"latitude":"54.561628","street":{"id":2071521,"name":"On or near Lydbrook Road"},"longitude":"-1.264226"},"context":"","outcome_status":null,"persistent_id":"","id":127813083,"location_subtype":"","month":"2025-04"},{"category":"anti-social-behaviour","location_type":"Force","location":{"latitude":"54.553078","street":{"id":2071744,"name":"On or near Kirkgate Road"},"longitude":"-1.254825"},"context":"","outcome_status":null,"persistent_id":"","id":127813085,"location_subtype":"","month":"2025-04"},{"category":"anti-social-behaviour","location_type":"Force","location":{"latitude":"54.558144","street":{"id":2072738,"name":"On or near Devonport Road"},"longitude":"-1.234352"},"context":"","outcome_status":null,"persistent_id":"","id":127813088,"location_subtype":"","month":"2025-04"},{"category":"anti-social-behaviour","location_type":"Force","location":{"latitude":"54.547765","street":{"id":2071493,"name":"On or near Mandale Road"},"longitude":"-1.264877"},"context":"","outcome_status":null,"persistent_id":"","id":127813090,"location_subtype":"","month":"2025-04"},{"category":"anti-social-behaviour","location_type":"Force","location":{"latitude":"54.563954","street":{"id":2071621,"name":"On or near Ashling Way"},"longitude":"-1.258106"},"context":"","outcome_status":null,"persistent_id":"","id":127813351,"location_subtype":"","month":"2025-04"},{"category":"anti-social-behaviour","location_type":"Force","location":{"latitude":"54.552565","street":{"id":2072445,"name":"On or near Emerson Avenue"},"longitude":"-1.240254"},"context":"","outcome_status":null,"persistent_id":"","id":127813358,"location_subtype":"","month":"2025-04"},{"category":"anti-social-behaviour","location_type":"Force","location":{"latitude":"54.560445","street":{"id":2341844,"name":"On or near Linthorpe Road"},"longitude":"-1.242860"},"context":"","outcome_status":null,"persistent_id":"","id":127817497,"location_subtype":"","month":"2025-04"},{"category":"anti-social-behaviour","location_type":"Force","location":{"latitude":"54.555979","street":{"id":2071512,"name":"On or near Whinney Banks Road"},"longitude":"-1.264869"},"context":"","outcome_status":null,"persistent_id":"","id":127813618,"location_subtype":"","month":"2025-04"},{"category":"anti-social-behaviour","location_type":"Force","location":{"latitude":"54.560910","street":{"id":2072106,"name":"On or near Chipchase Road"},"longitude":"-1.245357"},"context":"","outcome_status":null,"persistent_id":"","id":127813626,"location_subtype":"","month":"2025-04"},{"category":"anti-social-behaviour","location_type":"Force","location":{"latitude":"54.562326","street":{"id":2072078,"name":"On or near St Barnabas' Road"},"longitude":"-1.246212"},"context":"","outcome_status":null,"persistent_id":"","id":127817494,"location_subtype":"","month":"2025-04"},{"category":"anti-social-behaviour","location_type":"Force","location":{"latitude":"54.543887","street":{"id":2072542,"name":"On or near Kepwick Close"},"longitude":"-1.238019"},"context":"","outcome_status":null,"persistent_id":"","id":127813632,"location_subtype":"","month":"2025-04"},{"category":"anti-social-behaviour","location_type":"Force","location":{"latitude":"54.541046","street":{"id":2071494,"name":"On or near Mosswood Crescent"},"longitude":"-1.264055"},"context":"","outcome_status":null,"persistent_id":"","id":127813634,"location_subtype":"","month":"2025-04"},{"category":"anti-social-behaviour","location_type":"Force","location":{"latitude":"54.549587","street":{"id":2072611,"name":"On or near Beverley Road"},"longitude":"-1.234048"},"context":"","outcome_status":null,"persistent_id":"","id":127813865,"location_subtype":"","month":"2025-04"},{"category":"anti-social-behaviour","location_type":"Force","location":{"latitude":"54.555979","street":{"id":2071512,"name":"On or near Whinney Banks Road"},"longitude":"-1.264869"},"context":"","outcome_status":null,"persistent_id":"","id":127813867,"location_subtype":"","month":"2025-04"},{"category":"anti-social-behaviour","location_type":"Force","location":{"latitude":"54.552859","street":{"id":2071571,"name":"On or near Balfour Terrace"},"longitude":"-1.261693"},"context":"","outcome_status":null,"persistent_id":"","id":127813868,"location_subtype":"","month":"2025-04"},{"category":"anti-social-behaviour","location_type":"Force","location":{"latitude":"54.555598","street":{"id":2071630,"name":"On or near Eton Road"},"longitude":"-1.258490"},"context":"","outcome_status":null,"persistent_id":"","id":127813872,"location_subtype":"","month":"2025-04"},{"category":"anti-social-behaviour","location_type":"Force","location":{"latitude":"54.537854","street":{"id":2071866,"name":"On or near Urlay Grove"},"longitude":"-1.250496"},"context":"","outcome_status":null,"persistent_id":"","id":127813875,"location_subtype":"","month":"2025-04"},{"category":"anti-social-behaviour","location_type":"Force","location":{"latitude":"54.541046","street":{"id":2071494,"name":"On or near Mosswood Crescent"},"longitude":"-1.264055"},"context":"","outcome_status":null,"persistent_id":"","id":127813877,"location_subtype":"","month":"2025-04"},{"category":"anti-social-behaviour","location_type":"Force","location":{"latitude":"54.550174","street":{"id":2071477,"name":"On or near Levick Crescent"},"longitude":"-1.266504"},"context":"","outcome_status":null,"persistent_id":"","id":127814311,"location_subtype":"","month":"2025-04"},{"category":"anti-social-behaviour","location_type":"Force","location":{"latitude":"54.550639","street":{"id":2071410,"name":"On or near Downside Road"},"longitude":"-1.270623"},"context":"","outcome_status":null,"persistent_id":"","id":127814312,"location_subtype":"","month":"2025-04"},{"category":"anti-social-behaviour","location_type":"Force","location":{"latitude":"54.562780","street":{"id":2071954,"name":"On or near Camsell Court"},"longitude":"-1.249838"},"context":"","outcome_status":null,"persistent_id":"","id":127814318,"location_subtype":"","month":"2025-04"},{"category":"anti-social-behaviour","location_type":"Force","location":{"latitude":"54.539285","street":{"id":2071464,"name":"On or near Newfield Crescent"},"longitude":"-1.265617"},"context":"","outcome_status":null,"persistent_id":"","id":127814324,"location_subtype":"","month":"2025-04"},{"category":"anti-social-behaviour","location_type":"Force","location":{"latitude":"54.557897","street":{"id":2071857,"name":"On or near Dresser Lane"},"longitude":"-1.250794"},"context":"","outcome_status":null,"persistent_id":"","id":127817486,"location_subtype":"","month":"2025-04"},{"category":"anti-social-behaviour","location_type":"Force","location":{"latitude":"54.537518","street":{"id":2071655,"name":"On or near Brusselton Close"},"longitude":"-1.258709"},"context":"","outcome_status":null,"persistent_id":"","id":127814325,"location_subtype":"","month":"2025-04"},{"category":"anti-social-behaviour","location_type":"Force","location":{"latitude":"54.555424","street":{"id":2341688,"name":"On or near Teesside Shopping Park"},"longitude":"-1.274202"},"context":"","outcome_status":null,"persistent_id":"","id":127813955,"location_subtype":"","month":"2025-04"},{"category":"anti-social-behaviour","location_type":"Force","location":{"latitude":"54.563250","street":{"id":2072257,"name":"On or near Gifford Street"},"longitude":"-1.243133"},"context":"","outcome_status":null,"persistent_id":"","id":127814078,"location_subtype":"","month":"2025-04"},{"category":"anti-social-behaviour","location_type":"Force","location":{"latitude":"54.557412","street":{"id":2072630,"name":"On or near Eastbourne Road"},"longitude":"-1.236577"},"context":"","outcome_status":null,"persistent_id":"","id":127817740,"location_subtype":"","month":"2025-04"},{"category":"anti-social-behaviour","location_type":"Force","location":{"latitude":"54.552118","street":{"id":2071889,"name":"On or near Eastgate Road"},"longitude":"-1.250838"},"context":"","outcome_status":null,"persistent_id":"","id":127814082,"location_subtype":"","month":"2025-04"},{"category":"anti-social-behaviour","location_type":"Force","location":{"latitude":"54.561850","street":{"id":2072246,"name":"On or near Oliver Street"},"longitude":"-1.243422"},"context":"","outcome_status":null,"persistent_id":"","id":127817738,"location_subtype":"","month":"2025-04"},{"category":"anti-social-behaviour","location_type":"Force","location":{"latitude":"54.555531","street":{"id":2072039,"name":"On or near Linden Grove"},"longitude":"-1.247575"},"context":"","outcome_status":null,"persistent_id":"","id":127817731,"location_subtype":"","month":"2025-04"},{"category":"anti-social-behaviour","location_type":"Force","location":{"latitude":"54.551602","street":{"id":2072749,"name":"On or near Saltersgill Close"},"longitude":"-1.232928"},"context":"","outcome_status":null,"persistent_id":"","id":127815060,"location_subtype":"","month":"2025-04"},{"category":"anti-social-behaviour","location_type":"Force","location":{"latitude":"54.557249","street":{"id":2341812,"name":"On or near Queensbury Grove"},"longitude":"-1.266902"},"context":"","outcome_status":null,"persistent_id":"","id":127815066,"location_subtype":"","month":"2025-04"},{"category":"anti-social-behaviour","location_type":"Force","location":{"latitude":"54.556721","street":{"id":2071551,"name":"On or near East Crescent"},"longitude":"-1.262691"},"context":"","outcome_status":null,"persistent_id":"","id":127815068,"location_subtype":"","month":"2025-04"},{"category":"anti-social-behaviour","location_type":"Force","location":{"latitude":"54.555025","street":{"id":2071457,"name":"On or near Derby Avenue"},"longitude":"-1.267607"},"context":"","outcome_status":null,"persistent_id":"","id":127817729,"location_subtype":"","month":"2025-04"},{"category":"anti-social-behaviour","location_type":"Force","location":{"latitude":"54.553797","street":{"id":2072907,"name":"On or near Keith Road"},"longitude":"-1.230521"},"context":"","outcome_status":null,"persistent_id":"","id":127814554,"location_subtype":"","month":"2025-04"},{"category":"bicycle-theft","location_type":"Force","location":{"latitude":"54.559593","street":{"id":2071708,"name":"On or near Burlam Road"},"longitude":"-1.254721"},"context":"","outcome_status":{"category":"Investigation complete; no suspect identified","date":"2025-04"},"persistent_id":"5592b6df0fd95828d47f6112a1803cb64a23c38802de8d140db8c741b80fd257","id":127817483,"location_subtype":"","month":"2025-04"},{"category":"burglary","location_type":"Force","location":{"latitude":"54.557608","street":{"id":2071556,"name":"On or near Merton Road"},"longitude":"-1.262350"},"context":"","outcome_status":{"category":"Unable to prosecute suspect","date":"2025-04"},"persistent_id":"4bc62ccc5c496ebee37767b66ddbaa0540ca7d6a900a4ced7d4e58c9a550cb99","id":127812781,"location_subtype":"","month":"2025-04"},{"category":"burglary","location_type":"Force","location":{"latitude":"54.552038","street":{"id":2072197,"name":"On or near Thackeray Grove"},"longitude":"-1.243727"},"context":"","outcome_status":{"category":"Investigation complete; no suspect identified","date":"2025-04"},"persistent_id":"e1c80f2d417c37fad2e1404967d2166806727b504ddac2f336568a79d0bff143","id":127810555,"location_subtype":"","month":"2025-04"},{"category":"burglary","location_type":"Force","location":{"latitude":"54.556030","street":{"id":2072121,"name":"On or near Cherryfield Drive"},"longitude":"-1.244071"},"context":"","outcome_status":{"category":"Investigation complete; no suspect identified","date":"2025-04"},"persistent_id":"5ec79511d6a85fef0e8226ba5ac33d798558297077c4e82e11c5ea3979e35ece","id":127817491,"location_subtype":"","month":"2025-04"},{"category":"burglary","location_type":"Force","location":{"latitude":"54.553836","street":{"id":2071929,"name":"On or near Northgate Road"},"longitude":"-1.249585"},"context":"","outcome_status":{"category":"Investigation complete; no suspect identified","date":"2025-04"},"persistent_id":"db37493ecd138d78dc4adc580abc1c2ad8313739a7556eca00adcf24bc30c3c4","id":127817489,"location_subtype":"","month":"2025-04"},{"category":"burglary","location_type":"Force","location":{"latitude":"54.548255","street":{"id":2072943,"name":"On or near Moortown Road"},"longitude":"-1.228214"},"context":"","outcome_status":{"category":"Investigation complete; no suspect identified","date":"2025-04"},"persistent_id":"8cda2e8ed56c1956741433f72f251cdff845575780d1caec1876f3879bf176eb","id":127812775,"location_subtype":"","month":"2025-04"},{"category":"burglary","location_type":"Force","location":{"latitude":"54.549459","street":{"id":2071499,"name":"On or near Preen Drive"},"longitude":"-1.264182"},"context":"","outcome_status":{"category":"Investigation complete; no suspect identified","date":"2025-04"},"persistent_id":"9443a9c9d90490f5ea021a6d6e3c3f356824b9617e6796e77bea5f47812fd5e2","id":127813359,"location_subtype":"","month":"2025-04"},{"category":"burglary","location_type":"Force","location":{"latitude":"54.555531","street":{"id":2072039,"name":"On or near Linden Grove"},"longitude":"-1.247575"},"context":"","outcome_status":{"category":"Investigation complete; no suspect identified","date":"2025-06"},"persistent_id":"9d0723abbc041fa46a4c8e7b19995b00fe4a52005b5c2bb46688cf14143d8eb9","id":127817488,"location_subtype":"","month":"2025-04"},{"category":"burglary","location_type":"Force","location":{"latitude":"54.559359","street":{"id":2072325,"name":"On or near Haymore Street"},"longitude":"-1.241798"},"context":"","outcome_status":{"category":"Investigation complete; no suspect identified","date":"2025-04"},"persistent_id":"e45bebb73ccd70b5ae90fadd01847fc71c7c237a5a4e4059f5af604c9a1a1274","id":127816493,"location_subtype":"","month":"2025-04"},{"category":"burglary","location_type":"Force","location":{"latitude":"54.559359","street":{"id":2072325,"name":"On or near Haymore Street"},"longitude":"-1.241798"},"context":"","outcome_status":{"category":"Investigation complete; no suspect identified","date":"2025-04"},"persistent_id":"85ac126b7c968945a89241df00f51cadcaabc8d2b571f53e406d8f15222821bd","id":127816492,"location_subtype":"","month":"2025-04"},{"category":"burglary","location_type":"Force","location":{"latitude":"54.555562","street":{"id":2072901,"name":"On or near Ashfield Avenue"},"longitude":"-1.230983"},"context":"","outcome_status":{"category":"Investigation complete; no suspect identified","date":"2025-05"},"persistent_id":"e28f1e3b2caad0e3c3f9225cca2d07adb00b7a6c02a5feb72efe0458719ecad2","id":127817218,"location_subtype":"","month":"2025-04"},{"category":"burglary","location_type":"Force","location":{"latitude":"54.551335","street":{"id":2072833,"name":"On or near Shelley Road"},"longitude":"-1.232052"},"context":"","outcome_status":{"category":"Investigation complete; no suspect identified","date":"2025-04"},"persistent_id":"b106a8097966c680141280229f52fe1d24092d839d4c2044744a89157b0bedde","id":127812545,"location_subtype":"","month":"2025-04"},{"category":"burglary","location_type":"Force","location":{"latitude":"54.553930","street":{"id":2072043,"name":"On or near Daleston Avenue"},"longitude":"-1.247419"},"context":"","outcome_status":{"category":"Investigation complete; no suspect identified","date":"2025-04"},"persistent_id":"02503de6e941137fe4cbd82103220ea8653db52b471b103bd6807beb415d7320","id":127813355,"location_subtype":"","month":"2025-04"},{"category":"burglary","location_type":"Force","location":{"latitude":"54.556030","street":{"id":2072121,"name":"On or near Cherryfield Drive"},"longitude":"-1.244071"},"context":"","outcome_status":{"category":"Investigation complete; no suspect identified","date":"2025-04"},"persistent_id":"dc0a68ed33a408cd536bd322b294adc953e6ec92321f2f46b81538a2e90d298c","id":127815784,"location_subtype":"","month":"2025-04"},{"category":"burglary","location_type":"Force","location":{"latitude":"54.556164","street":{"id":2072631,"name":"On or near Sycamore Road"},"longitude":"-1.236693"},"context":"","outcome_status":{"category":"Investigation complete; no suspect identified","date":"2025-04"},"persistent_id":"765f08750ddacfa276d23433db56c06b6207de4b13470788aa04305e83ffa0ba","id":127812552,"location_subtype":"","month":"2025-04"},{"category":"burglary","location_type":"Force","location":{"latitude":"54.544202","street":{"id":2072498,"name":"On or near Cranswick Drive"},"longitude":"-1.238168"},"context":"","outcome_status":{"category":"Unable to prosecute suspect","date":"2025-04"},"persistent_id":"7825ac50a9569ff41f1953818385440d77ad082114d166e0b803273744034bef","id":127815528,"location_subtype":"","month":"2025-04"},{"category":"burglary","location_type":"Force","location":{"latitude":"54.550120","street":{"id":2072805,"name":"On or near Collin Avenue"},"longitude":"-1.231627"},"context":"","outcome_status":{"category":"Investigation complete; no suspect identified","date":"2025-04"},"persistent_id":"2ff60431dc198488af6d543cf3daa3f404614b2773d4ca2c3d524b3c9551fc91","id":127815059,"location_subtype":"","month":"2025-04"},{"category":"burglary","location_type":"Force","location":{"latitude":"54.552118","street":{"id":2071889,"name":"On or near Eastgate Road"},"longitude":"-1.250838"},"context":"","outcome_status":{"category":"Investigation complete; no suspect identified","date":"2025-04"},"persistent_id":"4624919193bc75502b4ab08dd5cced6bd5738b9f9098cd29380fa976fb5d789e","id":127811836,"location_subtype":"","month":"2025-04"},{"category":"burglary","location_type":"Force","location":{"latitude":"54.556045","street":{"id":2071917,"name":"On or near Dorman Gardens"},"longitude":"-1.249235"},"context":"","outcome_status":{"category":"Investigation complete; no suspect identified","date":"2025-04"},"persistent_id":"accfc7e48c30fa35bd6103478d58c7e44808b8753321461442ba5d0e09c7ce48","id":127813620,"location_subtype":"","month":"2025-04"},{"category":"burglary","location_type":"Force","location":{"latitude":"54.551335","street":{"id":2072833,"name":"On or near Shelley Road"},"longitude":"-1.232052"},"context":"","outcome_status":{"category":"Investigation complete; no suspect identified","date":"2025-04"},"persistent_id":"a3218dcb400e879695159c5adfead9af0681b45bd1db61341a243ced4fdc3757","id":127811297,"location_subtype":"","month":"2025-04"},{"category":"burglary","location_type":"Force","location":{"latitude":"54.556045","street":{"id":2071917,"name":"On or near Dorman Gardens"},"longitude":"-1.249235"},"context":"","outcome_status":{"category":"Investigation complete; no suspect identified","date":"2025-04"},"persistent_id":"efac1e72589eaa7aff43a38e96fdfae5915d4a8ba50b65ac57b065eeac7bc0c3","id":127811594,"location_subtype":"","month":"2025-04"},{"category":"burglary","location_type":"Force","location":{"latitude":"54.544202","street":{"id":2072498,"name":"On or near Cranswick Drive"},"longitude":"-1.238168"},"context":"","outcome_status":{"category":"Unable to prosecute suspect","date":"2025-04"},"persistent_id":"5c1306a7654df032eca068c0f8baa03dec57136a7612d93ce112e9f97d28c645","id":127811315,"location_subtype":"","month":"2025-04"},{"category":"burglary","location_type":"Force","location":{"latitude":"54.562780","street":{"id":2071954,"name":"On or near Camsell Court"},"longitude":"-1.249838"},"context":"","outcome_status":{"category":"Investigation complete; no suspect identified","date":"2025-04"},"persistent_id":"a2ea3ab4b0fad42cc5453d670ec47270b1468c3879abe72df79799886a03c18b","id":127816235,"location_subtype":"","month":"2025-04"},{"category":"burglary","location_type":"Force","location":{"latitude":"54.559915","street":{"id":2072115,"name":"On or near Devonshire Road"},"longitude":"-1.245855"},"context":"","outcome_status":{"category":"Investigation complete; no suspect identified","date":"2025-05"},"persistent_id":"dda1f6eb8f9abdd707bf4661d5e06f07d913b7b153d2c0cb56d03d0650a2cbdf","id":127814824,"location_subtype":"","month":"2025-04"},{"category":"burglary","location_type":"Force","location":{"latitude":"54.556613","street":{"id":2072885,"name":"On or near Bilberry Street"},"longitude":"-1.231025"},"context":"","outcome_status":{"category":"Investigation complete; no suspect identified","date":"2025-04"},"persistent_id":"63f7475fe9ad3240c2f8c3f62f263434e26136fac09395a8116581b7cf1f13f6","id":127813070,"location_subtype":"","month":"2025-04"},{"category":"burglary","location_type":"Force","location":{"latitude":"54.550994","street":{"id":2071637,"name":"On or near Wroxton Avenue"},"longitude":"-1.259424"},"context":"","outcome_status":{"category":"Investigation complete; no suspect identified","date":"2025-07"},"persistent_id":"9285af4abd4921dd1bb6976fb8276b4b28f06312cb6bb3efd54434c986a3836b","id":127811601,"location_subtype":"","month":"2025-04"},{"category":"criminal-damage-arson","location_type":"Force","location":{"latitude":"54.552457","street":{"id":2072868,"name":"On or near Almond Court"},"longitude":"-1.230299"},"context":"","outcome_status":{"category":"Investigation complete; no suspect identified","date":"2025-04"},"persistent_id":"f9641623a371fa796fc7e904686d1214c93f654ffbe7852b3242e365c94b39a6","id":127813076,"location_subtype":"","month":"2025-04"},{"category":"criminal-damage-arson","location_type":"Force","location":{"latitude":"54.551335","street":{"id":2072833,"name":"On or near Shelley Road"},"longitude":"-1.232052"},"context":"","outcome_status":{"category":"Court result unavailable","date":"2025-11"},"persistent_id":"03c3b1b01af3facb890eccdc3e2e0d15bff701bebb5476fe1eabbd53cc510048","id":127817477,"location_subtype":"","month":"2025-04"},{"category":"criminal-damage-arson","location_type":"Force","location":{"latitude":"54.549025","street":{"id":2071727,"name":"On or near Ridley Avenue"},"longitude":"-1.254960"},"context":"","outcome_status":{"category":"Investigation complete; no suspect identified","date":"2025-04"},"persistent_id":"6dbd34b51a1f18cfef3523b2a4223ab65b559f95337807c5c0ca4b56a61e6cab","id":127817741,"location_subtype":"","month":"2025-04"},{"category":"criminal-damage-arson","location_type":"Force","location":{"latitude":"54.564087","street":{"id":2071992,"name":"On or near The Holgate"},"longitude":"-1.247556"},"context":"","outcome_status":{"category":"Investigation complete; no suspect identified","date":"2025-04"},"persistent_id":"e254c23a843ce925631b95350bef72870c8998bb50e6ac9e4bac84fa3c826de5","id":127811835,"location_subtype":"","month":"2025-04"},{"category":"criminal-damage-arson","location_type":"Force","location":{"latitude":"54.553012","street":{"id":2072845,"name":"On or near Elderwood Court"},"longitude":"-1.231433"},"context":"","outcome_status":{"category":"Investigation complete; no suspect identified","date":"2025-04"},"persistent_id":"4e4cfbfeefcea654ad92cadb4abd4b626a72a06d82caf4d8482ca2af7488a32f","id":127810795,"location_subtype":"","month":"2025-04"},{"category":"criminal-damage-arson","location_type":"Force","location":{"latitude":"54.555025","street":{"id":2071457,"name":"On or near Derby Avenue"},"longitude":"-1.267607"},"context":"","outcome_status":{"category":"Investigation complete; no suspect identified","date":"2025-04"},"persistent_id":"8d15dfb997a8f7a35ef3a684c1da242bf5119f8cc38ea27786dc65d75bbabed9","id":127811040,"location_subtype":"","month":"2025-04"},{"category":"criminal-damage-arson","location_type":"Force","location":{"latitude":"54.564087","street":{"id":2071992,"name":"On or near The Holgate"},"longitude":"-1.247556"},"context":"","outcome_status":{"category":"Investigation complete; no suspect identified","date":"2025-04"},"persistent_id":"bd0533fa17ef38fcb38b4ca2e01b3e3a790934052de3c69cc7af107927216d6f","id":127811043,"location_subtype":"","month":"2025-04"},{"category":"criminal-damage-arson","location_type":"Force","location":{"latitude":"54.556164","street":{"id":2072631,"name":"On or near Sycamore Road"},"longitude":"-1.236693"},"context":"","outcome_status":{"category":"Investigation complete; no suspect identified","date":"2025-04"},"persistent_id":"53f13b4df2f8184fe3efbc805204070dc8130dbe095eaabcbf0c9d299654cebf","id":127811598,"location_subtype":"","month":"2025-04"},{"category":"criminal-damage-arson","location_type":"Force","location":{"latitude":"54.556164","street":{"id":2072631,"name":"On or near Sycamore Road"},"longitude":"-1.236693"},"context":"","outcome_status":{"category":"Investigation complete; no suspect identified","date":"2025-04"},"persistent_id":"ce605c9689f35fdb7817553ded0530ddc5c3069536a0403e321cf0d433f37938","id":127811599,"location_subtype":"","month":"2025-04"},{"category":"criminal-damage-arson","location_type":"Force","location":{"latitude":"54.555470","street":{"id":2072595,"name":"On or near Limes Road"},"longitude":"-1.237865"},"context":"","outcome_status":{"category":"Investigation complete; no suspect identified","date":"2025-04"},"persistent_id":"df0b8fc309c0c859c19f65d5647b54b2a8810525d300a19b267c499a08cf0d14","id":127811600,"location_subtype":"","month":"2025-04"},{"category":"criminal-damage-arson","location_type":"Force","location":{"latitude":"54.551827","street":{"id":2072524,"name":"On or near Gainford Avenue"},"longitude":"-1.238706"},"context":"","outcome_status":{"category":"Investigation complete; no suspect identified","date":"2025-04"},"persistent_id":"089365d19de473bea5ddca34796f257c4dcbff0280fff1ce0afc76392b694447","id":127811840,"location_subtype":"","month":"2025-04"},{"category":"criminal-damage-arson","location_type":"Force","location":{"latitude":"54.556045","street":{"id":2071917,"name":"On or near Dorman Gardens"},"longitude":"-1.249235"},"context":"","outcome_status":{"category":"Investigation complete; no suspect identified","date":"2025-04"},"persistent_id":"3adba1060c2c3401b8378b087e426c0ac6839f5de00e3d09ab4da0479e4adbbf","id":127812783,"location_subtype":"","month":"2025-04"},{"category":"criminal-damage-arson","location_type":"Force","location":{"latitude":"54.556045","street":{"id":2071917,"name":"On or near Dorman Gardens"},"longitude":"-1.249235"},"context":"","outcome_status":{"category":"Investigation complete; no suspect identified","date":"2025-04"},"persistent_id":"a56edfe351c4d23011ef1449b492423368fed6337f6c62fa53c568401b852021","id":127812784,"location_subtype":"","month":"2025-04"},{"category":"criminal-damage-arson","location_type":"Force","location":{"latitude":"54.555531","street":{"id":2072039,"name":"On or near Linden Grove"},"longitude":"-1.247575"},"context":"","outcome_status":{"category":"Investigation complete; no suspect identified","date":"2025-04"},"persistent_id":"50043aa94aa4eef781e5eeab398fdb957a942e008785ff2d829464c446bfd0ac","id":127812786,"location_subtype":"","month":"2025-04"},{"category":"criminal-damage-arson","location_type":"Force","location":{"latitude":"54.542767","street":{"id":2071969,"name":"On or near St Davids Way"},"longitude":"-1.248675"},"context":"","outcome_status":{"category":"Investigation complete; no suspect identified","date":"2025-04"},"persistent_id":"459f747f9290f54bff3db2f92ac85b2a76079904475eaa94082dd628bed5b76e","id":127812790,"location_subtype":"","month":"2025-04"},{"category":"criminal-damage-arson","location_type":"Force","location":{"latitude":"54.555562","street":{"id":2072901,"name":"On or near Ashfield Avenue"},"longitude":"-1.230983"},"context":"","outcome_status":{"category":"Investigation complete; no suspect identified","date":"2025-04"},"persistent_id":"8f76dcde0adef56780ca10cf86d19df297db1551e48c35f9f4e5bbb6add118b8","id":127813071,"location_subtype":"","month":"2025-04"},{"category":"criminal-damage-arson","location_type":"Force","location":{"latitude":"54.554241","street":{"id":2071745,"name":"On or near Cambridge Road"},"longitude":"-1.254077"},"context":"","outcome_status":{"category":"Investigation complete; no suspect identified","date":"2025-04"},"persistent_id":"aa48a6d06903c9c18d88781f72c8d7f1fb2b23d1910104c92de58616fc82b44b","id":127813624,"location_subtype":"","month":"2025-04"},{"category":"criminal-damage-arson","location_type":"Force","location":{"latitude":"54.560925","street":{"id":2072309,"name":"On or near Stonehouse Street"},"longitude":"-1.242063"},"context":"","outcome_status":{"category":"Unable to prosecute suspect","date":"2025-04"},"persistent_id":"69813e5170489127a67a238922536846ff8cf9c61684256b73b08a25b02e13ab","id":127813627,"location_subtype":"","month":"2025-04"},{"category":"criminal-damage-arson","location_type":"Force","location":{"latitude":"54.559079","street":{"id":2072120,"name":"On or near Windsor Road"},"longitude":"-1.244401"},"context":"","outcome_status":{"category":"Unable to prosecute suspect","date":"2025-04"},"persistent_id":"39a2fe67084d0d97ce1130202d7739a8fca6169cb9425a9603dc8e2afae95fd3","id":127813630,"location_subtype":"","month":"2025-04"},{"category":"criminal-damage-arson","location_type":"Force","location":{"latitude":"54.551796","street":{"id":2071487,"name":"On or near Fakenham Avenue"},"longitude":"-1.265763"},"context":"","outcome_status":{"category":"Unable to prosecute suspect","date":"2025-04"},"persistent_id":"18e65c6de8af3be37952c6e1dcbcd394355a59670a7a3abc172323bf81f77622","id":127813869,"location_subtype":"","month":"2025-04"},{"category":"criminal-damage-arson","location_type":"Force","location":{"latitude":"54.554970","street":{"id":2072744,"name":"On or near The Vale"},"longitude":"-1.234133"},"context":"","outcome_status":{"category":"Investigation complete; no suspect identified","date":"2025-04"},"persistent_id":"62a9f3a30beff358ec02bca9fff516c2a6e918d9d6ecd8e148abc645ebca0b12","id":127813874,"location_subtype":"","month":"2025-04"},{"category":"criminal-damage-arson","location_type":"Force","location":{"latitude":"54.557249","street":{"id":2341812,"name":"On or near Queensbury Grove"},"longitude":"-1.266902"},"context":"","outcome_status":{"category":"Investigation complete; no suspect identified","date":"2025-04"},"persistent_id":"c6b63665954b3ef7c6a0c371af8421bb1ef0f0acbc13603057be5c90d0a163d2","id":127814561,"location_subtype":"","month":"2025-04"},{"category":"criminal-damage-arson","location_type":"Force","location":{"latitude":"54.555424","street":{"id":2341688,"name":"On or near Teesside Shopping Park"},"longitude":"-1.274202"},"context":"","outcome_status":{"category":"Investigation complete; no suspect identified","date":"2025-04"},"persistent_id":"493a5ce89286d248888c4700d0edb9d04abddd0912f6bffa6a6f612dc910f926","id":127814673,"location_subtype":"","month":"2025-04"},{"category":"criminal-damage-arson","location_type":"Force","location":{"latitude":"54.555388","street":{"id":2071501,"name":"On or near Bruce Avenue"},"longitude":"-1.265235"},"context":"","outcome_status":{"category":"Investigation complete; no suspect identified","date":"2025-04"},"persistent_id":"1d29998f5ae9d5147abb0a482b567a649b13a2cd3737b4830078db6224fbed73","id":127815513,"location_subtype":"","month":"2025-04"},{"category":"criminal-damage-arson","location_type":"Force","location":{"latitude":"54.539318","street":{"id":2071531,"name":"On or near Hunwick Close"},"longitude":"-1.263607"},"context":"","outcome_status":{"category":"Investigation complete; no suspect identified","date":"2025-04"},"persistent_id":"7cca1a22dfa2d1f19f8f5e222d118f885c4ad9139d1232ef58ef5e6123f08055","id":127816735,"location_subtype":"","month":"2025-04"},{"category":"criminal-damage-arson","location_type":"Force","location":{"latitude":"54.561749","street":{"id":2072343,"name":"On or near Simpson Street"},"longitude":"-1.241692"},"context":"","outcome_status":{"category":"Unable to prosecute suspect","date":"2025-04"},"persistent_id":"54d175c3bc9e83046f16cffbadd7b9e26585bb8c20f8927a8a8c3cb7dbb082e6","id":127817496,"location_subtype":"","month":"2025-04"},{"category":"criminal-damage-arson","location_type":"Force","location":{"latitude":"54.549272","street":{"id":2072933,"name":"On or near Forber Road"},"longitude":"-1.229849"},"context":"","outcome_status":{"category":"Unable to prosecute suspect","date":"2025-04"},"persistent_id":"4036e627cc40ba592bbf1d680065f5560c66ef6038b5f76a4d97624a5dfe8315","id":127810537,"location_subtype":"","month":"2025-04"},{"category":"criminal-damage-arson","location_type":"Force","location":{"latitude":"54.555477","street":{"id":2072496,"name":"On or near Poplars Road"},"longitude":"-1.238901"},"context":"","outcome_status":{"category":"Investigation complete; no suspect identified","date":"2025-04"},"persistent_id":"020e5a52b26d04a2625d428054999459030ca1f909a0d584f26466e367ea98ad","id":127810551,"location_subtype":"","month":"2025-04"},{"category":"criminal-damage-arson","location_type":"Force","location":{"latitude":"54.548255","street":{"id":2072943,"name":"On or near Moortown Road"},"longitude":"-1.228214"},"context":"","outcome_status":{"category":"Investigation complete; no suspect identified","date":"2025-05"},"persistent_id":"e1ee598d0fbf6e8cd9fda408972446e99fde6a4e6212fed5e3e86bf3517fb71f","id":127814069,"location_subtype":"","month":"2025-04"},{"category":"criminal-damage-arson","location_type":"Force","location":{"latitude":"54.552724","street":{"id":2072936,"name":"On or near Woodville Avenue"},"longitude":"-1.229892"},"context":"","outcome_status":{"category":"Court result unavailable","date":"2025-11"},"persistent_id":"0e37e058415cdb48e8dd746979633f10074f70b535b407c0bf5ba3f4e9a54ed6","id":127811824,"location_subtype":"","month":"2025-04"},{"category":"criminal-damage-arson","location_type":"Force","location":{"latitude":"54.546390","street":{"id":2072942,"name":"On or near Selkirk Close"},"longitude":"-1.228868"},"context":"","outcome_status":{"category":"Investigation complete; no suspect identified","date":"2025-05"},"persistent_id":"a5d0ba1a2537872021f3306a0b93f12acb279190a2eff3e1d5c63efd9dc3d3b0","id":127816481,"location_subtype":"","month":"2025-04"},{"category":"drugs","location_type":"Force","location":{"latitude":"54.549587","street":{"id":2072611,"name":"On or near Beverley Road"},"longitude":"-1.234048"},"context":"","outcome_status":{"category":"Awaiting court outcome","date":"2025-10"},"persistent_id":"b558450664d539a0dce264bde6b940d926f339bfba35965d9a0d0f7f0eb7721a","id":127813615,"location_subtype":"","month":"2025-04"},{"category":"drugs","location_type":"Force","location":{"latitude":"54.552724","street":{"id":2072936,"name":"On or near Woodville Avenue"},"longitude":"-1.229892"},"context":"","outcome_status":{"category":"Investigation complete; no suspect identified","date":"2025-07"},"persistent_id":"ad9c0c1ab4b35b455615cdb90c23ea6b6d16fbb66c708cc79191cf0d7c7b79ab","id":127811589,"location_subtype":"","month":"2025-04"},{"category":"drugs","location_type":"Force","location":{"latitude":"54.554928","street":{"id":2071548,"name":"On or near A1032"},"longitude":"-1.261981"},"context":"","outcome_status":{"category":"Investigation complete; no suspect identified","date":"2025-04"},"persistent_id":"d919ea2220451931512d3ea044074495a9c0d5e2943d1c1e9120bec1251dd378","id":127813354,"location_subtype":"","month":"2025-04"},{"category":"drugs","location_type":"Force","location":{"latitude":"54.551335","street":{"id":2072833,"name":"On or near Shelley Road"},"longitude":"-1.232052"},"context":"","outcome_status":{"category":"Unable to prosecute suspect","date":"2025-05"},"persistent_id":"8e7dc052265be7d1425a96a54fd76f8b0654aa7d17ce4f55ad6b48dbb5e42daf","id":127817478,"location_subtype":"","month":"2025-04"},{"category":"drugs","location_type":"Force","location":{"latitude":"54.553530","street":{"id":2072935,"name":"On or near Mulberry Court"},"longitude":"-1.229413"},"context":"","outcome_status":{"category":"Investigation complete; no suspect identified","date":"2025-04"},"persistent_id":"fa350648c3050c6af7688dfb7b4327aca9011e9e38946c49c995f44cb5359e9d","id":127811588,"location_subtype":"","month":"2025-04"},{"category":"drugs","location_type":"Force","location":{"latitude":"54.561639","street":{"id":2071985,"name":"On or near Latham Road"},"longitude":"-1.248421"},"context":"","outcome_status":{"category":"Court result unavailable","date":"2026-01"},"persistent_id":"037bbfffb94655eb61e34308bbf41b6a45e416671b00bf6edd4c678575b5127b","id":127816727,"location_subtype":"","month":"2025-04"},{"category":"drugs","location_type":"Force","location":{"latitude":"54.557312","street":{"id":2072141,"name":"On or near The Crescent"},"longitude":"-1.244898"},"context":"","outcome_status":{"category":"Awaiting court outcome","date":"2025-10"},"persistent_id":"46e4040ff59c6d3932c2aa9bd5a7acac50d4d12536aac3661f39f0ffb5376718","id":127811837,"location_subtype":"","month":"2025-04"},{"category":"drugs","location_type":"Force","location":{"latitude":"54.563954","street":{"id":2071621,"name":"On or near Ashling Way"},"longitude":"-1.258106"},"context":"","outcome_status":{"category":"Status update unavailable","date":"2025-08"},"persistent_id":"b1d5391fac80dc2cea26f7f5140b7ed61f7a7b930bbe2b79a3fa462ca9c1f87e","id":127813616,"location_subtype":"","month":"2025-04"},{"category":"drugs","location_type":"Force","location":{"latitude":"54.559163","street":{"id":2071845,"name":"On or near Dufton Road"},"longitude":"-1.252162"},"context":"","outcome_status":{"category":"Court result unavailable","date":"2025-10"},"persistent_id":"d475beee3cc248d7cbe01b216f96b9eddfbb38fade13dab0d6458d6a0656f59b","id":127814313,"location_subtype":"","month":"2025-04"},{"category":"drugs","location_type":"Force","location":{"latitude":"54.554928","street":{"id":2071548,"name":"On or near A1032"},"longitude":"-1.261981"},"context":"","outcome_status":{"category":"Investigation complete; no suspect identified","date":"2025-04"},"persistent_id":"6c5887a09f32fabc0d1b33c4fbda0e4244848a16423755dde10e2cae1582d3f5","id":127815302,"location_subtype":"","month":"2025-04"},{"category":"drugs","location_type":"Force","location":{"latitude":"54.563669","street":{"id":2072206,"name":"On or near Bush Street"},"longitude":"-1.243992"},"context":"","outcome_status":{"category":"Further action is not in the public interest","date":"2025-09"},"persistent_id":"0cc4bb59366de4382e1c4583b9739dccdfeeb3154ee34352036c077e82c3e9fd","id":127816953,"location_subtype":"","month":"2025-04"},{"category":"drugs","location_type":"Force","location":{"latitude":"54.546390","street":{"id":2072942,"name":"On or near Selkirk Close"},"longitude":"-1.228868"},"context":"","outcome_status":{"category":"Court result unavailable","date":"2025-10"},"persistent_id":"09030115dd7448cb08270d4365ebc0aae99785b80e435684541b47bd5056b0a0","id":127816480,"location_subtype":"","month":"2025-04"},{"category":"drugs","location_type":"Force","location":{"latitude":"54.562083","street":{"id":2072027,"name":"On or near Lewis Road"},"longitude":"-1.247701"},"context":"","outcome_status":{"category":"Court result unavailable","date":"2025-11"},"persistent_id":"aba24455ddeb5dffdf3698725d9b9e7498713fe52b36714697c3714f54c6f354","id":127816955,"location_subtype":"","month":"2025-04"},{"category":"drugs","location_type":"Force","location":{"latitude":"54.555025","street":{"id":2071457,"name":"On or near Derby Avenue"},"longitude":"-1.267607"},"context":"","outcome_status":{"category":"Further action is not in the public interest","date":"2025-06"},"persistent_id":"d2ef891f0a1b1438c75961e3e7ea7db79cf9128e23f5e3eb26155523be49af84","id":127811831,"location_subtype":"","month":"2025-04"},{"category":"other-theft","location_type":"Force","location":{"latitude":"54.548493","street":{"id":2072915,"name":"On or near Troon Close"},"longitude":"-1.230188"},"context":"","outcome_status":{"category":"Status update unavailable","date":"2025-08"},"persistent_id":"7fc7b225cc8df71fea11ffda673ca3fa761d2f0940148763972b878a237c5a06","id":127813075,"location_subtype":"","month":"2025-04"},{"category":"other-theft","location_type":"Force","location":{"latitude":"54.550639","street":{"id":2071410,"name":"On or near Downside Road"},"longitude":"-1.270623"},"context":"","outcome_status":{"category":"Unable to prosecute suspect","date":"2025-04"},"persistent_id":"7813ec07bfabc2c1608fb54763c1356c213a3ddd750b9dadaa9b47e1aaba1e85","id":127813870,"location_subtype":"","month":"2025-04"},{"category":"other-theft","location_type":"Force","location":{"latitude":"54.557852","street":{"id":2071716,"name":"On or near Henley Road"},"longitude":"-1.255186"},"context":"","outcome_status":{"category":"Investigation complete; no suspect identified","date":"2025-04"},"persistent_id":"21f97fb42ac77b8e3cf9fb29c77a55e87128e9840cb88d5919be0db0a2b788f5","id":127816022,"location_subtype":"","month":"2025-04"},{"category":"other-theft","location_type":"Force","location":{"latitude":"54.550174","street":{"id":2071477,"name":"On or near Levick Crescent"},"longitude":"-1.266504"},"context":"","outcome_status":{"category":"Unable to prosecute suspect","date":"2025-06"},"persistent_id":"f3e67cb1b65b7f0289af2926adcacdef8b60507fffbb0f4ad52e628fc76974fd","id":127811305,"location_subtype":"","month":"2025-04"},{"category":"other-theft","location_type":"Force","location":{"latitude":"54.560445","street":{"id":2341844,"name":"On or near Linthorpe Road"},"longitude":"-1.242860"},"context":"","outcome_status":{"category":"Investigation complete; no suspect identified","date":"2025-05"},"persistent_id":"15056ad7ad78c38c4022b469fb626fefc64913c87fcd6cf693b19ad58441c44b","id":127816728,"location_subtype":"","month":"2025-04"},{"category":"other-theft","location_type":"Force","location":{"latitude":"54.544202","street":{"id":2072498,"name":"On or near Cranswick Drive"},"longitude":"-1.238168"},"context":"","outcome_status":{"category":"Unable to prosecute suspect","date":"2025-07"},"persistent_id":"2db634cc4594b4684a3cae2fb83ce15c4e1b10e4f8b6acfddf44a8163bf88435","id":127811603,"location_subtype":"","month":"2025-04"},{"category":"other-theft","location_type":"Force","location":{"latitude":"54.559593","street":{"id":2071708,"name":"On or near Burlam Road"},"longitude":"-1.254721"},"context":"","outcome_status":{"category":"Unable to prosecute suspect","date":"2025-04"},"persistent_id":"9261b83a90b8daa284ebc4e318f3688ee5e3db76efa871d7406408b005c3f735","id":127812551,"location_subtype":"","month":"2025-04"},{"category":"other-theft","location_type":"Force","location":{"latitude":"54.555562","street":{"id":2072901,"name":"On or near Ashfield Avenue"},"longitude":"-1.230983"},"context":"","outcome_status":{"category":"Investigation complete; no suspect identified","date":"2025-04"},"persistent_id":"fa9ba9ffa389bbf6411c91fe1f38219546b051010dbc04563cd7c27f66a9a29a","id":127816716,"location_subtype":"","month":"2025-04"},{"category":"other-theft","location_type":"Force","location":{"latitude":"54.549482","street":{"id":2071704,"name":"On or near Hardwick Avenue"},"longitude":"-1.256220"},"context":"","outcome_status":{"category":"Offender given a caution","date":"2025-08"},"persistent_id":"8022564e98233f0847845b324b0676a3e23536fd3df0ffef515cee4b1e499753","id":127811838,"location_subtype":"","month":"2025-04"},{"category":"other-theft","location_type":"Force","location":{"latitude":"54.555667","street":{"id":2071469,"name":"On or near Newbury Avenue"},"longitude":"-1.266776"},"context":"","outcome_status":{"category":"Unable to prosecute suspect","date":"2025-04"},"persistent_id":"a2e195d663ec2e98ef635ee495e68342e926fe07b17b3b19e5541ffa6615de04","id":127811591,"location_subtype":"","month":"2025-04"},{"category":"other-theft","location_type":"Force","location":{"latitude":"54.560687","street":{"id":2072500,"name":"On or near Hereford Close"},"longitude":"-1.238511"},"context":"","outcome_status":{"category":"Investigation complete; no suspect identified","date":"2025-04"},"persistent_id":"d090ad3e2fb4b89bfd7c329ec31b81f15bde555a3e26fd02aab734cbef286ef2","id":127811308,"location_subtype":"","month":"2025-04"},{"category":"possession-of-weapons","location_type":"Force","location":{"latitude":"54.550874","street":{"id":2071925,"name":"On or near Edinburgh Avenue"},"longitude":"-1.250258"},"context":"","outcome_status":{"category":"Further action is not in the public interest","date":"2025-04"},"persistent_id":"e6c0515d41b941f9793b3836de9b983bf856b96a14fd504068a9849b75cf6f95","id":127813876,"location_subtype":"","month":"2025-04"},{"category":"possession-of-weapons","location_type":"Force","location":{"latitude":"54.555025","street":{"id":2071457,"name":"On or near Derby Avenue"},"longitude":"-1.267607"},"context":"","outcome_status":{"category":"Further action is not in the public interest","date":"2025-06"},"persistent_id":"ba8e913749cf2dee68f3c00412bac385b8e6a368943a2f38e8428935d31ff7b5","id":127811832,"location_subtype":"","month":"2025-04"},{"category":"possession-of-weapons","location_type":"Force","location":{"latitude":"54.557261","street":{"id":2071511,"name":"On or near Sherborne Walk"},"longitude":"-1.264320"},"context":"","outcome_status":{"category":"Further action is not in the public interest","date":"2025-06"},"persistent_id":"010325074e408c566c89620a193ead371af25508f77ef7dfd8712e62966cd0fc","id":127811303,"location_subtype":"","month":"2025-04"},{"category":"public-order","location_type":"Force","location":{"latitude":"54.561738","street":{"id":2071607,"name":"On or near Bethune Road"},"longitude":"-1.260203"},"context":"","outcome_status":{"category":"Unable to prosecute suspect","date":"2025-04"},"persistent_id":"e2ecdf4431ee92b2441b63e516f960cf3ba190584f059d386e2644a05ffa6b67","id":127815064,"location_subtype":"","month":"2025-04"},{"category":"public-order","location_type":"Force","location":{"latitude":"54.558486","street":{"id":2072538,"name":"On or near Rochester Road"},"longitude":"-1.237191"},"context":"","outcome_status":{"category":"Unable to prosecute suspect","date":"2025-05"},"persistent_id":"7a02ecb9b6a168226d945b3d50776ce850977b95fdf57f21a32bf4178dcc6a8e","id":127816027,"location_subtype":"","month":"2025-04"},{"category":"public-order","location_type":"Force","location":{"latitude":"54.560445","street":{"id":2341844,"name":"On or near Linthorpe Road"},"longitude":"-1.242860"},"context":"","outcome_status":{"category":"Awaiting court outcome","date":"2025-11"},"persistent_id":"97b0da2453e30eb31b308c498d73424dead4abf68eef2caae34681e9ad2fe859","id":127816956,"location_subtype":"","month":"2025-04"},{"category":"public-order","location_type":"Force","location":{"latitude":"54.559593","street":{"id":2071708,"name":"On or near Burlam Road"},"longitude":"-1.254721"},"context":"","outcome_status":{"category":"Investigation complete; no suspect identified","date":"2025-04"},"persistent_id":"43bccf7e806d9fd579e22c3dcb34ac1cb2f2e276d2520ba4253462e031cde8c8","id":127814314,"location_subtype":"","month":"2025-04"},{"category":"public-order","location_type":"Force","location":{"latitude":"54.546771","street":{"id":2071781,"name":"On or near Coniston Grove"},"longitude":"-1.253796"},"context":"","outcome_status":{"category":"Unable to prosecute suspect","date":"2025-04"},"persistent_id":"02cd9502c39a903cf2dee4d340b37b2d98d783fd32d71ab3b5526db6d31c6ed2","id":127812322,"location_subtype":"","month":"2025-04"},{"category":"public-order","location_type":"Force","location":{"latitude":"54.548805","street":{"id":2071918,"name":"On or near St Mary's Walk"},"longitude":"-1.249925"},"context":"","outcome_status":{"category":"Unable to prosecute suspect","date":"2025-04"},"persistent_id":"d04957198beeb141ca6a526de0f70d482cd205bdfd561acb4258d8925fbf9217","id":127810554,"location_subtype":"","month":"2025-04"},{"category":"public-order","location_type":"Force","location":{"latitude":"54.563918","street":{"id":2071786,"name":"On or near Ayresome Green Lane"},"longitude":"-1.252261"},"context":"","outcome_status":{"category":"Unable to prosecute suspect","date":"2025-04"},"persistent_id":"512d31302f051b046e9399495eb430a2d5faaf6504593345a7496c0bcb1edb81","id":127816486,"location_subtype":"","month":"2025-04"},{"category":"public-order","location_type":"Force","location":{"latitude":"54.557412","street":{"id":2072630,"name":"On or near Eastbourne Road"},"longitude":"-1.236577"},"context":"","outcome_status":{"category":"Unable to prosecute suspect","date":"2025-04"},"persistent_id":"6f17bd27618c17c256da591fbc8b5512900f5fcd3c4c3a874d42f5c62bbe0ed5","id":127812789,"location_subtype":"","month":"2025-04"},{"category":"public-order","location_type":"Force","location":{"latitude":"54.556572","street":{"id":2072732,"name":"On or near Aspen Drive"},"longitude":"-1.234350"},"context":"","outcome_status":{"category":"Court result unavailable","date":"2025-10"},"persistent_id":"680ec7a4ce30d36a55d538693233836dfb98713aaf94288d97aa963abdd13f24","id":127815786,"location_subtype":"","month":"2025-04"},{"category":"public-order","location_type":"Force","location":{"latitude":"54.559307","street":{"id":2072074,"name":"On or near Queens Road"},"longitude":"-1.246423"},"context":"","outcome_status":{"category":"Unable to prosecute suspect","date":"2025-04"},"persistent_id":"074a68c4d92b22d0263ecd065894d132107968be983afb516db40a66055ebdca","id":127813356,"location_subtype":"","month":"2025-04"},{"category":"public-order","location_type":"Force","location":{"latitude":"54.552859","street":{"id":2071571,"name":"On or near Balfour Terrace"},"longitude":"-1.261693"},"context":"","outcome_status":{"category":"Investigation complete; no suspect identified","date":"2025-04"},"persistent_id":"2cb744a2c42e6a4137d336b5759b787895726f324ba320f94e0e4de6ed3e9c9f","id":127813623,"location_subtype":"","month":"2025-04"},{"category":"public-order","location_type":"Force","location":{"latitude":"54.555787","street":{"id":2071449,"name":"On or near Woodland Green"},"longitude":"-1.268877"},"context":"","outcome_status":{"category":"Investigation complete; no suspect identified","date":"2025-04"},"persistent_id":"b6efd5e83a288446ec7cd4ba0d8de5c4d803557f05dd702f71b246d933281684","id":127815515,"location_subtype":"","month":"2025-04"},{"category":"public-order","location_type":"Force","location":{"latitude":"54.555787","street":{"id":2071449,"name":"On or near Woodland Green"},"longitude":"-1.268877"},"context":"","outcome_status":{"category":"Unable to prosecute suspect","date":"2025-04"},"persistent_id":"a6db6cccee1ac83704e6e2a508047e482507aa3e8373988b9b266a3bf70ad326","id":127815514,"location_subtype":"","month":"2025-04"},{"category":"robbery","location_type":"Force","location":{"latitude":"54.556693","street":{"id":2071765,"name":"On or near Thornfield Road"},"longitude":"-1.253800"},"context":"","outcome_status":{"category":"Investigation complete; no suspect identified","date":"2025-07"},"persistent_id":"6518b940da8776a2d3bf485ed6f664a9b4da7baaefab8db4abfee446559c5618","id":127815301,"location_subtype":"","month":"2025-04"},{"category":"shoplifting","location_type":"Force","location":{"latitude":"54.552859","street":{"id":2071571,"name":"On or near Balfour Terrace"},"longitude":"-1.261693"},"context":"","outcome_status":{"category":"Investigation complete; no suspect identified","date":"2025-04"},"persistent_id":"5501bd413cbbc31e57b99a29873186ecf8b16351eb6c0c88ff8f15da9862497f","id":127816951,"location_subtype":"","month":"2025-04"},{"category":"shoplifting","location_type":"Force","location":{"latitude":"54.555424","street":{"id":2341688,"name":"On or near Teesside Shopping Park"},"longitude":"-1.274202"},"context":"","outcome_status":{"category":"Awaiting court outcome","date":"2025-09"},"persistent_id":"87c1ed338055bf8cad2ffebc3da6ff508886780ab519aedc91d175e1064200df","id":127812181,"location_subtype":"","month":"2025-04"},{"category":"shoplifting","location_type":"Force","location":{"latitude":"54.549587","street":{"id":2072611,"name":"On or near Beverley Road"},"longitude":"-1.234048"},"context":"","outcome_status":{"category":"Investigation complete; no suspect identified","date":"2025-04"},"persistent_id":"2b59b9492c7a9e41ce6f988e26ff74dce70ccca7ed4652bf3be4bda0fe30c74b","id":127816950,"location_subtype":"","month":"2025-04"},{"category":"shoplifting","location_type":"Force","location":{"latitude":"54.549587","street":{"id":2072611,"name":"On or near Beverley Road"},"longitude":"-1.234048"},"context":"","outcome_status":{"category":"Investigation complete; no suspect identified","date":"2025-04"},"persistent_id":"d9cc5a274d4f9cfaaa352f74c4a4e241a1ac575655dc5a09dcfcadbed340eac6","id":127816949,"location_subtype":"","month":"2025-04"},{"category":"shoplifting","location_type":"Force","location":{"latitude":"54.558778","street":{"id":2071658,"name":"On or near Waymar Close"},"longitude":"-1.258200"},"context":"","outcome_status":{"category":"Court result unavailable","date":"2025-11"},"persistent_id":"01ba0332826069cebd0be6cf590a1e3556bb92955078b5dd1145506bde1a5f1d","id":127815781,"location_subtype":"","month":"2025-04"},{"category":"shoplifting","location_type":"Force","location":{"latitude":"54.549587","street":{"id":2072611,"name":"On or near Beverley Road"},"longitude":"-1.234048"},"context":"","outcome_status":{"category":"Unable to prosecute suspect","date":"2025-05"},"persistent_id":"59aaab7664d322867833a0ee6451bbbc38aa91b4338c6be1b420d4c213b43b64","id":127811298,"location_subtype":"","month":"2025-04"},{"category":"shoplifting","location_type":"Force","location":{"latitude":"54.558778","street":{"id":2071658,"name":"On or near Waymar Close"},"longitude":"-1.258200"},"context":"","outcome_status":{"category":"Court result unavailable","date":"2025-11"},"persistent_id":"275f49d900f278a6da86862adfd46daf2b15de432ea1b2aa5a22b0495aced5da","id":127815517,"location_subtype":"","month":"2025-04"},{"category":"shoplifting","location_type":"Force","location":{"latitude":"54.558778","street":{"id":2071658,"name":"On or near Waymar Close"},"longitude":"-1.258200"},"context":"","outcome_status":{"category":"Investigation complete; no suspect identified","date":"2025-04"},"persistent_id":"64714c1d3c063f369256cb22ebf3b45ead2c078fea4ba69b580b6d796f7f156b","id":127812089,"location_subtype":"","month":"2025-04"},{"category":"shoplifting","location_type":"Force","location":{"latitude":"54.545878","street":{"id":2072366,"name":"On or near Rievaulx Drive"},"longitude":"-1.241584"},"context":"","outcome_status":{"category":"Investigation complete; no suspect identified","date":"2025-04"},"persistent_id":"1a087d3ef14d1e2765ff5862c5678f66efb6970bad9959effcd26666fa79b061","id":127816497,"location_subtype":"","month":"2025-04"},{"category":"shoplifting","location_type":"Force","location":{"latitude":"54.556572","street":{"id":2072732,"name":"On or near Aspen Drive"},"longitude":"-1.234350"},"context":"","outcome_status":{"category":"Unable to prosecute suspect","date":"2025-04"},"persistent_id":"d82dc81a83bed1819ea260757171efd0dc0a24ada76b62d2cd1aebad876d8cad","id":127816495,"location_subtype":"","month":"2025-04"},{"category":"shoplifting","location_type":"Force","location":{"latitude":"54.556544","street":{"id":2072013,"name":"On or near Roman Road"},"longitude":"-1.247092"},"context":"","outcome_status":{"category":"Investigation complete; no suspect identified","date":"2025-04"},"persistent_id":"23c6875039618f9169a4cfcb162219e0c64543249fd1320b58058075f19707a4","id":127812095,"location_subtype":"","month":"2025-04"},{"category":"shoplifting","location_type":"Force","location":{"latitude":"54.556572","street":{"id":2072732,"name":"On or near Aspen Drive"},"longitude":"-1.234350"},"context":"","outcome_status":{"category":"Investigation complete; no suspect identified","date":"2025-04"},"persistent_id":"8957c2dc679adb38dd301452b2931dfcf89b80912e3537261ea7fa05ef735ad9","id":127816494,"location_subtype":"","month":"2025-04"},{"category":"shoplifting","location_type":"Force","location":{"latitude":"54.556544","street":{"id":2072013,"name":"On or near Roman Road"},"longitude":"-1.247092"},"context":"","outcome_status":{"category":"Investigation complete; no suspect identified","date":"2025-11"},"persistent_id":"eeeaeb8dc454ff93ecc8845ccdf623ec3845b70897132898ac28909140af71fd","id":127817495,"location_subtype":"","month":"2025-04"},{"category":"shoplifting","location_type":"Force","location":{"latitude":"54.552859","street":{"id":2071571,"name":"On or near Balfour Terrace"},"longitude":"-1.261693"},"context":"","outcome_status":{"category":"Investigation complete; no suspect identified","date":"2025-05"},"persistent_id":"77a38723a85167c247bb4b324ef8c51a6b1e2721e8f6bd29ca7823d289cc9644","id":127816952,"location_subtype":"","month":"2025-04"},{"category":"shoplifting","location_type":"Force","location":{"latitude":"54.549587","street":{"id":2072611,"name":"On or near Beverley Road"},"longitude":"-1.234048"},"context":"","outcome_status":{"category":"Investigation complete; no suspect identified","date":"2025-04"},"persistent_id":"0e182d6646d69fdafce62bc5fc94353cc8fd2ba41fb62957b3c85951dd61ba97","id":127812310,"location_subtype":"","month":"2025-04"},{"category":"shoplifting","location_type":"Force","location":{"latitude":"54.558778","street":{"id":2071658,"name":"On or near Waymar Close"},"longitude":"-1.258200"},"context":"","outcome_status":{"category":"Unable to prosecute suspect","date":"2025-04"},"persistent_id":"607d3b94b33f9407ef6517614d99069d712c4027a2dadc550fccd0dbbcc4cd04","id":127814074,"location_subtype":"","month":"2025-04"},{"category":"shoplifting","location_type":"Force","location":{"latitude":"54.558778","street":{"id":2071658,"name":"On or near Waymar Close"},"longitude":"-1.258200"},"context":"","outcome_status":{"category":"Investigation complete; no suspect identified","date":"2025-04"},"persistent_id":"f364a6fb5d044d7d23816f3f067260ad6d9f181fd42e3c549f784d25bebb4503","id":127812317,"location_subtype":"","month":"2025-04"},{"category":"shoplifting","location_type":"Force","location":{"latitude":"54.552859","street":{"id":2071571,"name":"On or near Balfour Terrace"},"longitude":"-1.261693"},"context":"","outcome_status":{"category":"Investigation complete; no suspect identified","date":"2025-04"},"persistent_id":"870146454835a2022947481c3bac54d8aa91eccdd7e0692efdb3cf17f21a1862","id":127812319,"location_subtype":"","month":"2025-04"},{"category":"shoplifting","location_type":"Force","location":{"latitude":"54.552859","street":{"id":2071571,"name":"On or near Balfour Terrace"},"longitude":"-1.261693"},"context":"","outcome_status":{"category":"Investigation complete; no suspect identified","date":"2025-04"},"persistent_id":"a57c405b734c1acece25608fb7267d62cab397ec1b967cef270600964314cd21","id":127812320,"location_subtype":"","month":"2025-04"},{"category":"shoplifting","location_type":"Force","location":{"latitude":"54.558778","street":{"id":2071658,"name":"On or near Waymar Close"},"longitude":"-1.258200"},"context":"","outcome_status":{"category":"Investigation complete; no suspect identified","date":"2025-04"},"persistent_id":"d48ae8679d40038c90a6137558c4b7c62361e855c6eb22454f9d29e5d59ea544","id":127813871,"location_subtype":"","month":"2025-04"},{"category":"shoplifting","location_type":"Force","location":{"latitude":"54.554697","street":{"id":2071332,"name":"On or near Shopping Area"},"longitude":"-1.275966"},"context":"","outcome_status":{"category":"Unable to prosecute suspect","date":"2025-04"},"persistent_id":"719aa02637dd390dec96091237138870e4a203743909fddd4306f12f0ae54964","id":127812408,"location_subtype":"","month":"2025-04"},{"category":"shoplifting","location_type":"Force","location":{"latitude":"54.554697","street":{"id":2071332,"name":"On or near Shopping Area"},"longitude":"-1.275966"},"context":"","outcome_status":{"category":"Investigation complete; no suspect identified","date":"2025-04"},"persistent_id":"631ea4ed384212b0e72db30cb963852a537a43c077e26efbb194b62b766320a5","id":127812409,"location_subtype":"","month":"2025-04"},{"category":"shoplifting","location_type":"Force","location":{"latitude":"54.554697","street":{"id":2071332,"name":"On or near Shopping Area"},"longitude":"-1.275966"},"context":"","outcome_status":{"category":"Unable to prosecute suspect","date":"2025-04"},"persistent_id":"ce018f0ee765e1278eb5fc8f0a86305bf151e1acc40bde2f1bb93a1745821437","id":127812410,"location_subtype":"","month":"2025-04"},{"category":"shoplifting","location_type":"Force","location":{"latitude":"54.549587","street":{"id":2072611,"name":"On or near Beverley Road"},"longitude":"-1.234048"},"context":"","outcome_status":{"category":"Investigation complete; no suspect identified","date":"2025-05"},"persistent_id":"a7c80098919fa444d6c16f22cbcb25429d622ccf31e0eaf62d82eed1a73904a0","id":127817723,"location_subtype":"","month":"2025-04"},{"category":"shoplifting","location_type":"Force","location":{"latitude":"54.558778","street":{"id":2071658,"name":"On or near Waymar Close"},"longitude":"-1.258200"},"context":"","outcome_status":{"category":"Investigation complete; no suspect identified","date":"2025-04"},"persistent_id":"f25941939ed6276ad646bb74376ec6099f5368cbceeaf22c480985001b9a8172","id":127812550,"location_subtype":"","month":"2025-04"},{"category":"shoplifting","location_type":"Force","location":{"latitude":"54.545878","street":{"id":2072366,"name":"On or near Rievaulx Drive"},"longitude":"-1.241584"},"context":"","outcome_status":{"category":"Court result unavailable","date":"2025-10"},"persistent_id":"1fe73bc32255241b820b5a892a2082d983789dd0820809725ade531eaf3743ac","id":127814081,"location_subtype":"","month":"2025-04"},{"category":"shoplifting","location_type":"Force","location":{"latitude":"54.552859","street":{"id":2071571,"name":"On or near Balfour Terrace"},"longitude":"-1.261693"},"context":"","outcome_status":{"category":"Investigation complete; no suspect identified","date":"2025-04"},"persistent_id":"84c59c4a2080b6948721bc3c5904f635924abc28828d491e161f8c2251d64010","id":127816488,"location_subtype":"","month":"2025-04"},{"category":"shoplifting","location_type":"Force","location":{"latitude":"54.552859","street":{"id":2071571,"name":"On or near Balfour Terrace"},"longitude":"-1.261693"},"context":"","outcome_status":{"category":"Court result unavailable","date":"2025-11"},"persistent_id":"a7fe75f9389f9148e0ed296e9f0892aee0d6c5fe6f30bba46db479bfeac07db8","id":127817730,"location_subtype":"","month":"2025-04"},{"category":"shoplifting","location_type":"Force","location":{"latitude":"54.545878","street":{"id":2072366,"name":"On or near Rievaulx Drive"},"longitude":"-1.241584"},"context":"","outcome_status":{"category":"Investigation complete; no suspect identified","date":"2025-04"},"persistent_id":"34733b5b59b6c0319499aee3f22a1a17e773c66f48197bfb5bdbd4a46c600411","id":127810809,"location_subtype":"","month":"2025-04"},{"category":"shoplifting","location_type":"Force","location":{"latitude":"54.558778","street":{"id":2071658,"name":"On or near Waymar Close"},"longitude":"-1.258200"},"context":"","outcome_status":{"category":"Investigation complete; no suspect identified","date":"2025-04"},"persistent_id":"7c4203fbdf6af46354ad699c6b1938b210c7328eda7d4958eebf2c15e64b7e4b","id":127815299,"location_subtype":"","month":"2025-04"},{"category":"shoplifting","location_type":"Force","location":{"latitude":"54.549587","street":{"id":2072611,"name":"On or near Beverley Road"},"longitude":"-1.234048"},"context":"","outcome_status":{"category":"Investigation complete; no suspect identified","date":"2025-04"},"persistent_id":"ee662edd07a060530b1e18f928c419d0d66f6ed0d72c87b16fd938a8cba7cc6e","id":127814070,"location_subtype":"","month":"2025-04"},{"category":"shoplifting","location_type":"Force","location":{"latitude":"54.560445","street":{"id":2341844,"name":"On or near Linthorpe Road"},"longitude":"-1.242860"},"context":"","outcome_status":{"category":"Unable to prosecute suspect","date":"2025-05"},"persistent_id":"f078656b963faf8d88e936e5b693f9d662628cd463aded6f14958a6954e2cfee","id":127817736,"location_subtype":"","month":"2025-04"},{"category":"shoplifting","location_type":"Force","location":{"latitude":"54.558778","street":{"id":2071658,"name":"On or near Waymar Close"},"longitude":"-1.258200"},"context":"","outcome_status":{"category":"Investigation complete; no suspect identified","date":"2025-04"},"persistent_id":"9320fa9a1afc572a7bba0f31e56dd3ac734e425b799b819cb4dda780066034fb","id":127814073,"location_subtype":"","month":"2025-04"},{"category":"shoplifting","location_type":"Force","location":{"latitude":"54.556544","street":{"id":2072013,"name":"On or near Roman Road"},"longitude":"-1.247092"},"context":"","outcome_status":{"category":"Investigation complete; no suspect identified","date":"2025-04"},"persistent_id":"4295c6ca6ba75a6ada38eacb79d68531556b194239678995d8075c20dc90ed04","id":127815070,"location_subtype":"","month":"2025-04"},{"category":"shoplifting","location_type":"Force","location":{"latitude":"54.558778","street":{"id":2071658,"name":"On or near Waymar Close"},"longitude":"-1.258200"},"context":"","outcome_status":{"category":"Investigation complete; no suspect identified","date":"2025-04"},"persistent_id":"c18296a09192a000e4f499b87e10e4310215d88b910f78b4a9aca0b8117e811a","id":127810802,"location_subtype":"","month":"2025-04"},{"category":"shoplifting","location_type":"Force","location":{"latitude":"54.545878","street":{"id":2072366,"name":"On or near Rievaulx Drive"},"longitude":"-1.241584"},"context":"","outcome_status":{"category":"Court result unavailable","date":"2025-10"},"persistent_id":"2965fe96e18f8ff5a1f5ddb82deb7214dd42b2a8ff696ae1ce5029d6d11ae37b","id":127812791,"location_subtype":"","month":"2025-04"},{"category":"shoplifting","location_type":"Force","location":{"latitude":"54.554697","street":{"id":2071332,"name":"On or near Shopping Area"},"longitude":"-1.275966"},"context":"","outcome_status":{"category":"Investigation complete; no suspect identified","date":"2025-04"},"persistent_id":"741d77a63aa885d67348064bebc30506e7f90b1adf440de61daf4ea97b4cf542","id":127816343,"location_subtype":"","month":"2025-04"},{"category":"shoplifting","location_type":"Force","location":{"latitude":"54.554697","street":{"id":2071332,"name":"On or near Shopping Area"},"longitude":"-1.275966"},"context":"","outcome_status":{"category":"Investigation complete; no suspect identified","date":"2025-04"},"persistent_id":"21de57908968f476ea4ecedc2262da116d6668a85a5e53a0e27139c136bc478d","id":127816101,"location_subtype":"","month":"2025-04"},{"category":"shoplifting","location_type":"Force","location":{"latitude":"54.558778","street":{"id":2071658,"name":"On or near Waymar Close"},"longitude":"-1.258200"},"context":"","outcome_status":{"category":"Investigation complete; no suspect identified","date":"2025-04"},"persistent_id":"68bd394228a929c394daa44925990bb198bb705d1988ffe81622f898bcfc3b23","id":127814316,"location_subtype":"","month":"2025-04"},{"category":"shoplifting","location_type":"Force","location":{"latitude":"54.558778","street":{"id":2071658,"name":"On or near Waymar Close"},"longitude":"-1.258200"},"context":"","outcome_status":{"category":"Investigation complete; no suspect identified","date":"2025-04"},"persistent_id":"5a3c991dc96e7e25ae3e3dcf08b254122c1d8b86a0a524b9212327cbde28d9da","id":127814315,"location_subtype":"","month":"2025-04"},{"category":"shoplifting","location_type":"Force","location":{"latitude":"54.558778","street":{"id":2071658,"name":"On or near Waymar Close"},"longitude":"-1.258200"},"context":"","outcome_status":{"category":"Investigation complete; no suspect identified","date":"2025-04"},"persistent_id":"6bb35da664fcc925a1afcaacb17ff8e9194173f774b1e5b4bb5fe82f24c781ca","id":127814317,"location_subtype":"","month":"2025-04"},{"category":"shoplifting","location_type":"Force","location":{"latitude":"54.558778","street":{"id":2071658,"name":"On or near Waymar Close"},"longitude":"-1.258200"},"context":"","outcome_status":{"category":"Investigation complete; no suspect identified","date":"2025-04"},"persistent_id":"ba6c8b113cf0f564f6a1e5c2360a402421baf54fe8c9e0d66fdeb994b69837c9","id":127816021,"location_subtype":"","month":"2025-04"},{"category":"shoplifting","location_type":"Force","location":{"latitude":"54.558778","street":{"id":2071658,"name":"On or near Waymar Close"},"longitude":"-1.258200"},"context":"","outcome_status":{"category":"Investigation complete; no suspect identified","date":"2025-04"},"persistent_id":"9b1f5e0baa269f42ed8472c45e52b3caf1936fd19058fe0b51f76dae34ed6221","id":127813084,"location_subtype":"","month":"2025-04"},{"category":"shoplifting","location_type":"Force","location":{"latitude":"54.552859","street":{"id":2071571,"name":"On or near Balfour Terrace"},"longitude":"-1.261693"},"context":"","outcome_status":{"category":"Investigation complete; no suspect identified","date":"2025-04"},"persistent_id":"5c58be7d104437144efd50e3d2b77ed6c62980d05b71b351c7fe940b49d0dd2b","id":127814320,"location_subtype":"","month":"2025-04"},{"category":"shoplifting","location_type":"Force","location":{"latitude":"54.549587","street":{"id":2072611,"name":"On or near Beverley Road"},"longitude":"-1.234048"},"context":"","outcome_status":{"category":"Investigation complete; no suspect identified","date":"2025-04"},"persistent_id":"4c2350987b51e8b10d4bb3bfd07aa29c95724e5b004c713eb81b3ec92f375ab9","id":127813864,"location_subtype":"","month":"2025-04"},{"category":"shoplifting","location_type":"Force","location":{"latitude":"54.552859","street":{"id":2071571,"name":"On or near Balfour Terrace"},"longitude":"-1.261693"},"context":"","outcome_status":{"category":"Investigation complete; no suspect identified","date":"2025-05"},"persistent_id":"0e68fca2bc3b2766f101b67f874a784f7a4f8c269e7e14ae7178d75de04be225","id":127817227,"location_subtype":"","month":"2025-04"},{"category":"shoplifting","location_type":"Force","location":{"latitude":"54.561738","street":{"id":2071607,"name":"On or near Bethune Road"},"longitude":"-1.260203"},"context":"","outcome_status":{"category":"Investigation complete; no suspect identified","date":"2025-04"},"persistent_id":"86838879074a8643bb27fd995263540ef7416fadb8d39d4aafa822a68e6a2935","id":127813350,"location_subtype":"","month":"2025-04"},{"category":"shoplifting","location_type":"Force","location":{"latitude":"54.545878","street":{"id":2072366,"name":"On or near Rievaulx Drive"},"longitude":"-1.241584"},"context":"","outcome_status":{"category":"Court result unavailable","date":"2025-10"},"persistent_id":"c3a30e52b732d61ab36dbfd2024c2a9eac67fe5a1a0f52d1245092a789a85576","id":127815530,"location_subtype":"","month":"2025-04"},{"category":"shoplifting","location_type":"Force","location":{"latitude":"54.558778","street":{"id":2071658,"name":"On or near Waymar Close"},"longitude":"-1.258200"},"context":"","outcome_status":{"category":"Investigation complete; no suspect identified","date":"2025-04"},"persistent_id":"9bdd06eafb41c8935cd8cc571a0348a9b9cf2e0f07b9ec0416caff368d1f02e1","id":127810801,"location_subtype":"","month":"2025-04"},{"category":"shoplifting","location_type":"Force","location":{"latitude":"54.556544","street":{"id":2072013,"name":"On or near Roman Road"},"longitude":"-1.247092"},"context":"","outcome_status":{"category":"Unable to prosecute suspect","date":"2025-04"},"persistent_id":"89960e4725d861efc57f5bc53e10b04b88a01263cc38d4e53e394759a39416cb","id":127814079,"location_subtype":"","month":"2025-04"},{"category":"shoplifting","location_type":"Force","location":{"latitude":"54.558778","street":{"id":2071658,"name":"On or near Waymar Close"},"longitude":"-1.258200"},"context":"","outcome_status":{"category":"Investigation complete; no suspect identified","date":"2025-04"},"persistent_id":"5863e8449b951fc5a095ff97f7715431f0fb3928a648226f3f321fa6f7366d28","id":127815520,"location_subtype":"","month":"2025-04"},{"category":"shoplifting","location_type":"Force","location":{"latitude":"54.552859","street":{"id":2071571,"name":"On or near Balfour Terrace"},"longitude":"-1.261693"},"context":"","outcome_status":{"category":"Investigation complete; no suspect identified","date":"2025-04"},"persistent_id":"27da83f48b9776cea2070b750a20f81837d997b0d1cfc1a649995a25c4744013","id":127815069,"location_subtype":"","month":"2025-04"},{"category":"shoplifting","location_type":"Force","location":{"latitude":"54.558778","street":{"id":2071658,"name":"On or near Waymar Close"},"longitude":"-1.258200"},"context":"","outcome_status":{"category":"Investigation complete; no suspect identified","date":"2025-04"},"persistent_id":"51f480d096ee29411b5b41f1544c6ee643a0fb7c525a527c9c91448c00ae1211","id":127815519,"location_subtype":"","month":"2025-04"},{"category":"shoplifting","location_type":"Force","location":{"latitude":"54.558778","street":{"id":2071658,"name":"On or near Waymar Close"},"longitude":"-1.258200"},"context":"","outcome_status":{"category":"Investigation complete; no suspect identified","date":"2025-04"},"persistent_id":"7184d7a9ab4eaa047ec0b6c11b793fc052e8e15bdeb5f9b8dd7a2631914b4737","id":127815518,"location_subtype":"","month":"2025-04"},{"category":"shoplifting","location_type":"Force","location":{"latitude":"54.558778","street":{"id":2071658,"name":"On or near Waymar Close"},"longitude":"-1.258200"},"context":"","outcome_status":{"category":"Investigation complete; no suspect identified","date":"2025-04"},"persistent_id":"53ad8cb1c1cd9ecef7c656cc6096570f3531735582054079e083fa411c0130be","id":127813619,"location_subtype":"","month":"2025-04"},{"category":"shoplifting","location_type":"Force","location":{"latitude":"54.558778","street":{"id":2071658,"name":"On or near Waymar Close"},"longitude":"-1.258200"},"context":"","outcome_status":{"category":"Investigation complete; no suspect identified","date":"2025-04"},"persistent_id":"9986acdf3db47da8c859093e5da44f2f11569fab168fe87142eedbdd357491ba","id":127815516,"location_subtype":"","month":"2025-04"},{"category":"shoplifting","location_type":"Force","location":{"latitude":"54.552859","street":{"id":2071571,"name":"On or near Balfour Terrace"},"longitude":"-1.261693"},"context":"","outcome_status":{"category":"Investigation complete; no suspect identified","date":"2025-04"},"persistent_id":"5cd18862655dac00cfa000c5c886a82c4ba5c2109db26ffb46db0ff2aefbc3c7","id":127813621,"location_subtype":"","month":"2025-04"},{"category":"shoplifting","location_type":"Force","location":{"latitude":"54.552859","street":{"id":2071571,"name":"On or near Balfour Terrace"},"longitude":"-1.261693"},"context":"","outcome_status":{"category":"Investigation complete; no suspect identified","date":"2025-04"},"persistent_id":"e8189dc35b11484802e429b0480b2f9758cac9c25d2f8c6b60275acdb5a7358e","id":127813622,"location_subtype":"","month":"2025-04"},{"category":"shoplifting","location_type":"Force","location":{"latitude":"54.545878","street":{"id":2072366,"name":"On or near Rievaulx Drive"},"longitude":"-1.241584"},"context":"","outcome_status":{"category":"Investigation complete; no suspect identified","date":"2025-04"},"persistent_id":"4e2df9a9f1827aaaa77ab665d5ee88404fa9b16d519eb23c565a221277a27311","id":127817501,"location_subtype":"","month":"2025-04"},{"category":"shoplifting","location_type":"Force","location":{"latitude":"54.556544","street":{"id":2072013,"name":"On or near Roman Road"},"longitude":"-1.247092"},"context":"","outcome_status":{"category":"Court result unavailable","date":"2025-11"},"persistent_id":"acddff18091a79d71418ee90bdf7713e5c0a26cbde70566a47223bb67a3f2c62","id":127815785,"location_subtype":"","month":"2025-04"},{"category":"shoplifting","location_type":"Force","location":{"latitude":"54.552859","street":{"id":2071571,"name":"On or near Balfour Terrace"},"longitude":"-1.261693"},"context":"","outcome_status":{"category":"Investigation complete; no suspect identified","date":"2025-04"},"persistent_id":"f50b42d4e0abb01f82be70ada83d33842ed9dc2c5612abe6b1412396257a5cdb","id":127817487,"location_subtype":"","month":"2025-04"},{"category":"shoplifting","location_type":"Force","location":{"latitude":"54.558778","street":{"id":2071658,"name":"On or near Waymar Close"},"longitude":"-1.258200"},"context":"","outcome_status":{"category":"Investigation complete; no suspect identified","date":"2025-04"},"persistent_id":"7d298c8a78812b38a4af66364dea7ebcd6e0b3915c604556627a190e4ded0721","id":127814072,"location_subtype":"","month":"2025-04"},{"category":"shoplifting","location_type":"Force","location":{"latitude":"54.554697","street":{"id":2071332,"name":"On or near Shopping Area"},"longitude":"-1.275966"},"context":"","outcome_status":{"category":"Unable to prosecute suspect","date":"2025-04"},"persistent_id":"8f3c15bd8a577d2005e248d69b117978a13b0f978733c0177e6156a9b9e2e0af","id":127811443,"location_subtype":"","month":"2025-04"},{"category":"shoplifting","location_type":"Force","location":{"latitude":"54.554697","street":{"id":2071332,"name":"On or near Shopping Area"},"longitude":"-1.275966"},"context":"","outcome_status":{"category":"Investigation complete; no suspect identified","date":"2025-04"},"persistent_id":"1d80291b32432c7102f6eaa1d732983505ffd9eff8abb87a1e30586d6f0546ad","id":127811139,"location_subtype":"","month":"2025-04"},{"category":"shoplifting","location_type":"Force","location":{"latitude":"54.545878","street":{"id":2072366,"name":"On or near Rievaulx Drive"},"longitude":"-1.241584"},"context":"","outcome_status":{"category":"Investigation complete; no suspect identified","date":"2025-04"},"persistent_id":"b4cd138c20d97074780f8540fd22b9d1ba3f09b9c7a7739d3ecac8f8725b4016","id":127816960,"location_subtype":"","month":"2025-04"},{"category":"shoplifting","location_type":"Force","location":{"latitude":"54.545878","street":{"id":2072366,"name":"On or near Rievaulx Drive"},"longitude":"-1.241584"},"context":"","outcome_status":{"category":"Investigation complete; no suspect identified","date":"2025-05"},"persistent_id":"6d8522375cf161070299dda884a761bafa4c964b9ffa27d5c80306b37c82528b","id":127817743,"location_subtype":"","month":"2025-04"},{"category":"shoplifting","location_type":"Force","location":{"latitude":"54.558778","street":{"id":2071658,"name":"On or near Waymar Close"},"longitude":"-1.258200"},"context":"","outcome_status":{"category":"Investigation complete; no suspect identified","date":"2025-04"},"persistent_id":"d3f28eaf00c57db9d0eef53a274bf288592fd68969356c10ecf0ef9ff96c466c","id":127811593,"location_subtype":"","month":"2025-04"},{"category":"shoplifting","location_type":"Force","location":{"latitude":"54.556544","street":{"id":2072013,"name":"On or near Roman Road"},"longitude":"-1.247092"},"context":"","outcome_status":{"category":"Investigation complete; no suspect identified","date":"2025-04"},"persistent_id":"5900824ba467277fc946e3e85eca704f333e37dcb236ee567c53f62e07e29e92","id":127815524,"location_subtype":"","month":"2025-04"},{"category":"shoplifting","location_type":"Force","location":{"latitude":"54.558778","street":{"id":2071658,"name":"On or near Waymar Close"},"longitude":"-1.258200"},"context":"","outcome_status":{"category":"Investigation complete; no suspect identified","date":"2025-04"},"persistent_id":"610500391f096de17014f4aefad224c87f396f8ffc2b6dc86ca230069e393162","id":127811042,"location_subtype":"","month":"2025-04"},{"category":"shoplifting","location_type":"Force","location":{"latitude":"54.556572","street":{"id":2072732,"name":"On or near Aspen Drive"},"longitude":"-1.234350"},"context":"","outcome_status":{"category":"Unable to prosecute suspect","date":"2025-04"},"persistent_id":"11dc4b162709f12d5512fc638675f511299cca2a0f6cab3a1e6103752a8123f2","id":127816958,"location_subtype":"","month":"2025-04"},{"category":"shoplifting","location_type":"Force","location":{"latitude":"54.546395","street":{"id":2071641,"name":"On or near Petrol Station"},"longitude":"-1.258456"},"context":"","outcome_status":{"category":"Investigation complete; no suspect identified","date":"2025-05"},"persistent_id":"e3a5008a5fdfe6b450536df9dc29ec14e904dd85ecb2d7a25ea910c5e7e83563","id":127815071,"location_subtype":"","month":"2025-04"},{"category":"shoplifting","location_type":"Force","location":{"latitude":"54.558778","street":{"id":2071658,"name":"On or near Waymar Close"},"longitude":"-1.258200"},