[{"category":"anti-social-behaviour","location_type":"Force","location":{"latitude":"51.457749","street":{"id":1657100,"name":"On or near London Road"},"longitude":"-0.330673"},"context":"","outcome_status":null,"persistent_id":"","id":127556014,"location_subtype":"","month":"2025-04"},{"category":"anti-social-behaviour","location_type":"Force","location":{"latitude":"51.453575","street":{"id":1658643,"name":"On or near Vivienne Close"},"longitude":"-0.309841"},"context":"","outcome_status":null,"persistent_id":"","id":127546695,"location_subtype":"","month":"2025-04"},{"category":"anti-social-behaviour","location_type":"Force","location":{"latitude":"51.459837","street":{"id":1657583,"name":"On or near Gordon Avenue"},"longitude":"-0.324494"},"context":"","outcome_status":null,"persistent_id":"","id":127546761,"location_subtype":"","month":"2025-04"},{"category":"anti-social-behaviour","location_type":"Force","location":{"latitude":"51.450291","street":{"id":1656548,"name":"On or near Craneford Way"},"longitude":"-0.338674"},"context":"","outcome_status":null,"persistent_id":"","id":127547140,"location_subtype":"","month":"2025-04"},{"category":"anti-social-behaviour","location_type":"Force","location":{"latitude":"51.464094","street":{"id":1657053,"name":"On or near Petrol Station"},"longitude":"-0.331709"},"context":"","outcome_status":null,"persistent_id":"","id":127547585,"location_subtype":"","month":"2025-04"},{"category":"anti-social-behaviour","location_type":"Force","location":{"latitude":"51.457717","street":{"id":1658903,"name":"On or near Richmond Road"},"longitude":"-0.306492"},"context":"","outcome_status":null,"persistent_id":"","id":127548790,"location_subtype":"","month":"2025-04"},{"category":"anti-social-behaviour","location_type":"Force","location":{"latitude":"51.460289","street":{"id":1657246,"name":"On or near Crane Avenue"},"longitude":"-0.327817"},"context":"","outcome_status":null,"persistent_id":"","id":127549627,"location_subtype":"","month":"2025-04"},{"category":"anti-social-behaviour","location_type":"Force","location":{"latitude":"51.449709","street":{"id":1656762,"name":"On or near Heatham Park"},"longitude":"-0.336320"},"context":"","outcome_status":null,"persistent_id":"","id":127549902,"location_subtype":"","month":"2025-04"},{"category":"anti-social-behaviour","location_type":"Force","location":{"latitude":"51.461565","street":{"id":1658626,"name":"On or near Garrick Close"},"longitude":"-0.309575"},"context":"","outcome_status":null,"persistent_id":"","id":127550068,"location_subtype":"","month":"2025-04"},{"category":"anti-social-behaviour","location_type":"Force","location":{"latitude":"51.448810","street":{"id":1657153,"name":"On or near Nightclub"},"longitude":"-0.329992"},"context":"","outcome_status":null,"persistent_id":"","id":127549913,"location_subtype":"","month":"2025-04"},{"category":"anti-social-behaviour","location_type":"Force","location":{"latitude":"51.440479","street":{"id":1657921,"name":"On or near Russell Gardens"},"longitude":"-0.317807"},"context":"","outcome_status":null,"persistent_id":"","id":127551077,"location_subtype":"","month":"2025-04"},{"category":"anti-social-behaviour","location_type":"Force","location":{"latitude":"51.457790","street":{"id":1656504,"name":"On or near Varsity Drive"},"longitude":"-0.338618"},"context":"","outcome_status":null,"persistent_id":"","id":127551241,"location_subtype":"","month":"2025-04"},{"category":"anti-social-behaviour","location_type":"Force","location":{"latitude":"51.445777","street":{"id":1657160,"name":"On or near King Street"},"longitude":"-0.329167"},"context":"","outcome_status":null,"persistent_id":"","id":127551692,"location_subtype":"","month":"2025-04"},{"category":"anti-social-behaviour","location_type":"Force","location":{"latitude":"51.460416","street":{"id":1658787,"name":"On or near The Green"},"longitude":"-0.307803"},"context":"","outcome_status":null,"persistent_id":"","id":127552102,"location_subtype":"","month":"2025-04"},{"category":"anti-social-behaviour","location_type":"Force","location":{"latitude":"51.452729","street":{"id":1655901,"name":"On or near Alton Gardens"},"longitude":"-0.347653"},"context":"","outcome_status":null,"persistent_id":"","id":127552124,"location_subtype":"","month":"2025-04"},{"category":"anti-social-behaviour","location_type":"Force","location":{"latitude":"51.443799","street":{"id":1657106,"name":"On or near Valley Mews"},"longitude":"-0.331096"},"context":"","outcome_status":null,"persistent_id":"","id":127552578,"location_subtype":"","month":"2025-04"},{"category":"anti-social-behaviour","location_type":"Force","location":{"latitude":"51.445612","street":{"id":1656236,"name":"On or near Gravel Road"},"longitude":"-0.344801"},"context":"","outcome_status":null,"persistent_id":"","id":127552592,"location_subtype":"","month":"2025-04"},{"category":"anti-social-behaviour","location_type":"Force","location":{"latitude":"51.455875","street":{"id":1657099,"name":"On or near A316"},"longitude":"-0.330440"},"context":"","outcome_status":null,"persistent_id":"","id":127552483,"location_subtype":"","month":"2025-04"},{"category":"anti-social-behaviour","location_type":"Force","location":{"latitude":"51.448810","street":{"id":1657153,"name":"On or near Nightclub"},"longitude":"-0.329992"},"context":"","outcome_status":null,"persistent_id":"","id":127552498,"location_subtype":"","month":"2025-04"},{"category":"anti-social-behaviour","location_type":"Force","location":{"latitude":"51.448810","street":{"id":1657153,"name":"On or near Nightclub"},"longitude":"-0.329992"},"context":"","outcome_status":null,"persistent_id":"","id":127552678,"location_subtype":"","month":"2025-04"},{"category":"anti-social-behaviour","location_type":"Force","location":{"latitude":"51.455312","street":{"id":1656699,"name":"On or near Marlow Crescent"},"longitude":"-0.335714"},"context":"","outcome_status":null,"persistent_id":"","id":127553196,"location_subtype":"","month":"2025-04"},{"category":"anti-social-behaviour","location_type":"Force","location":{"latitude":"51.445854","street":{"id":1656569,"name":"On or near Lion Avenue"},"longitude":"-0.337756"},"context":"","outcome_status":null,"persistent_id":"","id":127553496,"location_subtype":"","month":"2025-04"},{"category":"anti-social-behaviour","location_type":"Force","location":{"latitude":"51.458036","street":{"id":1658405,"name":"On or near Riverdale Gardens"},"longitude":"-0.312440"},"context":"","outcome_status":null,"persistent_id":"","id":127553092,"location_subtype":"","month":"2025-04"},{"category":"anti-social-behaviour","location_type":"Force","location":{"latitude":"51.453593","street":{"id":1656685,"name":"On or near Erncroft Way"},"longitude":"-0.335604"},"context":"","outcome_status":null,"persistent_id":"","id":127553917,"location_subtype":"","month":"2025-04"},{"category":"anti-social-behaviour","location_type":"Force","location":{"latitude":"51.460033","street":{"id":1656740,"name":"On or near Mogden Lane"},"longitude":"-0.335758"},"context":"","outcome_status":null,"persistent_id":"","id":127554394,"location_subtype":"","month":"2025-04"},{"category":"anti-social-behaviour","location_type":"Force","location":{"latitude":"51.447044","street":{"id":1657988,"name":"On or near Ferry Terminal"},"longitude":"-0.315306"},"context":"","outcome_status":null,"persistent_id":"","id":127554075,"location_subtype":"","month":"2025-04"},{"category":"anti-social-behaviour","location_type":"Force","location":{"latitude":"51.456200","street":{"id":1658618,"name":"On or near Ryde Place"},"longitude":"-0.309802"},"context":"","outcome_status":null,"persistent_id":"","id":127554773,"location_subtype":"","month":"2025-04"},{"category":"anti-social-behaviour","location_type":"Force","location":{"latitude":"51.451967","street":{"id":1658688,"name":"On or near Powers Court"},"longitude":"-0.308072"},"context":"","outcome_status":null,"persistent_id":"","id":127555350,"location_subtype":"","month":"2025-04"},{"category":"anti-social-behaviour","location_type":"Force","location":{"latitude":"51.460289","street":{"id":1657246,"name":"On or near Crane Avenue"},"longitude":"-0.327817"},"context":"","outcome_status":null,"persistent_id":"","id":127555121,"location_subtype":"","month":"2025-04"},{"category":"anti-social-behaviour","location_type":"Force","location":{"latitude":"51.460289","street":{"id":1657246,"name":"On or near Crane Avenue"},"longitude":"-0.327817"},"context":"","outcome_status":null,"persistent_id":"","id":127555532,"location_subtype":"","month":"2025-04"},{"category":"anti-social-behaviour","location_type":"Force","location":{"latitude":"51.447884","street":{"id":1657142,"name":"On or near Police Station"},"longitude":"-0.329378"},"context":"","outcome_status":null,"persistent_id":"","id":127555746,"location_subtype":"","month":"2025-04"},{"category":"anti-social-behaviour","location_type":"Force","location":{"latitude":"51.441798","street":{"id":1658424,"name":"On or near Meadlands Drive"},"longitude":"-0.309470"},"context":"","outcome_status":null,"persistent_id":"","id":127556766,"location_subtype":"","month":"2025-04"},{"category":"anti-social-behaviour","location_type":"Force","location":{"latitude":"51.452729","street":{"id":1655901,"name":"On or near Alton Gardens"},"longitude":"-0.347653"},"context":"","outcome_status":null,"persistent_id":"","id":127556906,"location_subtype":"","month":"2025-04"},{"category":"anti-social-behaviour","location_type":"Force","location":{"latitude":"51.456200","street":{"id":1658618,"name":"On or near Ryde Place"},"longitude":"-0.309802"},"context":"","outcome_status":null,"persistent_id":"","id":127557371,"location_subtype":"","month":"2025-04"},{"category":"anti-social-behaviour","location_type":"Force","location":{"latitude":"51.460416","street":{"id":1658787,"name":"On or near The Green"},"longitude":"-0.307803"},"context":"","outcome_status":null,"persistent_id":"","id":127557887,"location_subtype":"","month":"2025-04"},{"category":"anti-social-behaviour","location_type":"Force","location":{"latitude":"51.450159","street":{"id":1657187,"name":"On or near Mary's Terrace"},"longitude":"-0.329367"},"context":"","outcome_status":null,"persistent_id":"","id":127558268,"location_subtype":"","month":"2025-04"},{"category":"anti-social-behaviour","location_type":"Force","location":{"latitude":"51.455827","street":{"id":1658137,"name":"On or near Arlington Road"},"longitude":"-0.316364"},"context":"","outcome_status":null,"persistent_id":"","id":127557559,"location_subtype":"","month":"2025-04"},{"category":"anti-social-behaviour","location_type":"Force","location":{"latitude":"51.460416","street":{"id":1658787,"name":"On or near The Green"},"longitude":"-0.307803"},"context":"","outcome_status":null,"persistent_id":"","id":127558812,"location_subtype":"","month":"2025-04"},{"category":"anti-social-behaviour","location_type":"Force","location":{"latitude":"51.442803","street":{"id":1656340,"name":"On or near Vicarage Road"},"longitude":"-0.341421"},"context":"","outcome_status":null,"persistent_id":"","id":127558960,"location_subtype":"","month":"2025-04"},{"category":"anti-social-behaviour","location_type":"Force","location":{"latitude":"51.453320","street":{"id":1657161,"name":"On or near Cole Road"},"longitude":"-0.329065"},"context":"","outcome_status":null,"persistent_id":"","id":127559099,"location_subtype":"","month":"2025-04"},{"category":"anti-social-behaviour","location_type":"Force","location":{"latitude":"51.454988","street":{"id":1658964,"name":"On or near Petersham Road"},"longitude":"-0.303081"},"context":"","outcome_status":null,"persistent_id":"","id":127559183,"location_subtype":"","month":"2025-04"},{"category":"anti-social-behaviour","location_type":"Force","location":{"latitude":"51.447654","street":{"id":1657264,"name":"On or near Garfield Road"},"longitude":"-0.327746"},"context":"","outcome_status":null,"persistent_id":"","id":127559449,"location_subtype":"","month":"2025-04"},{"category":"anti-social-behaviour","location_type":"Force","location":{"latitude":"51.438396","street":{"id":1658014,"name":"On or near Woodville Road"},"longitude":"-0.317408"},"context":"","outcome_status":null,"persistent_id":"","id":127559515,"location_subtype":"","month":"2025-04"},{"category":"anti-social-behaviour","location_type":"Force","location":{"latitude":"51.461565","street":{"id":1658626,"name":"On or near Garrick Close"},"longitude":"-0.309575"},"context":"","outcome_status":null,"persistent_id":"","id":127559547,"location_subtype":"","month":"2025-04"},{"category":"anti-social-behaviour","location_type":"Force","location":{"latitude":"51.446857","street":{"id":1657814,"name":"On or near Riverside"},"longitude":"-0.320450"},"context":"","outcome_status":null,"persistent_id":"","id":127560509,"location_subtype":"","month":"2025-04"},{"category":"anti-social-behaviour","location_type":"Force","location":{"latitude":"51.452418","street":{"id":1658002,"name":"On or near Norman Avenue"},"longitude":"-0.317569"},"context":"","outcome_status":null,"persistent_id":"","id":127560600,"location_subtype":"","month":"2025-04"},{"category":"anti-social-behaviour","location_type":"Force","location":{"latitude":"51.459046","street":{"id":1656573,"name":"On or near Supermarket"},"longitude":"-0.337438"},"context":"","outcome_status":null,"persistent_id":"","id":127561667,"location_subtype":"","month":"2025-04"},{"category":"anti-social-behaviour","location_type":"Force","location":{"latitude":"51.445777","street":{"id":1657160,"name":"On or near King Street"},"longitude":"-0.329167"},"context":"","outcome_status":null,"persistent_id":"","id":127561877,"location_subtype":"","month":"2025-04"},{"category":"anti-social-behaviour","location_type":"Force","location":{"latitude":"51.445682","street":{"id":1656706,"name":"On or near Prado Path"},"longitude":"-0.337057"},"context":"","outcome_status":null,"persistent_id":"","id":127561296,"location_subtype":"","month":"2025-04"},{"category":"anti-social-behaviour","location_type":"Force","location":{"latitude":"51.461565","street":{"id":1658626,"name":"On or near Garrick Close"},"longitude":"-0.309575"},"context":"","outcome_status":null,"persistent_id":"","id":127564084,"location_subtype":"","month":"2025-04"},{"category":"anti-social-behaviour","location_type":"Force","location":{"latitude":"51.448551","street":{"id":1657347,"name":"On or near Arragon Road"},"longitude":"-0.327584"},"context":"","outcome_status":null,"persistent_id":"","id":127550822,"location_subtype":"","month":"2025-04"},{"category":"anti-social-behaviour","location_type":"Force","location":{"latitude":"51.439647","street":{"id":1656807,"name":"On or near Chillingworth Gardens"},"longitude":"-0.335075"},"context":"","outcome_status":null,"persistent_id":"","id":127543150,"location_subtype":"","month":"2025-04"},{"category":"anti-social-behaviour","location_type":"Force","location":{"latitude":"51.446294","street":{"id":1657359,"name":"On or near Bell Lane"},"longitude":"-0.327019"},"context":"","outcome_status":null,"persistent_id":"","id":127543250,"location_subtype":"","month":"2025-04"},{"category":"anti-social-behaviour","location_type":"Force","location":{"latitude":"51.457749","street":{"id":1657100,"name":"On or near London Road"},"longitude":"-0.330673"},"context":"","outcome_status":null,"persistent_id":"","id":127546930,"location_subtype":"","month":"2025-04"},{"category":"anti-social-behaviour","location_type":"Force","location":{"latitude":"51.456200","street":{"id":1658618,"name":"On or near Ryde Place"},"longitude":"-0.309802"},"context":"","outcome_status":null,"persistent_id":"","id":127549676,"location_subtype":"","month":"2025-04"},{"category":"anti-social-behaviour","location_type":"Force","location":{"latitude":"51.457790","street":{"id":1656504,"name":"On or near Varsity Drive"},"longitude":"-0.338618"},"context":"","outcome_status":null,"persistent_id":"","id":127549956,"location_subtype":"","month":"2025-04"},{"category":"anti-social-behaviour","location_type":"Force","location":{"latitude":"51.452729","street":{"id":1655901,"name":"On or near Alton Gardens"},"longitude":"-0.347653"},"context":"","outcome_status":null,"persistent_id":"","id":127550295,"location_subtype":"","month":"2025-04"},{"category":"anti-social-behaviour","location_type":"Force","location":{"latitude":"51.445854","street":{"id":1656569,"name":"On or near Lion Avenue"},"longitude":"-0.337756"},"context":"","outcome_status":null,"persistent_id":"","id":127561244,"location_subtype":"","month":"2025-04"},{"category":"anti-social-behaviour","location_type":"Force","location":{"latitude":"51.457245","street":{"id":1656264,"name":"On or near Rugby Road"},"longitude":"-0.340782"},"context":"","outcome_status":null,"persistent_id":"","id":127561439,"location_subtype":"","month":"2025-04"},{"category":"anti-social-behaviour","location_type":"Force","location":{"latitude":"51.447654","street":{"id":1657264,"name":"On or near Garfield Road"},"longitude":"-0.327746"},"context":"","outcome_status":null,"persistent_id":"","id":127552813,"location_subtype":"","month":"2025-04"},{"category":"anti-social-behaviour","location_type":"Force","location":{"latitude":"51.453575","street":{"id":1658643,"name":"On or near Vivienne Close"},"longitude":"-0.309841"},"context":"","outcome_status":null,"persistent_id":"","id":127554695,"location_subtype":"","month":"2025-04"},{"category":"anti-social-behaviour","location_type":"Force","location":{"latitude":"51.448551","street":{"id":1657347,"name":"On or near Arragon Road"},"longitude":"-0.327584"},"context":"","outcome_status":null,"persistent_id":"","id":127555112,"location_subtype":"","month":"2025-04"},{"category":"anti-social-behaviour","location_type":"Force","location":{"latitude":"51.448551","street":{"id":1657347,"name":"On or near Arragon Road"},"longitude":"-0.327584"},"context":"","outcome_status":null,"persistent_id":"","id":127555625,"location_subtype":"","month":"2025-04"},{"category":"anti-social-behaviour","location_type":"Force","location":{"latitude":"51.454238","street":{"id":1657461,"name":"On or near Kenley Road"},"longitude":"-0.325375"},"context":"","outcome_status":null,"persistent_id":"","id":127545394,"location_subtype":"","month":"2025-04"},{"category":"anti-social-behaviour","location_type":"Force","location":{"latitude":"51.447640","street":{"id":1657376,"name":"On or near York Street"},"longitude":"-0.326797"},"context":"","outcome_status":null,"persistent_id":"","id":127542897,"location_subtype":"","month":"2025-04"},{"category":"anti-social-behaviour","location_type":"Force","location":{"latitude":"51.452760","street":{"id":1658737,"name":"On or near Roseleigh Close"},"longitude":"-0.307626"},"context":"","outcome_status":null,"persistent_id":"","id":127542906,"location_subtype":"","month":"2025-04"},{"category":"anti-social-behaviour","location_type":"Force","location":{"latitude":"51.448551","street":{"id":1657347,"name":"On or near Arragon Road"},"longitude":"-0.327584"},"context":"","outcome_status":null,"persistent_id":"","id":127543318,"location_subtype":"","month":"2025-04"},{"category":"anti-social-behaviour","location_type":"Force","location":{"latitude":"51.456033","street":{"id":1657809,"name":"On or near Downes Close"},"longitude":"-0.320689"},"context":"","outcome_status":null,"persistent_id":"","id":127542987,"location_subtype":"","month":"2025-04"},{"category":"anti-social-behaviour","location_type":"Force","location":{"latitude":"51.460863","street":{"id":1656979,"name":"On or near Briar Close"},"longitude":"-0.332791"},"context":"","outcome_status":null,"persistent_id":"","id":127544093,"location_subtype":"","month":"2025-04"},{"category":"anti-social-behaviour","location_type":"Force","location":{"latitude":"51.460033","street":{"id":1656740,"name":"On or near Mogden Lane"},"longitude":"-0.335758"},"context":"","outcome_status":null,"persistent_id":"","id":127544050,"location_subtype":"","month":"2025-04"},{"category":"anti-social-behaviour","location_type":"Force","location":{"latitude":"51.456585","street":{"id":1657924,"name":"On or near Nicol Close"},"longitude":"-0.319086"},"context":"","outcome_status":null,"persistent_id":"","id":127544687,"location_subtype":"","month":"2025-04"},{"category":"anti-social-behaviour","location_type":"Force","location":{"latitude":"51.457749","street":{"id":1657100,"name":"On or near London Road"},"longitude":"-0.330673"},"context":"","outcome_status":null,"persistent_id":"","id":127545247,"location_subtype":"","month":"2025-04"},{"category":"anti-social-behaviour","location_type":"Force","location":{"latitude":"51.457749","street":{"id":1657100,"name":"On or near London Road"},"longitude":"-0.330673"},"context":"","outcome_status":null,"persistent_id":"","id":127545622,"location_subtype":"","month":"2025-04"},{"category":"anti-social-behaviour","location_type":"Force","location":{"latitude":"51.458690","street":{"id":1656132,"name":"On or near Harlequin Close"},"longitude":"-0.343753"},"context":"","outcome_status":null,"persistent_id":"","id":127545511,"location_subtype":"","month":"2025-04"},{"category":"bicycle-theft","location_type":"Force","location":{"latitude":"51.461585","street":{"id":1657518,"name":"On or near Newry Road"},"longitude":"-0.324747"},"context":"","outcome_status":{"category":"Investigation complete; no suspect identified","date":"2025-04"},"persistent_id":"ba91a106b72158ca79b4eca8e95584e2a2f3ed016be3474a1c1b9470095de2c1","id":127634764,"location_subtype":"","month":"2025-04"},{"category":"bicycle-theft","location_type":"Force","location":{"latitude":"51.459046","street":{"id":1656573,"name":"On or near Supermarket"},"longitude":"-0.337438"},"context":"","outcome_status":{"category":"Investigation complete; no suspect identified","date":"2025-12"},"persistent_id":"d4f03fb41165d69e5dab9dced34c793f3cd7f6a90b0833873fc273f1144fde23","id":127634487,"location_subtype":"","month":"2025-04"},{"category":"bicycle-theft","location_type":"Force","location":{"latitude":"51.455839","street":{"id":1656561,"name":"On or near Butterfield Close"},"longitude":"-0.338631"},"context":"","outcome_status":{"category":"Investigation complete; no suspect identified","date":"2025-07"},"persistent_id":"c541151ffb7fe3d570e269fc925dd96201a05042443a23c4df9cd350090bd8f9","id":127633858,"location_subtype":"","month":"2025-04"},{"category":"bicycle-theft","location_type":"Force","location":{"latitude":"51.438118","street":{"id":1657370,"name":"On or near Breamwater Gardens"},"longitude":"-0.321850"},"context":"","outcome_status":{"category":"Investigation complete; no suspect identified","date":"2025-04"},"persistent_id":"e1af64ed83a99e6da264d480040a81672e540d4568b1a52ae3c5120067a08212","id":127634621,"location_subtype":"","month":"2025-04"},{"category":"bicycle-theft","location_type":"Force","location":{"latitude":"51.455476","street":{"id":1657584,"name":"On or near Winchester Road"},"longitude":"-0.322667"},"context":"","outcome_status":{"category":"Investigation complete; no suspect identified","date":"2025-04"},"persistent_id":"c226a55ea94f518ae0ed5498a3300278f31f0e93a775c927f6708b1bd89e15e0","id":127588694,"location_subtype":"","month":"2025-04"},{"category":"bicycle-theft","location_type":"Force","location":{"latitude":"51.456200","street":{"id":1658618,"name":"On or near Ryde Place"},"longitude":"-0.309802"},"context":"","outcome_status":{"category":"Investigation complete; no suspect identified","date":"2025-04"},"persistent_id":"7c11d86a70e96e18855f08a373318b6e499dad98756120aa85880698f785a996","id":127634169,"location_subtype":"","month":"2025-04"},{"category":"bicycle-theft","location_type":"Force","location":{"latitude":"51.453281","street":{"id":1657961,"name":"On or near Crown Road"},"longitude":"-0.318790"},"context":"","outcome_status":{"category":"Investigation complete; no suspect identified","date":"2025-04"},"persistent_id":"20cd8c91b92fb5b4ad0ffe1f28cc3cb458cd656d29439baa01ef26a609cd6ad2","id":127634611,"location_subtype":"","month":"2025-04"},{"category":"bicycle-theft","location_type":"Force","location":{"latitude":"51.444707","street":{"id":1656998,"name":"On or near Poulett Gardens"},"longitude":"-0.331120"},"context":"","outcome_status":{"category":"Investigation complete; no suspect identified","date":"2025-04"},"persistent_id":"b12431a981009bbfa0019090ffa69d13437cb4bb792afc848ae661ab271e091e","id":127634163,"location_subtype":"","month":"2025-04"},{"category":"bicycle-theft","location_type":"Force","location":{"latitude":"51.439265","street":{"id":1657971,"name":"On or near Stuart Road"},"longitude":"-0.318398"},"context":"","outcome_status":{"category":"Investigation complete; no suspect identified","date":"2025-04"},"persistent_id":"83da6ee4ed5185ef3e83081fb992002ee676dabfa57c8812567a4933bbe43a04","id":127634617,"location_subtype":"","month":"2025-04"},{"category":"bicycle-theft","location_type":"Force","location":{"latitude":"51.445777","street":{"id":1657160,"name":"On or near King Street"},"longitude":"-0.329167"},"context":"","outcome_status":{"category":"Investigation complete; no suspect identified","date":"2025-05"},"persistent_id":"99a1d85fd01c9ee5f846aaaaaa44e567cc459adfd02dd8573b7a4994c8aec886","id":127634891,"location_subtype":"","month":"2025-04"},{"category":"bicycle-theft","location_type":"Force","location":{"latitude":"51.450751","street":{"id":1656219,"name":"On or near Sports/recreation Area"},"longitude":"-0.343220"},"context":"","outcome_status":{"category":"Investigation complete; no suspect identified","date":"2025-06"},"persistent_id":"71e873221c0b2b099f9a09d4b2c3dc06ea3cda83e687ef57f7363c63e8ac6687","id":127633901,"location_subtype":"","month":"2025-04"},{"category":"bicycle-theft","location_type":"Force","location":{"latitude":"51.449103","street":{"id":1657121,"name":"On or near Railway Approach"},"longitude":"-0.330370"},"context":"","outcome_status":{"category":"Investigation complete; no suspect identified","date":"2025-07"},"persistent_id":"378f9077ebce6894eb3b2fb44ca518f2466c67b491dd80f5c8153bd4167a2e37","id":127634419,"location_subtype":"","month":"2025-04"},{"category":"bicycle-theft","location_type":"Force","location":{"latitude":"51.445290","street":{"id":1656868,"name":"On or near Heath Road"},"longitude":"-0.334164"},"context":"","outcome_status":{"category":"Investigation complete; no suspect identified","date":"2025-04"},"persistent_id":"f9bdc93b48dcfeb275db6e11a60db848a8797bbe93baa679120c64370191d716","id":127634056,"location_subtype":"","month":"2025-04"},{"category":"bicycle-theft","location_type":"Force","location":{"latitude":"51.445777","street":{"id":1657160,"name":"On or near King Street"},"longitude":"-0.329167"},"context":"","outcome_status":{"category":"Investigation complete; no suspect identified","date":"2025-04"},"persistent_id":"8779ab32c16d38b1f8533fbfa74db87065cce01ef4a81baeddc34650ca2faad5","id":127634534,"location_subtype":"","month":"2025-04"},{"category":"burglary","location_type":"Force","location":{"latitude":"51.461967","street":{"id":1657590,"name":"On or near Kilmorey Gardens"},"longitude":"-0.322530"},"context":"","outcome_status":{"category":"Investigation complete; no suspect identified","date":"2025-05"},"persistent_id":"705dede1276861699dbe1c731051c17879e297a1f14f7fb5bab71d0f8ae0620e","id":127615693,"location_subtype":"","month":"2025-04"},{"category":"burglary","location_type":"Force","location":{"latitude":"51.454871","street":{"id":1658700,"name":"On or near Cambridge Road"},"longitude":"-0.307447"},"context":"","outcome_status":{"category":"Investigation complete; no suspect identified","date":"2025-05"},"persistent_id":"6d81a029d37d59267b561b7d40933a62a17987a424f540f9327bcc8ffb9ee432","id":127619239,"location_subtype":"","month":"2025-04"},{"category":"burglary","location_type":"Force","location":{"latitude":"51.455524","street":{"id":1658734,"name":"On or near Cresswell Road"},"longitude":"-0.309049"},"context":"","outcome_status":{"category":"Court result unavailable","date":"2025-11"},"persistent_id":"7fb65bf03b012d2943288a927048aeb487606543dcfb78e5ff094496efbdbd71","id":127616674,"location_subtype":"","month":"2025-04"},{"category":"burglary","location_type":"Force","location":{"latitude":"51.453593","street":{"id":1656685,"name":"On or near Erncroft Way"},"longitude":"-0.335604"},"context":"","outcome_status":{"category":"Investigation complete; no suspect identified","date":"2026-01"},"persistent_id":"60518df174b752be9305374b00ab5575bcc31f54ba5dce5ffb481b5b173ce53e","id":127618885,"location_subtype":"","month":"2025-04"},{"category":"burglary","location_type":"Force","location":{"latitude":"51.445243","street":{"id":1657124,"name":"On or near Wharf Lane"},"longitude":"-0.328942"},"context":"","outcome_status":{"category":"Investigation complete; no suspect identified","date":"2025-04"},"persistent_id":"1b25bab2d3a251df4df3db6778f5be7dc550357cf735ce00f19058136f2aecaa","id":127615602,"location_subtype":"","month":"2025-04"},{"category":"burglary","location_type":"Force","location":{"latitude":"51.464461","street":{"id":1657445,"name":"On or near Talbot Road"},"longitude":"-0.325923"},"context":"","outcome_status":{"category":"Investigation complete; no suspect identified","date":"2025-04"},"persistent_id":"8a728e7ae2dc2de3a2372a0a8e3256b7a16e3fc08bcee3967e11a31e8a7d0bc5","id":127621098,"location_subtype":"","month":"2025-04"},{"category":"burglary","location_type":"Force","location":{"latitude":"51.454553","street":{"id":1658075,"name":"On or near Rosslyn Road"},"longitude":"-0.316570"},"context":"","outcome_status":{"category":"Unable to prosecute suspect","date":"2025-04"},"persistent_id":"60fe3951d16f269177fbb3bfd58314548d7c0c794dbf49de0c28f9a286b1bc9e","id":127616662,"location_subtype":"","month":"2025-04"},{"category":"burglary","location_type":"Force","location":{"latitude":"51.445854","street":{"id":1656569,"name":"On or near Lion Avenue"},"longitude":"-0.337756"},"context":"","outcome_status":{"category":"Investigation complete; no suspect identified","date":"2025-04"},"persistent_id":"fe3024897a24d05353749a4b89282bf3ffef193771c6221eca23f05a22599214","id":127616736,"location_subtype":"","month":"2025-04"},{"category":"burglary","location_type":"Force","location":{"latitude":"51.454371","street":{"id":1658217,"name":"On or near St Margaret's Road"},"longitude":"-0.314547"},"context":"","outcome_status":{"category":"Court result unavailable","date":"2025-12"},"persistent_id":"18e575e7c7ca4da693bbe71cf6ffc9f76509ae671a74105127e260a0d0c9a063","id":127617378,"location_subtype":"","month":"2025-04"},{"category":"burglary","location_type":"Force","location":{"latitude":"51.446422","street":{"id":1656744,"name":"On or near Grove Avenue"},"longitude":"-0.335965"},"context":"","outcome_status":{"category":"Investigation complete; no suspect identified","date":"2025-05"},"persistent_id":"61cc19ff868af76e9720b95aa540a3504967c8832f8e8b5def8ab4f33f9d2fa1","id":127618452,"location_subtype":"","month":"2025-04"},{"category":"burglary","location_type":"Force","location":{"latitude":"51.441857","street":{"id":1656708,"name":"On or near Pope's Grove"},"longitude":"-0.336865"},"context":"","outcome_status":{"category":"Investigation complete; no suspect identified","date":"2025-04"},"persistent_id":"a4c7457e36adb70f192ea71e287f98812192977b8dbabcee4bf1d3c18a6e390f","id":127614449,"location_subtype":"","month":"2025-04"},{"category":"burglary","location_type":"Force","location":{"latitude":"51.455366","street":{"id":1658124,"name":"On or near Arlington Road"},"longitude":"-0.316209"},"context":"","outcome_status":{"category":"Investigation complete; no suspect identified","date":"2025-04"},"persistent_id":"0517be623d355c58d2149fed930dc1b090ec954349b8488c6402f5cfc882dc0e","id":127618571,"location_subtype":"","month":"2025-04"},{"category":"burglary","location_type":"Force","location":{"latitude":"51.449591","street":{"id":1657595,"name":"On or near Supermarket"},"longitude":"-0.323046"},"context":"","outcome_status":{"category":"Investigation complete; no suspect identified","date":"2025-04"},"persistent_id":"a81df2e078808a1a92d7dc2fb05de945216fcdbc48b8b25008495c473a5c76a5","id":127621733,"location_subtype":"","month":"2025-04"},{"category":"burglary","location_type":"Force","location":{"latitude":"51.451484","street":{"id":1657671,"name":"On or near Marble Hill Gardens"},"longitude":"-0.321446"},"context":"","outcome_status":{"category":"Investigation complete; no suspect identified","date":"2025-05"},"persistent_id":"0b8d81e505ff18f9b6535974844dd3bccdb19a09acf13577dc05ba573678be25","id":127620888,"location_subtype":"","month":"2025-04"},{"category":"burglary","location_type":"Force","location":{"latitude":"51.448533","street":{"id":1657403,"name":"On or near Cornwall Road"},"longitude":"-0.326347"},"context":"","outcome_status":{"category":"Status update unavailable","date":"2025-08"},"persistent_id":"2e580f681c5731257d2843a19279c32d63262bba40a93dcef38fd96a945930c0","id":127617980,"location_subtype":"","month":"2025-04"},{"category":"criminal-damage-arson","location_type":"Force","location":{"latitude":"51.450211","street":{"id":1656801,"name":"On or near Craneford Close"},"longitude":"-0.335597"},"context":"","outcome_status":{"category":"Investigation complete; no suspect identified","date":"2025-05"},"persistent_id":"c9a252a38d5b571d362b77c94bd84cfe4a10e585afe9589d3f01418946050688","id":127591550,"location_subtype":"","month":"2025-04"},{"category":"criminal-damage-arson","location_type":"Force","location":{"latitude":"51.446866","street":{"id":1656537,"name":"On or near Marsh Farm Road"},"longitude":"-0.338741"},"context":"","outcome_status":{"category":"Investigation complete; no suspect identified","date":"2025-05"},"persistent_id":"1efc8f033666e6702fddfba0ef2642e56dbd2b834db44687310a30964e1b8c82","id":127593228,"location_subtype":"","month":"2025-04"},{"category":"criminal-damage-arson","location_type":"Force","location":{"latitude":"51.450161","street":{"id":1657263,"name":"On or near Beauchamp Road"},"longitude":"-0.327640"},"context":"","outcome_status":{"category":"Unable to prosecute suspect","date":"2025-04"},"persistent_id":"e044c54b27dcff032462fef95e797e4bb01decf58a0ae6d1cabcee1b34215ff1","id":127590671,"location_subtype":"","month":"2025-04"},{"category":"criminal-damage-arson","location_type":"Force","location":{"latitude":"51.450159","street":{"id":1657187,"name":"On or near Mary's Terrace"},"longitude":"-0.329367"},"context":"","outcome_status":{"category":"Offender given a caution","date":"2025-06"},"persistent_id":"b109ca38983d9f8ae025c0e2ac8403ffeebcd8be3951e4a25416cdc24c7a63f9","id":127602656,"location_subtype":"","month":"2025-04"},{"category":"criminal-damage-arson","location_type":"Force","location":{"latitude":"51.450336","street":{"id":1657182,"name":"On or near Twickenham"},"longitude":"-0.329850"},"context":"","outcome_status":{"category":"Investigation complete; no suspect identified","date":"2025-04"},"persistent_id":"c9ac518e9bc2ad6821b1108ee4bc2c0e767970471a3276941af5412b978fa91d","id":127601434,"location_subtype":"","month":"2025-04"},{"category":"criminal-damage-arson","location_type":"Force","location":{"latitude":"51.446639","street":{"id":1657409,"name":"On or near Parking Area"},"longitude":"-0.326618"},"context":"","outcome_status":{"category":"Unable to prosecute suspect","date":"2025-07"},"persistent_id":"31a554e22d66e63b4ff93565b66e873c464c046c16ee3d436cfef0fe7af760f0","id":127600293,"location_subtype":"","month":"2025-04"},{"category":"criminal-damage-arson","location_type":"Force","location":{"latitude":"51.459046","street":{"id":1656573,"name":"On or near Supermarket"},"longitude":"-0.337438"},"context":"","outcome_status":{"category":"Investigation complete; no suspect identified","date":"2025-04"},"persistent_id":"750c6c8e5403aca5e4882beff92264d77094dc63c2486a5087acbf2a515ef526","id":127595260,"location_subtype":"","month":"2025-04"},{"category":"criminal-damage-arson","location_type":"Force","location":{"latitude":"51.449709","street":{"id":1656762,"name":"On or near Heatham Park"},"longitude":"-0.336320"},"context":"","outcome_status":{"category":"Unable to prosecute suspect","date":"2025-06"},"persistent_id":"44afaf4ad9e018ee89f6d3bb9afd08a675fdb3a1ef86cc9f330a13b2375e7e27","id":127599441,"location_subtype":"","month":"2025-04"},{"category":"criminal-damage-arson","location_type":"Force","location":{"latitude":"51.446457","street":{"id":1656106,"name":"On or near Barneby Close"},"longitude":"-0.346109"},"context":"","outcome_status":{"category":"Investigation complete; no suspect identified","date":"2025-04"},"persistent_id":"0db9e78f5e0a553531f7d71800562bc9bc614b3ebb44caea04f1bb462807b380","id":127598779,"location_subtype":"","month":"2025-04"},{"category":"criminal-damage-arson","location_type":"Force","location":{"latitude":"51.465059","street":{"id":1657660,"name":"On or near Railshead Road"},"longitude":"-0.322460"},"context":"","outcome_status":{"category":"Investigation complete; no suspect identified","date":"2025-04"},"persistent_id":"ec5e7631c2676a42f4325f75ec793729b022b18b042f4d8a6567fd51f4b72594","id":127595062,"location_subtype":"","month":"2025-04"},{"category":"criminal-damage-arson","location_type":"Force","location":{"latitude":"51.456676","street":{"id":1657808,"name":"On or near Westmorland Close"},"longitude":"-0.321011"},"context":"","outcome_status":{"category":"Investigation complete; no suspect identified","date":"2025-04"},"persistent_id":"e418379b1aefc143bb2c70557eca0bbb3c7525ec02de6448d7349d0304e4a836","id":127601111,"location_subtype":"","month":"2025-04"},{"category":"criminal-damage-arson","location_type":"Force","location":{"latitude":"51.458036","street":{"id":1658405,"name":"On or near Riverdale Gardens"},"longitude":"-0.312440"},"context":"","outcome_status":{"category":"Investigation complete; no suspect identified","date":"2025-04"},"persistent_id":"fc3db53795ec10cd173a7c6578928500f9506f2a057c5a0b93d2faced31bdf72","id":127593949,"location_subtype":"","month":"2025-04"},{"category":"criminal-damage-arson","location_type":"Force","location":{"latitude":"51.454077","street":{"id":1657957,"name":"On or near King's Road"},"longitude":"-0.318516"},"context":"","outcome_status":{"category":"Investigation complete; no suspect identified","date":"2025-06"},"persistent_id":"a206153897908a1bd1c921206be3725b18e3c885ade44f64680db0dbc178db9b","id":127600237,"location_subtype":"","month":"2025-04"},{"category":"criminal-damage-arson","location_type":"Force","location":{"latitude":"51.456137","street":{"id":1657744,"name":"On or near Bridge Road"},"longitude":"-0.321722"},"context":"","outcome_status":{"category":"Investigation complete; no suspect identified","date":"2025-05"},"persistent_id":"4c6d5ce9371005bd653bd16251c4adc9c354e74c3c35c06027570d2d1ec3f74b","id":127598589,"location_subtype":"","month":"2025-04"},{"category":"criminal-damage-arson","location_type":"Force","location":{"latitude":"51.465059","street":{"id":1657660,"name":"On or near Railshead Road"},"longitude":"-0.322460"},"context":"","outcome_status":{"category":"Investigation complete; no suspect identified","date":"2025-04"},"persistent_id":"17298964ddfb631c329a04300a4ddcaf0bd2ef42499ef4bf046179ee299495df","id":127597206,"location_subtype":"","month":"2025-04"},{"category":"criminal-damage-arson","location_type":"Force","location":{"latitude":"51.454036","street":{"id":1656652,"name":"On or near Whitton Road"},"longitude":"-0.337703"},"context":"","outcome_status":{"category":"Investigation complete; no suspect identified","date":"2025-04"},"persistent_id":"b534148d1348999b99c4dc47c50edb8ecdd4965b22c1791083c99ebccf2fd51a","id":127599765,"location_subtype":"","month":"2025-04"},{"category":"criminal-damage-arson","location_type":"Force","location":{"latitude":"51.458690","street":{"id":1656132,"name":"On or near Harlequin Close"},"longitude":"-0.343753"},"context":"","outcome_status":{"category":"Investigation complete; no suspect identified","date":"2025-04"},"persistent_id":"aefcdb5f0231b2f50c78ed9159dee58c968d8077ea0d7e6596d7a9acd69cc213","id":127597978,"location_subtype":"","month":"2025-04"},{"category":"drugs","location_type":"Force","location":{"latitude":"51.455427","street":{"id":1656574,"name":"On or near Rugby Road"},"longitude":"-0.338804"},"context":"","outcome_status":{"category":"Unable to prosecute suspect","date":"2025-04"},"persistent_id":"c10c6fa451f8aa64858a749ce1bf3214db875fe650091ce67a71ade301d2f522","id":127668017,"location_subtype":"","month":"2025-04"},{"category":"drugs","location_type":"Force","location":{"latitude":"51.451849","street":{"id":1657800,"name":"On or near Marble Hill Close"},"longitude":"-0.320541"},"context":"","outcome_status":{"category":"Unable to prosecute suspect","date":"2025-07"},"persistent_id":"21778ebed953ae26a769f3b605051f9a815df6b13891e53e7cfe1977a73c1eff","id":127670749,"location_subtype":"","month":"2025-04"},{"category":"drugs","location_type":"Force","location":{"latitude":"51.438396","street":{"id":1658014,"name":"On or near Woodville Road"},"longitude":"-0.317408"},"context":"","outcome_status":{"category":"Unable to prosecute suspect","date":"2025-04"},"persistent_id":"80919e672d9f14e3779e7d09a632e15daab9c3b3370c5c58a57e3eb15e996f08","id":127668179,"location_subtype":"","month":"2025-04"},{"category":"drugs","location_type":"Force","location":{"latitude":"51.458538","street":{"id":1656820,"name":"On or near Summerwood Road"},"longitude":"-0.333668"},"context":"","outcome_status":{"category":"Status update unavailable","date":"2025-08"},"persistent_id":"f606b545fd9b64501a076b04f5b2998c584419ff1381f3a3ad114674bbcd177a","id":127670717,"location_subtype":"","month":"2025-04"},{"category":"drugs","location_type":"Force","location":{"latitude":"51.439443","street":{"id":1658230,"name":"On or near Wiggins Lane"},"longitude":"-0.314521"},"context":"","outcome_status":{"category":"Unable to prosecute suspect","date":"2025-04"},"persistent_id":"1804b854f4886c4b03c92616355d0282cab1a9d8a95e05cf05fbfdd6ecd34853","id":127668237,"location_subtype":"","month":"2025-04"},{"category":"drugs","location_type":"Force","location":{"latitude":"51.438396","street":{"id":1658014,"name":"On or near Woodville Road"},"longitude":"-0.317408"},"context":"","outcome_status":{"category":"Unable to prosecute suspect","date":"2025-04"},"persistent_id":"004165ec7f959383df975962fd5a11698d9f0eba091bfe50ce67b4ff2b71e6fb","id":127667921,"location_subtype":"","month":"2025-04"},{"category":"drugs","location_type":"Force","location":{"latitude":"51.438396","street":{"id":1658014,"name":"On or near Woodville Road"},"longitude":"-0.317408"},"context":"","outcome_status":{"category":"Unable to prosecute suspect","date":"2025-04"},"persistent_id":"bbcca25d5e79768ee0c5b0f5ab4c672de37e6e7820d26796399f95594eea5de0","id":127667713,"location_subtype":"","month":"2025-04"},{"category":"drugs","location_type":"Force","location":{"latitude":"51.439443","street":{"id":1658230,"name":"On or near Wiggins Lane"},"longitude":"-0.314521"},"context":"","outcome_status":{"category":"Unable to prosecute suspect","date":"2025-04"},"persistent_id":"37bd9cac721db8da5717d85cdc3f31af5506e7b6b79be535dce03fa94ec9bb5f","id":127667575,"location_subtype":"","month":"2025-04"},{"category":"drugs","location_type":"Force","location":{"latitude":"51.439443","street":{"id":1658230,"name":"On or near Wiggins Lane"},"longitude":"-0.314521"},"context":"","outcome_status":{"category":"Unable to prosecute suspect","date":"2025-04"},"persistent_id":"c640f49648dfc80127edf88467adca4bac68d1cb3cc79b76632c9b66b6abc019","id":127668151,"location_subtype":"","month":"2025-04"},{"category":"drugs","location_type":"Force","location":{"latitude":"51.458538","street":{"id":1656820,"name":"On or near Summerwood Road"},"longitude":"-0.333668"},"context":"","outcome_status":{"category":"Local resolution","date":"2025-04"},"persistent_id":"c5e6a94be6272a1955ad7c841ab1715abd8a6a8671dfc1969010775463d007e3","id":127671558,"location_subtype":"","month":"2025-04"},{"category":"drugs","location_type":"Force","location":{"latitude":"51.443585","street":{"id":1656335,"name":"On or near The Green"},"longitude":"-0.341378"},"context":"","outcome_status":{"category":"Local resolution","date":"2025-06"},"persistent_id":"f3b03c2c2502b5ed279d1c31ef68e2d2178e64ea9572ce7cd07f5a6b5fbecf9b","id":127670255,"location_subtype":"","month":"2025-04"},{"category":"drugs","location_type":"Force","location":{"latitude":"51.438396","street":{"id":1658014,"name":"On or near Woodville Road"},"longitude":"-0.317408"},"context":"","outcome_status":{"category":"Unable to prosecute suspect","date":"2025-04"},"persistent_id":"f8718980d38745e70108f1e13608097c9e3454e877df0336fd60e1edd559c203","id":127668026,"location_subtype":"","month":"2025-04"},{"category":"drugs","location_type":"Force","location":{"latitude":"51.438396","street":{"id":1658014,"name":"On or near Woodville Road"},"longitude":"-0.317408"},"context":"","outcome_status":{"category":"Unable to prosecute suspect","date":"2025-04"},"persistent_id":"3deda8a59c3fff203e64a0755f0c4836569fec0c8016f28e900d834c07de1a70","id":127667867,"location_subtype":"","month":"2025-04"},{"category":"drugs","location_type":"Force","location":{"latitude":"51.463149","street":{"id":1657132,"name":"On or near Redlees Close"},"longitude":"-0.329742"},"context":"","outcome_status":{"category":"Unable to prosecute suspect","date":"2025-04"},"persistent_id":"4dc352f89215993ec12a225a5af07446e1080e506066e5fd27cfee64348eeac5","id":127668051,"location_subtype":"","month":"2025-04"},{"category":"drugs","location_type":"Force","location":{"latitude":"51.450159","street":{"id":1657187,"name":"On or near Mary's Terrace"},"longitude":"-0.329367"},"context":"","outcome_status":{"category":"Court result unavailable","date":"2025-10"},"persistent_id":"9059d5387cb881cb7be0314ffd92093e428011491be060d7d2a463ea4323517c","id":127669519,"location_subtype":"","month":"2025-04"},{"category":"other-theft","location_type":"Force","location":{"latitude":"51.459571","street":{"id":1657704,"name":"On or near Ailsa Road"},"longitude":"-0.320991"},"context":"","outcome_status":{"category":"Investigation complete; no suspect identified","date":"2025-04"},"persistent_id":"6f91c061a9b2ea72658b822b0ebf04f748b5b60ba4c21dbd312993f17c5726d9","id":127654406,"location_subtype":"","month":"2025-04"},{"category":"other-theft","location_type":"Force","location":{"latitude":"51.439647","street":{"id":1656807,"name":"On or near Chillingworth Gardens"},"longitude":"-0.335075"},"context":"","outcome_status":{"category":"Investigation complete; no suspect identified","date":"2025-04"},"persistent_id":"6c3da2bc010591128c1c109ac98e7b32b741280e33881fd125beb7a5be50c081","id":127624861,"location_subtype":"","month":"2025-04"},{"category":"other-theft","location_type":"Force","location":{"latitude":"51.457717","street":{"id":1658903,"name":"On or near Richmond Road"},"longitude":"-0.306492"},"context":"","outcome_status":{"category":"Investigation complete; no suspect identified","date":"2025-04"},"persistent_id":"532d84bc7092165bc076949b0a511e054f6a2bd9448c84ade3708de1d74abca3","id":127654291,"location_subtype":"","month":"2025-04"},{"category":"other-theft","location_type":"Force","location":{"latitude":"51.444903","street":{"id":1656334,"name":"On or near Knight's Place"},"longitude":"-0.343028"},"context":"","outcome_status":{"category":"Investigation complete; no suspect identified","date":"2025-05"},"persistent_id":"81d8224f2268d6572aa1b5f7b45c6a78d0b1a39dd0accc7b783d68bbdd1f2c5a","id":127648092,"location_subtype":"","month":"2025-04"},{"category":"other-theft","location_type":"Force","location":{"latitude":"51.462428","street":{"id":1657712,"name":"On or near Kilmorey Road"},"longitude":"-0.321419"},"context":"","outcome_status":{"category":"Investigation complete; no suspect identified","date":"2025-04"},"persistent_id":"33b693713492c8842c05ab5a5869b67d3efe3fbf657008a5ddaf6346739f9907","id":127648527,"location_subtype":"","month":"2025-04"},{"category":"other-theft","location_type":"Force","location":{"latitude":"51.447640","street":{"id":1657376,"name":"On or near York Street"},"longitude":"-0.326797"},"context":"","outcome_status":{"category":"Investigation complete; no suspect identified","date":"2025-04"},"persistent_id":"b59b9b38a19d7e05437880eedcfc1bfede59c095b365ee7dd26dd2c19e44158e","id":127649918,"location_subtype":"","month":"2025-04"},{"category":"other-theft","location_type":"Force","location":{"latitude":"51.456033","street":{"id":1657809,"name":"On or near Downes Close"},"longitude":"-0.320689"},"context":"","outcome_status":{"category":"Investigation complete; no suspect identified","date":"2025-04"},"persistent_id":"2f890f4ce8e855eeaa069288c9b13f5e3e1499f13e118575108d5fee94d4620a","id":127651320,"location_subtype":"","month":"2025-04"},{"category":"other-theft","location_type":"Force","location":{"latitude":"51.444707","street":{"id":1656998,"name":"On or near Poulett Gardens"},"longitude":"-0.331120"},"context":"","outcome_status":{"category":"Investigation complete; no suspect identified","date":"2025-05"},"persistent_id":"6c3c12452313f2e9a0d0038f9045e05fe45e5a02757b5add69a9a2a2853aa4b1","id":127653803,"location_subtype":"","month":"2025-04"},{"category":"other-theft","location_type":"Force","location":{"latitude":"51.459278","street":{"id":1657051,"name":"On or near Shopping Area"},"longitude":"-0.331424"},"context":"","outcome_status":{"category":"Investigation complete; no suspect identified","date":"2025-08"},"persistent_id":"bb2f71864b723dbb189b232961c9837788d8e41d52cdb86e2928102d76aac74b","id":127654531,"location_subtype":"","month":"2025-04"},{"category":"other-theft","location_type":"Force","location":{"latitude":"51.455312","street":{"id":1656699,"name":"On or near Marlow Crescent"},"longitude":"-0.335714"},"context":"","outcome_status":{"category":"Investigation complete; no suspect identified","date":"2025-04"},"persistent_id":"a2cb474a3c2d4e342c8de50ccca48715fb0aecd65e8984383def30b0792bca1c","id":127624881,"location_subtype":"","month":"2025-04"},{"category":"other-theft","location_type":"Force","location":{"latitude":"51.454967","street":{"id":1658639,"name":"On or near Morley Road"},"longitude":"-0.309718"},"context":"","outcome_status":{"category":"Investigation complete; no suspect identified","date":"2025-04"},"persistent_id":"1eef61c25272aa6b1944d26e62e711ad41ce57cf55c3b5859746cd085cd3eddf","id":127633644,"location_subtype":"","month":"2025-04"},{"category":"other-theft","location_type":"Force","location":{"latitude":"51.444812","street":{"id":1656725,"name":"On or near Saville Road"},"longitude":"-0.336585"},"context":"","outcome_status":{"category":"Investigation complete; no suspect identified","date":"2025-04"},"persistent_id":"65e80073e80a73c4ea292c945374b4f064c45ba7490cf795f216e0d4027d337a","id":127653001,"location_subtype":"","month":"2025-04"},{"category":"other-theft","location_type":"Force","location":{"latitude":"51.455257","street":{"id":1656370,"name":"On or near Sports/recreation Area"},"longitude":"-0.340725"},"context":"","outcome_status":{"category":"Investigation complete; no suspect identified","date":"2025-05"},"persistent_id":"542b5419d4d85e13cd8dddcfc010d1c6ee4b8045f75f74be0c6dfd684d6261e7","id":127653980,"location_subtype":"","month":"2025-04"},{"category":"other-theft","location_type":"Force","location":{"latitude":"51.452091","street":{"id":1658264,"name":"On or near Beaufort Road"},"longitude":"-0.312976"},"context":"","outcome_status":{"category":"Investigation complete; no suspect identified","date":"2025-05"},"persistent_id":"50d38d2830e27cf792481006335b59d3e8c24c0697050274ecaf8a6c738eb1d7","id":127650949,"location_subtype":"","month":"2025-04"},{"category":"other-theft","location_type":"Force","location":{"latitude":"51.452418","street":{"id":1658002,"name":"On or near Norman Avenue"},"longitude":"-0.317569"},"context":"","outcome_status":{"category":"Unable to prosecute suspect","date":"2025-06"},"persistent_id":"c84e7a63924af2d0047baa2a7cdeb461108996d32e75ca8d194dd17ae2d14ca7","id":127633109,"location_subtype":"","month":"2025-04"},{"category":"possession-of-weapons","location_type":"Force","location":{"latitude":"51.439623","street":{"id":1657876,"name":"On or near Link Way"},"longitude":"-0.319507"},"context":"","outcome_status":{"category":"Unable to prosecute suspect","date":"2025-04"},"persistent_id":"2d0b0b16972630f11bf76d764b34450d96554b323d0c0dfcb1963f9f9aff365e","id":127666570,"location_subtype":"","month":"2025-04"},{"category":"possession-of-weapons","location_type":"Force","location":{"latitude":"51.440718","street":{"id":1658060,"name":"On or near Murray Road"},"longitude":"-0.316906"},"context":"","outcome_status":{"category":"Court result unavailable","date":"2026-01"},"persistent_id":"8e93292a73030b8173bb3914652300c1761a00dff6602b3415414402e1107ed5","id":127667293,"location_subtype":"","month":"2025-04"},{"category":"public-order","location_type":"Force","location":{"latitude":"51.455968","street":{"id":1658549,"name":"On or near Parking Area"},"longitude":"-0.310544"},"context":"","outcome_status":{"category":"Unable to prosecute suspect","date":"2025-05"},"persistent_id":"2a852c99135e5b1ba264819f99d6fd987bb6da85b7f7e4aff5e11e6381da5ac9","id":127585588,"location_subtype":"","month":"2025-04"},{"category":"public-order","location_type":"Force","location":{"latitude":"51.456033","street":{"id":1657809,"name":"On or near Downes Close"},"longitude":"-0.320689"},"context":"","outcome_status":{"category":"Unable to prosecute suspect","date":"2025-04"},"persistent_id":"217681c542c62cbab66c3e540378b59b430f190c9867905dde3da46b9e683845","id":127584207,"location_subtype":"","month":"2025-04"},{"category":"public-order","location_type":"Force","location":{"latitude":"51.447813","street":{"id":1657438,"name":"On or near Parking Area"},"longitude":"-0.325078"},"context":"","outcome_status":{"category":"Awaiting court outcome","date":"2025-10"},"persistent_id":"beb3d6d56db08cf24cc2baf09acfc0ef68f1b7c331a9e720b9afc227b2f22bc1","id":127656367,"location_subtype":"","month":"2025-04"},{"category":"public-order","location_type":"Force","location":{"latitude":"51.455968","street":{"id":1658549,"name":"On or near Parking Area"},"longitude":"-0.310544"},"context":"","outcome_status":{"category":"Investigation complete; no suspect identified","date":"2025-06"},"persistent_id":"6ffe946a06e69030b1c3b2e6ad76a1579ff1f2f1ad51f402eae557dbf46afc69","id":127585081,"location_subtype":"","month":"2025-04"},{"category":"public-order","location_type":"Force","location":{"latitude":"51.448551","street":{"id":1657347,"name":"On or near Arragon Road"},"longitude":"-0.327584"},"context":"","outcome_status":{"category":"Unable to prosecute suspect","date":"2025-04"},"persistent_id":"440e79f4c49bec1eda1e22974a4f257fcef1f7829e245a40b15f8eba3e13ba4c","id":127580646,"location_subtype":"","month":"2025-04"},{"category":"public-order","location_type":"Force","location":{"latitude":"51.446888","street":{"id":1657185,"name":"On or near Parking Area"},"longitude":"-0.328911"},"context":"","outcome_status":{"category":"Investigation complete; no suspect identified","date":"2025-05"},"persistent_id":"2a5bc596c0a5888555d676b4d0474467ce54242779899cf36c5bc16491c87da2","id":127656339,"location_subtype":"","month":"2025-04"},{"category":"public-order","location_type":"Force","location":{"latitude":"51.447884","street":{"id":1657142,"name":"On or near Police Station"},"longitude":"-0.329378"},"context":"","outcome_status":{"category":"Status update unavailable","date":"2025-08"},"persistent_id":"e44552983b16615dfb119f1682c9ddc8401cd7aacca656208d3c65790fef1a59","id":127656261,"location_subtype":"","month":"2025-04"},{"category":"public-order","location_type":"Force","location":{"latitude":"51.458690","street":{"id":1656132,"name":"On or near Harlequin Close"},"longitude":"-0.343753"},"context":"","outcome_status":{"category":"Investigation complete; no suspect identified","date":"2025-04"},"persistent_id":"8ac623f7e547e85cf1e2021375b8c1ebf4c16dcb0a5d4e89c4d2b3ed9894578b","id":127584989,"location_subtype":"","month":"2025-04"},{"category":"robbery","location_type":"Force","location":{"latitude":"51.447884","street":{"id":1657142,"name":"On or near Police Station"},"longitude":"-0.329378"},"context":"","outcome_status":{"category":"Investigation complete; no suspect identified","date":"2025-05"},"persistent_id":"da0e36358cc6d2f4d290783a85a9e263ba7a9ca49051f01960015ba717ea2faf","id":127624557,"location_subtype":"","month":"2025-04"},{"category":"robbery","location_type":"Force","location":{"latitude":"51.445777","street":{"id":1657160,"name":"On or near King Street"},"longitude":"-0.329167"},"context":"","outcome_status":{"category":"Unable to prosecute suspect","date":"2025-04"},"persistent_id":"1403b7e06b970083ed70387dec7139adbaea4eacc8ecb242ec784a7bd60064a8","id":127623731,"location_subtype":"","month":"2025-04"},{"category":"robbery","location_type":"Force","location":{"latitude":"51.447654","street":{"id":1657264,"name":"On or near Garfield Road"},"longitude":"-0.327746"},"context":"","outcome_status":{"category":"Investigation complete; no suspect identified","date":"2025-06"},"persistent_id":"6b1546ba6913c8cbf03ba6d17e818efff57efc7dda5d5a611bfcfa456e9def53","id":127622946,"location_subtype":"","month":"2025-04"},{"category":"robbery","location_type":"Force","location":{"latitude":"51.446132","street":{"id":1657257,"name":"On or near Water Lane"},"longitude":"-0.327586"},"context":"","outcome_status":{"category":"Investigation complete; no suspect identified","date":"2025-05"},"persistent_id":"54d1ff2d7262c49fe44fa158149f5496db0cdb05ba9abe4f72d7bb26959e4ce8","id":127624517,"location_subtype":"","month":"2025-04"},{"category":"robbery","location_type":"Force","location":{"latitude":"51.455968","street":{"id":1658549,"name":"On or near Parking Area"},"longitude":"-0.310544"},"context":"","outcome_status":{"category":"Unable to prosecute suspect","date":"2025-05"},"persistent_id":"d66910802fefb7ad2bbb770a5db667ddaf4e9ab1a8222c26481c2e03fd973ca2","id":127623522,"location_subtype":"","month":"2025-04"},{"category":"robbery","location_type":"Force","location":{"latitude":"51.447044","street":{"id":1657988,"name":"On or near Ferry Terminal"},"longitude":"-0.315306"},"context":"","outcome_status":{"category":"Unable to prosecute suspect","date":"2025-05"},"persistent_id":"4e3e79f3691005a805b037220219c6505015831317eb664a9d74eac3eb24b2c3","id":127623046,"location_subtype":"","month":"2025-04"},{"category":"robbery","location_type":"Force","location":{"latitude":"51.449591","street":{"id":1657595,"name":"On or near Supermarket"},"longitude":"-0.323046"},"context":"","outcome_status":{"category":"Investigation complete; no suspect identified","date":"2025-04"},"persistent_id":"ba45d61f0741441d553d24feda2ac44931a0faef904a77b369069dfa8f3301f1","id":127622275,"location_subtype":"","month":"2025-04"},{"category":"shoplifting","location_type":"Force","location":{"latitude":"51.448562","street":{"id":1657229,"name":"On or near Supermarket"},"longitude":"-0.328818"},"context":"","outcome_status":{"category":"Investigation complete; no suspect identified","date":"2025-06"},"persistent_id":"2d928acc0f476b4b76b2801842f26c724082bb4afc30c675fc2fe37c63549559","id":127641527,"location_subtype":"","month":"2025-04"},{"category":"shoplifting","location_type":"Force","location":{"latitude":"51.449591","street":{"id":1657595,"name":"On or near Supermarket"},"longitude":"-0.323046"},"context":"","outcome_status":{"category":"Investigation complete; no suspect identified","date":"2025-04"},"persistent_id":"a83473aedd752d8ede49485dd30721bd8aae9ac1c986d43ecd597bec2c89cd6b","id":127640522,"location_subtype":"","month":"2025-04"},{"category":"shoplifting","location_type":"Force","location":{"latitude":"51.445243","street":{"id":1657124,"name":"On or near Wharf Lane"},"longitude":"-0.328942"},"context":"","outcome_status":{"category":"Investigation complete; no suspect identified","date":"2025-04"},"persistent_id":"b90047c33f251aed2ba40f8a87d5948bab3c61df9554ea433cc9e2e890de823b","id":127640779,"location_subtype":"","month":"2025-04"},{"category":"shoplifting","location_type":"Force","location":{"latitude":"51.456200","street":{"id":1658618,"name":"On or near Ryde Place"},"longitude":"-0.309802"},"context":"","outcome_status":{"category":"Investigation complete; no suspect identified","date":"2025-07"},"persistent_id":"c013fe10e60ca483e8f0ce87b12f48a0c7a08048e7f9348f47a9525b5ed489ed","id":127641615,"location_subtype":"","month":"2025-04"},{"category":"shoplifting","location_type":"Force","location":{"latitude":"51.449591","street":{"id":1657595,"name":"On or near Supermarket"},"longitude":"-0.323046"},"context":"","outcome_status":{"category":"Investigation complete; no suspect identified","date":"2025-04"},"persistent_id":"7c1455612d293f0696a232231cd60074f110f82039d0d64af190045f01d0eb8b","id":127640947,"location_subtype":"","month":"2025-04"},{"category":"shoplifting","location_type":"Force","location":{"latitude":"51.446132","street":{"id":1657257,"name":"On or near Water Lane"},"longitude":"-0.327586"},"context":"","outcome_status":{"category":"Investigation complete; no suspect identified","date":"2025-04"},"persistent_id":"b5e1962a3021d5ec545e061f017c30e46ca201edc436f72312506a55c42e1fd5","id":127642166,"location_subtype":"","month":"2025-04"},{"category":"shoplifting","location_type":"Force","location":{"latitude":"51.445777","street":{"id":1657160,"name":"On or near King Street"},"longitude":"-0.329167"},"context":"","outcome_status":{"category":"Investigation complete; no suspect identified","date":"2025-04"},"persistent_id":"9de6ffccf3c022c80d3548c82ceb402dcc8e2035f8074d2de1f22b5e82526a9f","id":127641922,"location_subtype":"","month":"2025-04"},{"category":"shoplifting","location_type":"Force","location":{"latitude":"51.445777","street":{"id":1657160,"name":"On or near King Street"},"longitude":"-0.329167"},"context":"","outcome_status":{"category":"Investigation complete; no suspect identified","date":"2025-04"},"persistent_id":"2e4f1622e4580cb64e71c9d674ca3b5d30780023206aaae68bc513e75409f87a","id":127642085,"location_subtype":"","month":"2025-04"},{"category":"shoplifting","location_type":"Force","location":{"latitude":"51.449591","street":{"id":1657595,"name":"On or near Supermarket"},"longitude":"-0.323046"},"context":"","outcome_status":{"category":"Investigation complete; no suspect identified","date":"2025-04"},"persistent_id":"0a78209b412c031b6b73ab664f720f2b0315620350b519b284186d1705561af7","id":127642796,"location_subtype":"","month":"2025-04"},{"category":"shoplifting","location_type":"Force","location":{"latitude":"51.444866","street":{"id":1656442,"name":"On or near Knowle Road"},"longitude":"-0.340396"},"context":"","outcome_status":{"category":"Investigation complete; no suspect identified","date":"2025-06"},"persistent_id":"fdc38471fa0cc8285c7c84e67c9d179f80aa3b4c2ff6e3abeba3f5203bb5af46","id":127640142,"location_subtype":"","month":"2025-04"},{"category":"shoplifting","location_type":"Force","location":{"latitude":"51.446888","street":{"id":1657185,"name":"On or near Parking Area"},"longitude":"-0.328911"},"context":"","outcome_status":{"category":"Investigation complete; no suspect identified","date":"2025-04"},"persistent_id":"957fecd111da939bd5c23a5f90e0fee036e28162a0e42f6989527ae6f1824979","id":127640646,"location_subtype":"","month":"2025-04"},{"category":"shoplifting","location_type":"Force","location":{"latitude":"51.445243","street":{"id":1657124,"name":"On or near Wharf Lane"},"longitude":"-0.328942"},"context":"","outcome_status":{"category":"Investigation complete; no suspect identified","date":"2025-04"},"persistent_id":"406e7a85b95dea14a42616e061f082607c6448968a12b78fe67b382bf5f1d268","id":127640392,"location_subtype":"","month":"2025-04"},{"category":"shoplifting","location_type":"Force","location":{"latitude":"51.449591","street":{"id":1657595,"name":"On or near Supermarket"},"longitude":"-0.323046"},"context":"","outcome_status":{"category":"Investigation complete; no suspect identified","date":"2025-04"},"persistent_id":"ada613a55eac0c716d7a92c80ce18535b841489127dbc4fae04471fd143c72ac","id":127640257,"location_subtype":"","month":"2025-04"},{"category":"shoplifting","location_type":"Force","location":{"latitude":"51.449591","street":{"id":1657595,"name":"On or near Supermarket"},"longitude":"-0.323046"},"context":"","outcome_status":{"category":"Investigation complete; no suspect identified","date":"2025-04"},"persistent_id":"a660c652cf957d00b95a3d557b307b0635af084d8a786ab7705362dbdd8936d0","id":127639811,"location_subtype":"","month":"2025-04"},{"category":"shoplifting","location_type":"Force","location":{"latitude":"51.464094","street":{"id":1657053,"name":"On or near Petrol Station"},"longitude":"-0.331709"},"context":"","outcome_status":{"category":"Investigation complete; no suspect identified","date":"2025-09"},"persistent_id":"ede47c44e3ec0acee901afbaf41400a15e48b695814aca9be6a0c6227ee73854","id":127639229,"location_subtype":"","month":"2025-04"},{"category":"shoplifting","location_type":"Force","location":{"latitude":"51.444866","street":{"id":1656442,"name":"On or near Knowle Road"},"longitude":"-0.340396"},"context":"","outcome_status":{"category":"Investigation complete; no suspect identified","date":"2025-04"},"persistent_id":"6031bd6d2c6bd539fb6cba6b17ff90eb5419891e6b0425c7d7d64933aab6362a","id":127639308,"location_subtype":"","month":"2025-04"},{"category":"shoplifting","location_type":"Force","location":{"latitude":"51.445243","street":{"id":1657124,"name":"On or near Wharf Lane"},"longitude":"-0.328942"},"context":"","outcome_status":{"category":"Investigation complete; no suspect identified","date":"2025-04"},"persistent_id":"916ef62a20b7e40f8296c889fe65d796889eb2ff588b86c5471cdd02a3b780a3","id":127639510,"location_subtype":"","month":"2025-04"},{"category":"shoplifting","location_type":"Force","location":{"latitude":"51.445777","street":{"id":1657160,"name":"On or near King Street"},"longitude":"-0.329167"},"context":"","outcome_status":{"category":"Investigation complete; no suspect identified","date":"2025-04"},"persistent_id":"63960dc576bd6760b710d18418ab3bd1e1c129223ed8bad6b4e755306f400873","id":127638924,"location_subtype":"","month":"2025-04"},{"category":"shoplifting","location_type":"Force","location":{"latitude":"51.450336","street":{"id":1657182,"name":"On or near Twickenham"},"longitude":"-0.329850"},"context":"","outcome_status":{"category":"Unable to prosecute suspect","date":"2025-05"},"persistent_id":"36f1fb74b4d0ab44ee8bfe96f4385c284ef78f5d3f5caa21fe398be7746e2994","id":127643205,"location_subtype":"","month":"2025-04"},{"category":"shoplifting","location_type":"Force","location":{"latitude":"51.449591","street":{"id":1657595,"name":"On or near Supermarket"},"longitude":"-0.323046"},"context":"","outcome_status":{"category":"Investigation complete; no suspect identified","date":"2025-04"},"persistent_id":"2305a8549e45ff4e24c06dd94c2c832b6805971dbd8deff2dac859c6de3e3bd8","id":127642007,"location_subtype":"","month":"2025-04"},{"category":"shoplifting","location_type":"Force","location":{"latitude":"51.449591","street":{"id":1657595,"name":"On or near Supermarket"},"longitude":"-0.323046"},"context":"","outcome_status":{"category":"Investigation complete; no suspect identified","date":"2025-04"},"persistent_id":"b1696cccc81c8f5ef38788f3b9d14a40a3d9a8336b8ee4d72c779e57c04a04cd","id":127643509,"location_subtype":"","month":"2025-04"},{"category":"shoplifting","location_type":"Force","location":{"latitude":"51.451308","street":{"id":1657068,"name":"On or near March Road"},"longitude":"-0.331801"},"context":"","outcome_status":{"category":"Investigation complete; no suspect identified","date":"2025-04"},"persistent_id":"a7632baae59767f738cc724c5babd83b24ddcce81d65618649286ff5b6b05477","id":127643659,"location_subtype":"","month":"2025-04"},{"category":"shoplifting","location_type":"Force","location":{"latitude":"51.445777","street":{"id":1657160,"name":"On or near King Street"},"longitude":"-0.329167"},"context":"","outcome_status":{"category":"Investigation complete; no suspect identified","date":"2025-04"},"persistent_id":"239144abf4fb4f2ff82f902dee54ed97226e6ab441726603a9f476abca3ead13","id":127642092,"location_subtype":"","month":"2025-04"},{"category":"shoplifting","location_type":"Force","location":{"latitude":"51.459006","street":{"id":1658972,"name":"On or near Hill Street"},"longitude":"-0.306099"},"context":"","outcome_status":{"category":"Investigation complete; no suspect identified","date":"2025-04"},"persistent_id":"ad8c635c132747f5e249f7c42cd29a97bf3067683ef4664fc7547f5e6acd142b","id":127639472,"location_subtype":"","month":"2025-04"},{"category":"shoplifting","location_type":"Force","location":{"latitude":"51.455968","street":{"id":1658549,"name":"On or near Parking Area"},"longitude":"-0.310544"},"context":"","outcome_status":{"category":"Investigation complete; no suspect identified","date":"2025-04"},"persistent_id":"3dc50ab2f71b328ef0d848f46f339476836a86492499a1c51239c8f735668695","id":127644931,"location_subtype":"","month":"2025-04"},{"category":"shoplifting","location_type":"Force","location":{"latitude":"51.444866","street":{"id":1656442,"name":"On or near Knowle Road"},"longitude":"-0.340396"},"context":"","outcome_status":{"category":"Investigation complete; no suspect identified","date":"2025-04"},"persistent_id":"f93367258a8bcc424f972444c8c17ff147421ba1ccf29c76520a7835740e2686","id":127643327,"location_subtype":"","month":"2025-04"},{"category":"shoplifting","location_type":"Force","location":{"latitude":"51.444866","street":{"id":1656442,"name":"On or near Knowle Road"},"longitude":"-0.340396"},"context":"","outcome_status":{"category":"Investigation complete; no suspect identified","date":"2025-04"},"persistent_id":"f0b7cb85fbb18820a6c443f8d993400029dfbb3c851da89f925dd2bd8e0a922e","id":127641986,"location_subtype":"","month":"2025-04"},{"category":"shoplifting","location_type":"Force","location":{"latitude":"51.459046","street":{"id":1656573,"name":"On or near Supermarket"},"longitude":"-0.337438"},"context":"","outcome_status":{"category":"Investigation complete; no suspect identified","date":"2025-04"},"persistent_id":"136b1b418f51fd625f7ad976dd7c2bb663b3dcbb1d2b0757a38640d4cc8764f6","id":127643901,"location_subtype":"","month":"2025-04"},{"category":"shoplifting","location_type":"Force","location":{"latitude":"51.449591","street":{"id":1657595,"name":"On or near Supermarket"},"longitude":"-0.323046"},"context":"","outcome_status":{"category":"Investigation complete; no suspect identified","date":"2025-04"},"persistent_id":"544f02ca83103ae8afdee65985f36891bfa8d45a4b160b15e350ca1085027c05","id":127641004,"location_subtype":"","month":"2025-04"},{"category":"shoplifting","location_type":"Force","location":{"latitude":"51.444866","street":{"id":1656442,"name":"On or near Knowle Road"},"longitude":"-0.340396"},"context":"","outcome_status":{"category":"Unable to prosecute suspect","date":"2026-01"},"persistent_id":"1a8c6bac6a1701d8bc9cdc48e7bcb02467d496735f4ed2b6455419589f3e37ad","id":127643851,"location_subtype":"","month":"2025-04"},{"category":"shoplifting","location_type":"Force","location":{"latitude":"51.449591","street":{"id":1657595,"name":"On or near Supermarket"},"longitude":"-0.323046"},"context":"","outcome_status":{"category":"Investigation complete; no suspect identified","date":"2025-04"},"persistent_id":"4e2815cd999b309b66b148aaf141a7d6f181526b9b40c69c90496feba0545b3c","id":127643438,"location_subtype":"","month":"2025-04"},{"category":"shoplifting","location_type":"Force","location":{"latitude":"51.449591","street":{"id":1657595,"name":"On or near Supermarket"},"longitude":"-0.323046"},"context":"","outcome_status":{"category":"Investigation complete; no suspect identified","date":"2025-04"},"persistent_id":"a32bbd068f71506754fcc032deee75045a8f41093c541587898e11b32eec7173","id":127645169,"location_subtype":"","month":"2025-04"},{"category":"shoplifting","location_type":"Force","location":{"latitude":"51.446680","street":{"id":1657265,"name":"On or near A310"},"longitude":"-0.328199"},"context":"","outcome_status":{"category":"Awaiting court outcome","date":"2025-08"},"persistent_id":"75a24c331b93102d89f114f58a5d6e8dd4b7a610db93513452266cdbe629c264","id":127645064,"location_subtype":"","month":"2025-04"},{"category":"shoplifting","location_type":"Force","location":{"latitude":"51.449591","street":{"id":1657595,"name":"On or near Supermarket"},"longitude":"-0.323046"},"context":"","outcome_status":{"category":"Investigation complete; no suspect identified","date":"2025-04"},"persistent_id":"66cccfbe4c7ab7c57a0ff6ab6888698b81868520fa0f57e307f3ec95cab0774f","id":127640778,"location_subtype":"","month":"2025-04"},{"category":"shoplifting","location_type":"Force","location":{"latitude":"51.445243","street":{"id":1657124,"name":"On or near Wharf Lane"},"longitude":"-0.328942"},"context":"","outcome_status":{"category":"Investigation complete; no suspect identified","date":"2025-04"},"persistent_id":"57b1fb38e5f9876835922eed5e012061e32afe6d48af686ce83afeb9426027e8","id":127640784,"location_subtype":"","month":"2025-04"},{"category":"theft-from-the-person","location_type":"Force","location":{"latitude":"51.459256","street":{"id":1658855,"name":"On or near Water Lane"},"longitude":"-0.307198"},"context":"","outcome_status":{"category":"Investigation complete; no suspect identified","date":"2025-04"},"persistent_id":"557a0cee54abcd7f53e4462c087d2b83301627bf51dbd0b8d86259c6174416dc","id":127631391,"location_subtype":"","month":"2025-04"},{"category":"vehicle-crime","location_type":"Force","location":{"latitude":"51.448233","street":{"id":1657114,"name":"On or near Grosvenor Road"},"longitude":"-0.330502"},"context":"","outcome_status":{"category":"Investigation complete; no suspect identified","date":"2025-04"},"persistent_id":"b7100c68314bb5a377f709d649f9b536841669f6094826c24f48b2ee659157a0","id":127647106,"location_subtype":"","month":"2025-04"},{"category":"vehicle-crime","location_type":"Force","location":{"latitude":"51.455236","street":{"id":1657751,"name":"On or near Broadway Avenue"},"longitude":"-0.321582"},"context":"","outcome_status":{"category":"Investigation complete; no suspect identified","date":"2025-04"},"persistent_id":"4d87c1a2b8cd479fc8b67e1a4e50c6d398fb3a399164304e6a393014a4ecc6b3","id":127646453,"location_subtype":"","month":"2025-04"},{"category":"vehicle-crime","location_type":"Force","location":{"latitude":"51.454052","street":{"id":1658336,"name":"On or near Fairlawns"},"longitude":"-0.311147"},"context":"","outcome_status":{"category":"Investigation complete; no suspect identified","date":"2025-04"},"persistent_id":"f3e57ee77e597e97eefc0190ed2e8d661a7980f8f555c5f3d69db63b210d1846","id":127646798,"location_subtype":"","month":"2025-04"},{"category":"vehicle-crime","location_type":"Force","location":{"latitude":"51.446586","street":{"id":1656254,"name":"On or near Gould Road"},"longitude":"-0.344392"},"context":"","outcome_status":{"category":"Investigation complete; no suspect identified","date":"2025-04"},"persistent_id":"8ddc7b7dd3c285ef4f1d8c4ee7d3b5dbc2adb34618fe16a7c39e68b8b4a77ddd","id":127646134,"location_subtype":"","month":"2025-04"},{"category":"vehicle-crime","location_type":"Force","location":{"latitude":"51.459934","street":{"id":1658084,"name":"On or near Twickenham Road"},"longitude":"-0.314932"},"context":"","outcome_status":{"category":"Investigation complete; no suspect identified","date":"2025-06"},"persistent_id":"c09afa49b7e940833164578096c9686316eeba1259cb839f2cd1efd7e61c765a","id":127646486,"location_subtype":"","month":"2025-04"},{"category":"vehicle-crime","location_type":"Force","location":{"latitude":"51.463898","street":{"id":1656846,"name":"On or near Lynton Close"},"longitude":"-0.332479"},"context":"","outcome_status":{"category":"Investigation complete; no suspect identified","date":"2025-04"},"persistent_id":"34d28a1bede6a8ad7143e22483c1e93a7eecb2952c94c34a527d0ac91248932f","id":127647789,"location_subtype":"","month":"2025-04"},{"category":"vehicle-crime","location_type":"Force","location":{"latitude":"51.451614","street":{"id":1657443,"name":"On or near Baylis Mews"},"longitude":"-0.325457"},"context":"","outcome_status":{"category":"Investigation complete; no suspect identified","date":"2025-05"},"persistent_id":"4030eb6e2daad872c6062e9a4fed84531e28b33d76e0dac042553c5af9a240b0","id":127645603,"location_subtype":"","month":"2025-04"},{"category":"vehicle-crime","location_type":"Force","location":{"latitude":"51.440718","street":{"id":1658060,"name":"On or near Murray Road"},"longitude":"-0.316906"},"context":"","outcome_status":{"category":"Investigation complete; no suspect identified","date":"2025-05"},"persistent_id":"08c6ed2f55d4065657204cd4d22774abc701471f130b0a05cc46c33f3cc5b344","id":127637576,"location_subtype":"","month":"2025-04"},{"category":"vehicle-crime","location_type":"Force","location":{"latitude":"51.457466","street":{"id":1657200,"name":"On or near Cole Park Gardens"},"longitude":"-0.328467"},"context":"","outcome_status":{"category":"Investigation complete; no suspect identified","date":"2025-07"},"persistent_id":"73b552099a2f1c92cc49e8574f53ee8f73a652216d68b3dddb6ed8c549075441","id":127647842,"location_subtype":"","month":"2025-04"},{"category":"vehicle-crime","location_type":"Force","location":{"latitude":"51.446481","street":{"id":1656461,"name":"On or near Warwick Road"},"longitude":"-0.340136"},"context":"","outcome_status":{"category":"Investigation complete; no suspect identified","date":"2025-04"},"persistent_id":"da628160ef43008f896fe473ce021074cb51a6c436b2717e5fb7438edf9f99dd","id":127588002,"location_subtype":"","month":"2025-04"},{"category":"vehicle-crime","location_type":"Force","location":{"latitude":"51.452238","street":{"id":1657054,"name":"On or near Latham Close"},"longitude":"-0.331393"},"context":"","outcome_status":{"category":"Investigation complete; no suspect identified","date":"2025-04"},"persistent_id":"c437866045a6e5058050857ac788c7f45193914419130ed52b135f801a298752","id":127586833,"location_subtype":"","month":"2025-04"},{"category":"vehicle-crime","location_type":"Force","location":{"latitude":"51.454871","street":{"id":1658700,"name":"On or near Cambridge Road"},"longitude":"-0.307447"},"context":"","outcome_status":{"category":"Investigation complete; no suspect identified","date":"2025-04"},"persistent_id":"0572bf77a9f6c9842a0b063e80bad1a2ead0ef695202dc35b320420f26c2209a","id":127646595,"location_subtype":"","month":"2025-04"},{"category":"vehicle-crime","location_type":"Force","location":{"latitude":"51.460033","street":{"id":1656740,"name":"On or near Mogden Lane"},"longitude":"-0.335758"},"context":"","outcome_status":{"category":"Investigation complete; no suspect identified","date":"2025-09"},"persistent_id":"dcddbba521f44e33c87faed5eb188338fb605d669689b5a47dfd7dab75c83212","id":127634986,"location_subtype":"","month":"2025-04"},{"category":"vehicle-crime","location_type":"Force","location":{"latitude":"51.461986","street":{"id":1656836,"name":"On or near Hillary Drive"},"longitude":"-0.333326"},"context":"","outcome_status":{"category":"Investigation complete; no suspect identified","date":"2025-04"},"persistent_id":"98f28b0d09bb734d75edc64230d93d1324acc6d39c8a7f2dddf7ad1de47b342e","id":127635444,"location_subtype":"","month":"2025-04"},{"category":"vehicle-crime","location_type":"Force","location":{"latitude":"51.446586","street":{"id":1656254,"name":"On or near Gould Road"},"longitude":"-0.344392"},"context":"","outcome_status":{"category":"Investigation complete; no suspect identified","date":"2025-04"},"persistent_id":"c9153b63af859e6ca17bfb6328c5895df9617e04756d35c6f712dbf194e9e947","id":127636059,"location_subtype":"","month":"2025-04"},{"category":"vehicle-crime","location_type":"Force","location":{"latitude":"51.439462","street":{"id":1657676,"name":"On or near Lake Gardens"},"longitude":"-0.320837"},"context":"","outcome_status":{"category":"Investigation complete; no suspect identified","date":"2025-10"},"persistent_id":"d6181306b04241cc98df7b4acc016cc91fa25056a38314ac2ae8264287404723","id":127635718,"location_subtype":"","month":"2025-04"},{"category":"vehicle-crime","location_type":"Force","location":{"latitude":"51.453910","street":{"id":1658054,"name":"On or near Baronsfield Road"},"longitude":"-0.317514"},"context":"","outcome_status":{"category":"Investigation complete; no suspect identified","date":"2025-04"},"persistent_id":"46ee9adcf5ff3b478956acd24c0e084e116425fcfefe4c8e7ac789011fd2ed31","id":127646165,"location_subtype":"","month":"2025-04"},{"category":"vehicle-crime","location_type":"Force","location":{"latitude":"51.447982","street":{"id":1657549,"name":"On or near Sion Road"},"longitude":"-0.323014"},"context":"","outcome_status":{"category":"Investigation complete; no suspect identified","date":"2025-04"},"persistent_id":"7f7f5aa04b23e2f6b4b3a26605fb7d09452087456b432d8dc782c4c7570310ec","id":127635899,"location_subtype":"","month":"2025-04"},{"category":"vehicle-crime","location_type":"Force","location":{"latitude":"51.439887","street":{"id":1656952,"name":"On or near River View Gardens"},"longitude":"-0.333627"},"context":"","outcome_status":{"category":"Investigation complete; no suspect identified","date":"2025-04"},"persistent_id":"702f3bc01a8c3d50ecccc41d64b6dc0aa73a3076c3b68e0743e881d70a12e751","id":127635068,"location_subtype":"","month":"2025-04"},{"category":"vehicle-crime","location_type":"Force","location":{"latitude":"51.459100","street":{"id":1656971,"name":"On or near Supermarket"},"longitude":"-0.332092"},"context":"","outcome_status":{"category":"Investigation complete; no suspect identified","date":"2025-04"},"persistent_id":"a436223fb7e6b3483d8c35956ffc05816beda47f070f25b32465ad8d5e34cb9d","id":127647306,"location_subtype":"","month":"2025-04"},{"category":"vehicle-crime","location_type":"Force","location":{"latitude":"51.455236","street":{"id":1657751,"name":"On or near Broadway Avenue"},"longitude":"-0.321582"},"context":"","outcome_status":{"category":"Investigation complete; no suspect identified","date":"2025-06"},"persistent_id":"0365ed28d818acd9c3193acf776500ee6f0d65fa092cce3dd0afc811dc9f4b8c","id":127646320,"location_subtype":"","month":"2025-04"},{"category":"vehicle-crime","location_type":"Force","location":{"latitude":"51.450500","street":{"id":1657103,"name":"On or near Parking Area"},"longitude":"-0.329974"},"context":"","outcome_status":{"category":"Investigation complete; no suspect identified","date":"2025-04"},"persistent_id":"3af4ea7cb3ec6e1f37dbb9d15fa1e999ec75ac5a53026cef87e230c886ff7833","id":127638223,"location_subtype":"","month":"2025-04"},{"category":"vehicle-crime","location_type":"Force","location":{"latitude":"51.441293","street":{"id":1656516,"name":"On or near Alexander Close"},"longitude":"-0.339562"},"context":"","outcome_status":{"category":"Investigation complete; no suspect identified","date":"2025-05"},"persistent_id":"a75bf787675a35ef7069faed35e86175c977ceb89f62a816eb2cfdc76b1ae5ff","id":127645723,"location_subtype":"","month":"2025-04"},{"category":"vehicle-crime","location_type":"Force","location":{"latitude":"51.458018","street":{"id":1659035,"name":"On or near Nightclub"},"longitude":"-0.305546"},"context":"","outcome_status":{"category":"Investigation complete; no suspect identified","date":"2025-04"},"persistent_id":"5fc2b0a3cca58bfcc6f822d9d9dbb89802336b2ab4a073740a5d263f0c220385","id":127636908,"location_subtype":"","month":"2025-04"},{"category":"vehicle-crime","location_type":"Force","location":{"latitude":"51.446680","street":{"id":1657265,"name":"On or near A310"},"longitude":"-0.328199"},"context":"","outcome_status":{"category":"Investigation complete; no suspect identified","date":"2025-04"},"persistent_id":"9c91730ce4f5b52cf0a53273c5abe572023753263929286a7572703a8d54de6d","id":127635451,"location_subtype":"","month":"2025-04"},{"category":"vehicle-crime","location_type":"Force","location":{"latitude":"51.449271","street":{"id":1657071,"name":"On or near Station Yard"},"longitude":"-0.331414"},"context":"","outcome_status":{"category":"Investigation complete; no suspect identified","date":"2025-04"},"persistent_id":"a83706bb1680318726e925c0484fa60177404d01cfc203ff861294ec96a2424c","id":127636771,"location_subtype":"","month":"2025-04"},{"category":"violent-crime","location_type":"Force","location":{"latitude":"51.448810","street":{"id":1657153,"name":"On or near Nightclub"},"longitude":"-0.329992"},"context":"","outcome_status":{"category":"Unable to prosecute suspect","date":"2025-05"},"persistent_id":"6acbebc18c73905b5c036ddabee328c14b1b87962c3a48ab0c5f7027ac0b9377","id":127567419,"location_subtype":"","month":"2025-04"},{"category":"violent-crime","location_type":"Force","location":{"latitude":"51.459046","street":{"id":1656573,"name":"On or near Supermarket"},"longitude":"-0.337438"},"context":"","outcome_status":{"category":"Unable to prosecute suspect","date":"2025-05"},"persistent_id":"6c946f2f7ed63c68c0264d3d66fe69cc4d3d3714fbc103250bb04c1183a66635","id":127665921,"location_subtype":"","month":"2025-04"},{"category":"violent-crime","location_type":"Force","location":{"latitude":"51.458538","street":{"id":1656820,"name":"On or near Summerwood Road"},"longitude":"-0.333668"},"context":"","outcome_status":{"category":"Unable to prosecute suspect","date":"2025-04"},"persistent_id":"613ab1c47b6570c816ebddcc66bee6d3dd966dd1ced2c1d366ab84495d363d47","id":127666267,"location_subtype":"","month":"2025-04"},{"category":"violent-crime","location_type":"Force","location":{"latitude":"51.447460","street":{"id":1657738,"name":"On or near Ferry Road"},"longitude":"-0.321767"},"context":"","outcome_status":{"category":"Unable to prosecute suspect","date":"2025-04"},"persistent_id":"00845c87795c72c81392509016bba88a8491777e635eae07dcd3d6c2388bd583","id":127565905,"location_subtype":"","month":"2025-04"},{"category":"violent-crime","location_type":"Force","location":{"latitude":"51.459006","street":{"id":1658972,"name":"On or near Hill Street"},"longitude":"-0.306099"},"context":"","outcome_status":{"category":"Unable to prosecute suspect","date":"2025-04"},"persistent_id":"7479379013cca73e9fe64efe1b735c93b597e06425077589f644a3d9ed548364","id":127660589,"location_subtype":"","month":"2025-04"},{"category":"violent-crime","location_type":"Force","location":{"latitude":"51.451308","street":{"id":1657068,"name":"On or near March Road"},"longitude":"-0.331801"},"context":"","outcome_status":{"category":"Unable to prosecute suspect","date":"2025-05"},"persistent_id":"ea4963cf1dc1786546f86c4bb0f857f776e3639d4ec9afc7e2867b67af4285bf","id":127568157,"location_subtype":"","month":"2025-04"},{"category":"violent-crime","location_type":"Force","location":{"latitude":"51.444866","street":{"id":1656442,"name":"On or near Knowle Road"},"longitude":"-0.340396"},"context":"","outcome_status":{"category":"Unable to prosecute suspect","date":"2025-04"},"persistent_id":"ca7ed2a0aec1d1e37d0fb2e194c81cf79ac040cab6b2106930489c7a9fc2915f","id":127570537,"location_subtype":"","month":"2025-04"},{"category":"violent-crime","location_type":"Force","location":{"latitude":"51.452928","street":{"id":1658521,"name":"On or near Cambridge Park"},"longitude":"-0.309922"},"context":"","outcome_status":{"category":"Unable to prosecute suspect","date":"2025-04"},"persistent_id":"d852b374a8f101c4e165a5ba830f48c9dfa7de41a9f69946d9d7004700011d54","id":127571384,"location_subtype":"","month":"2025-04"},{"category":"violent-crime","location_type":"Force","location":{"latitude":"51.458690","street":{"id":1656132,"name":"On or near Harlequin Close"},"longitude":"-0.343753"},"context":"","outcome_status":{"category":"Investigation complete; no suspect identified","date":"2026-01"},"persistent_id":"9b3352d4e5071df30d9b130e4d4f6935b90d1ad85d1fa1f75c5da140d5ab2343","id":127606413,"location_subtype":"","month":"2025-04"},{"category":"violent-crime","location_type":"Force","location":{"latitude":"51.457790","street":{"id":1656504,"name":"On or near Varsity Drive"},"longitude":"-0.338618"},"context":"","outcome_status":{"category":"Investigation complete; no suspect identified","date":"2025-04"},"persistent_id":"e6b3109c942aec84fe3dc6b9042bd51420da54b8831c159356752ac13ccb103c","id":127620713,"location_subtype":"","month":"2025-04"},{"category":"violent-crime","location_type":"Force","location":{"latitude":"51.456200","street":{"id":1658618,"name":"On or near Ryde Place"},"longitude":"-0.309802"},"context":"","outcome_status":{"category":"Investigation complete; no suspect identified","date":"2025-06"},"persistent_id":"d52ea847bf6a028d59887723fd809715589c53c5e1e05c1cc1ec0a7d823e631e","id":127619750,"location_subtype":"","month":"2025-04"},{"category":"violent-crime","location_type":"Force","location":{"latitude":"51.450159","street":{"id":1657187,"name":"On or near Mary's Terrace"},"longitude":"-0.329367"},"context":"","outcome_status":{"category":"Unable to prosecute suspect","date":"2025-10"},"persistent_id":"f3486c742282f5f1b3dc314a49106d2641056ee9b057349ef7393c2b79aab75f","id":127620596,"location_subtype":"","month":"2025-04"},{"category":"violent-crime","location_type":"Force","location":{"latitude":"51.460289","street":{"id":1657246,"name":"On or near Crane Avenue"},"longitude":"-0.327817"},"context":"","outcome_status":{"category":"Unable to prosecute suspect","date":"2025-04"},"persistent_id":"7487f312d050d4165bdb6bac81f4af42cb440baeec0b7873187cf500027653c2","id":127571839,"location_subtype":"","month":"2025-04"},{"category":"violent-crime","location_type":"Force","location":{"latitude":"51.460289","street":{"id":1657246,"name":"On or near Crane Avenue"},"longitude":"-0.327817"},"context":"","outcome_status":{"category":"Unable to prosecute suspect","date":"2025-04"},"persistent_id":"fa461f083de72b8852e1cc0a40fe52d25a670c1d403c19b7e093f09277d7c527","id":127571843,"location_subtype":"","month":"2025-04"},{"category":"violent-crime","location_type":"Force","location":{"latitude":"51.451057","street":{"id":1656279,"name":"On or near Langhorn Drive"},"longitude":"-0.343266"},"context":"","outcome_status":{"category":"Investigation complete; no suspect identified","date":"2025-04"},"persistent_id":"736b3b464605f78ee566c34577466f58ffceb2a168bd81bfa8b1e637298efc56","id":127573968,"location_subtype":"","month":"2025-04"},{"category":"violent-crime","location_type":"Force","location":{"latitude":"51.449009","street":{"id":1656360,"name":"On or near Sports/recreation Area"},"longitude":"-0.341292"},"context":"","outcome_status":{"category":"Investigation complete; no suspect identified","date":"2025-11"},"persistent_id":"a880219611b16d10e74ca5187553a65d10a7f6973b176bdcaa98200db54422d7","id":127573900,"location_subtype":"","month":"2025-04"},{"category":"violent-crime","location_type":"Force","location":{"latitude":"51.459006","street":{"id":1658972,"name":"On or near Hill Street"},"longitude":"-0.306099"},"context":"","outcome_status":{"category":"Unable to prosecute suspect","date":"2025-08"},"persistent_id":"0e0520ea681cb17738310f14235cd6d8ae662746d7b822a63274d2fbfc672fd8","id":127568160,"location_subtype":"","month":"2025-04"},{"category":"violent-crime","location_type":"Force","location":{"latitude":"51.455664","street":{"id":1658296,"name":"On or near Riverdale Road"},"longitude":"-0.313146"},"context":"","outcome_status":{"category":"Unable to prosecute suspect","date":"2025-04"},"persistent_id":"bdb618ca5351dfa3b81140b0b9fcf1e0bf9f94724d5e15dcef2ce2f641f6cfd5","id":127610836,"location_subtype":"","month":"2025-04"},{"category":"violent-crime","location_type":"Force","location":{"latitude":"51.453546","street":{"id":1656406,"name":"On or near Tayben Avenue"},"longitude":"-0.341204"},"context":"","outcome_status":{"category":"Status update unavailable","date":"2025-08"},"persistent_id":"729a659a5b1d1f0f9ea64e2222fcdac0f65523a44b8137849257d79ceed87b6d","id":127611347,"location_subtype":"","month":"2025-04"},{"category":"violent-crime","location_type":"Force","location":{"latitude":"51.460416","street":{"id":1658787,"name":"On or near The Green"},"longitude":"-0.307803"},"context":"","outcome_status":{"category":"Investigation complete; no suspect identified","date":"2025-09"},"persistent_id":"84e68284253dbeb5cda304850f80a010fdde83f618c3512a176de9c42bf4a2a0","id":127611733,"location_subtype":"","month":"2025-04"},{"category":"violent-crime","location_type":"Force","location":{"latitude":"51.453546","street":{"id":1656406,"name":"On or near Tayben Avenue"},"longitude":"-0.341204"},"context":"","outcome_status":{"category":"Status update unavailable","date":"2025-08"},"persistent_id":"8af91172fe64a6cd9df32d3f1444985a5eec40c9e58148989545351a65e9914b","id":127613637,"location_subtype":"","month":"2025-04"},{"category":"violent-crime","location_type":"Force","location":{"latitude":"51.458538","street":{"id":1656820,"name":"On or near Summerwood Road"},"longitude":"-0.333668"},"context":"","outcome_status":{"category":"Awaiting court outcome","date":"2026-01"},"persistent_id":"a127d7bc851e2683a4338aea67ca6b15fe5118edc6ba3668fbc6bc6787d7231a","id":127620118,"location_subtype":"","month":"2025-04"},{"category":"violent-crime","location_type":"Force","location":{"latitude":"51.458690","street":{"id":1656132,"name":"On or near Harlequin Close"},"longitude":"-0.343753"},"context":"","outcome_status":{"category":"Investigation complete; no suspect identified","date":"2026-01"},"persistent_id":"87ed9a26b3e47b77f0bb270400c75ebb1b1165b867f1635744a2f2ef4363e777","id":127606638,"location_subtype":"","month":"2025-04"},{"category":"violent-crime","location_type":"Force","location":{"latitude":"51.458538","street":{"id":1656820,"name":"On or near Summerwood Road"},"longitude":"-0.333668"},"context":"","outcome_status":{"category":"Awaiting court outcome","date":"2025-09"},"persistent_id":"4c9ca4662c6f647683898ab4d53ea4b39ec0163daff8673c22e9d18283af77ca","id":127654743,"location_subtype":"","month":"2025-04"},{"category":"violent-crime","location_type":"Force","location":{"latitude":"51.459046","street":{"id":1656573,"name":"On or near Supermarket"},"longitude":"-0.337438"},"context":"","outcome_status":{"category":"Investigation complete; no suspect identified","date":"2025-04"},"persistent_id":"99f46bfdd39369599be80a9a8bda5b02863f9ae8923983aa926f2be2b55e4577","id":127578564,"location_subtype":"","month":"2025-04"},{"category":"violent-crime","location_type":"Force","location":{"latitude":"51.459551","street":{"id":1657616,"name":"On or near St Margaret's Road"},"longitude":"-0.322719"},"context":"","outcome_status":{"category":"Unable to prosecute suspect","date":"2025-06"},"persistent_id":"b5154b5bc6723bf1b3d8a32ccbdc67c9c8e53da2c4b8ca11c07af9e5a60858dc","id":127574278,"location_subtype":"","month":"2025-04"},{"category":"violent-crime","location_type":"Force","location":{"latitude":"51.459046","street":{"id":1656573,"name":"On or near Supermarket"},"longitude":"-0.337438"},"context":"","outcome_status":{"category":"Unable to prosecute suspect","date":"2025-04"},"persistent_id":"ae41074b9467dc68f3115d3927f7ff3e478464224c365910beed77c874196364","id":127665920,"location_subtype":"","month":"2025-04"},{"category":"violent-crime","location_type":"Force","location":{"latitude":"51.449711","street":{"id":1657492,"name":"On or near Strafford Road"},"longitude":"-0.325066"},"context":"","outcome_status":{"category":"Unable to prosecute suspect","date":"2025-05"},"persistent_id":"ba92f0481d51dddb5e1a9528353e59103bd49c2f552f47a311761b6a3d98395d","id":127566194,"location_subtype":"","month":"2025-04"},{"category":"violent-crime","location_type":"Force","location":{"latitude":"51.438396","street":{"id":1658014,"name":"On or near Woodville Road"},"longitude":"-0.317408"},"context":"","outcome_status":{"category":"Action to be taken by another organisation","date":"2026-01"},"persistent_id":"f94abebfae6ede7635645689070e336c3dd419e30ff17dceb4455d3a71914920","id":127666002,"location_subtype":"","month":"2025-04"},{"category":"violent-crime","location_type":"Force","location":{"latitude":"51.454553","street":{"id":1658075,"name":"On or near Rosslyn Road"},"longitude":"-0.316570"},"context":"","outcome_status":{"category":"Status update unavailable","date":"2025-08"},"persistent_id":"c263a1a1b5011c34b70ad5b0872e53f2253fd41fb14d16c6d1315876573871be","id":127667252,"location_subtype":"","month":"2025-04"},{"category":"violent-crime","location_type":"Force","location":{"latitude":"51.447884","street":{"id":1657142,"name":"On or near Police Station"},"longitude":"-0.329378"},"context":"","outcome_status":{"category":"Unable to prosecute suspect","date":"2025-04"},"persistent_id":"f63d55ea73b3b852c77c960a4f12cdfed19bfe98c8e89f19a24ab3d23e582ce6","id":127665083,"location_subtype":"","month":"2025-04"},{"category":"violent-crime","location_type":"Force","location":{"latitude":"51.447654","street":{"id":1657264,"name":"On or near Garfield Road"},"longitude":"-0.327746"},"context":"","outcome_status":{"category":"Awaiting court outcome","date":"2025-11"},"persistent_id":"c026a9645e5dc40e48f1ef917c72f20a8f2132ba663171628068b6c974748842","id":127575204,"location_subtype":"","month":"2025-04"},{"category":"violent-crime","location_type":"Force","location":{"latitude":"51.451484","street":{"id":1657671,"name":"On or near Marble Hill Gardens"},"longitude":"-0.321446"},"context":"","outcome_status":{"category":"Unable to prosecute suspect","date":"2025-04"},"persistent_id":"39e2d046fb606aee463c79be0493fc34e9c905f2f130fa3ed9b41385b673623a","id":127564494,"location_subtype":"","month":"2025-04"},{"category":"violent-crime","location_type":"Force","location":{"latitude":"51.444306","street":{"id":1656183,"name":"On or near Briar Road"},"longitude":"-0.345323"},"context":"","outcome_status":{"category":"Investigation complete; no suspect identified","date":"2025-05"},"persistent_id":"c445f5d9b20cd7fc8e0ef662c281f57f063138e358fca96d993f012cfd9d4133","id":127577386,"location_subtype":"","month":"2025-04"},{"category":"violent-crime","location_type":"Force","location":{"latitude":"51.445612","street":{"id":1656236,"name":"On or near Gravel Road"},"longitude":"-0.344801"},"context":"","outcome_status":{"category":"Status update unavailable","date":"2025-08"},"persistent_id":"e4c93d951857af49811a0e6a3ef225050af20966d1167e2f8641fcf407fdfad6","id":127656711,"location_subtype":"","month":"2025-04"},{"category":"violent-crime","location_type":"Force","location":{"latitude":"51.459046","street":{"id":1656573,"name":"On or near Supermarket"},"longitude":"-0.337438"},"context":"","outcome_status":{"category":"Unable to prosecute suspect","date":"2025-04"},"persistent_id":"f7e655bcdef89147eaf72e3fd2257eb5896c8ffca4d02609d539e108b8d779fa","id":127665894,"location_subtype":"","month":"2025-04"},{"category":"violent-crime","location_type":"Force","location":{"latitude":"51.444707","street":{"id":1656998,"name":"On or near Poulett Gardens"},"longitude":"-0.331120"},"context":"","outcome_status":{"category":"Awaiting court outcome","date":"2025-11"},"persistent_id":"5ce9511bae9619c31638c24657a4d3e5b153382c988f0a3b51c2803573c0f2e9","id":127665583,"location_subtype":"","month":"2025-04"},{"category":"violent-crime","location_type":"Force","location":{"latitude":"51.459100","street":{"id":1656971,"name":"On or near Supermarket"},"longitude":"-0.332092"},