[{"category":"anti-social-behaviour","location_type":"Force","location":{"latitude":"51.510379","street":{"id":1657652,"name":"On or near Broadway"},"longitude":"-0.322943"},"context":"","outcome_status":null,"persistent_id":"","id":132880648,"location_subtype":"","month":"2025-12"},{"category":"anti-social-behaviour","location_type":"Force","location":{"latitude":"51.504156","street":{"id":1656638,"name":"On or near Osterley Park View Road"},"longitude":"-0.337465"},"context":"","outcome_status":null,"persistent_id":"","id":132874253,"location_subtype":"","month":"2025-12"},{"category":"anti-social-behaviour","location_type":"Force","location":{"latitude":"51.510379","street":{"id":1657652,"name":"On or near Broadway"},"longitude":"-0.322943"},"context":"","outcome_status":null,"persistent_id":"","id":132874178,"location_subtype":"","month":"2025-12"},{"category":"anti-social-behaviour","location_type":"Force","location":{"latitude":"51.510379","street":{"id":1657652,"name":"On or near Broadway"},"longitude":"-0.322943"},"context":"","outcome_status":null,"persistent_id":"","id":132874128,"location_subtype":"","month":"2025-12"},{"category":"anti-social-behaviour","location_type":"Force","location":{"latitude":"51.504327","street":{"id":1657198,"name":"On or near Manton Avenue"},"longitude":"-0.329246"},"context":"","outcome_status":null,"persistent_id":"","id":132874102,"location_subtype":"","month":"2025-12"},{"category":"anti-social-behaviour","location_type":"Force","location":{"latitude":"51.509705","street":{"id":1655403,"name":"On or near Uxbridge Road"},"longitude":"-0.357308"},"context":"","outcome_status":null,"persistent_id":"","id":132880821,"location_subtype":"","month":"2025-12"},{"category":"anti-social-behaviour","location_type":"Force","location":{"latitude":"51.509780","street":{"id":1657025,"name":"On or near Aria Mews"},"longitude":"-0.331410"},"context":"","outcome_status":null,"persistent_id":"","id":132880912,"location_subtype":"","month":"2025-12"},{"category":"anti-social-behaviour","location_type":"Force","location":{"latitude":"51.510640","street":{"id":1656799,"name":"On or near Halford Place"},"longitude":"-0.335586"},"context":"","outcome_status":null,"persistent_id":"","id":132881071,"location_subtype":"","month":"2025-12"},{"category":"anti-social-behaviour","location_type":"Force","location":{"latitude":"51.510476","street":{"id":1657919,"name":"On or near Chapel Road"},"longitude":"-0.318400"},"context":"","outcome_status":null,"persistent_id":"","id":132881199,"location_subtype":"","month":"2025-12"},{"category":"anti-social-behaviour","location_type":"Force","location":{"latitude":"51.505662","street":{"id":1656506,"name":"On or near St Mark's Road"},"longitude":"-0.339687"},"context":"","outcome_status":null,"persistent_id":"","id":132881232,"location_subtype":"","month":"2025-12"},{"category":"anti-social-behaviour","location_type":"Force","location":{"latitude":"51.510604","street":{"id":1658091,"name":"On or near Broomfield Road"},"longitude":"-0.316709"},"context":"","outcome_status":null,"persistent_id":"","id":132870222,"location_subtype":"","month":"2025-12"},{"category":"anti-social-behaviour","location_type":"Force","location":{"latitude":"51.512874","street":{"id":1656396,"name":"On or near Brentmead Close"},"longitude":"-0.341601"},"context":"","outcome_status":null,"persistent_id":"","id":132865290,"location_subtype":"","month":"2025-12"},{"category":"anti-social-behaviour","location_type":"Force","location":{"latitude":"51.510476","street":{"id":1657919,"name":"On or near Chapel Road"},"longitude":"-0.318400"},"context":"","outcome_status":null,"persistent_id":"","id":132881335,"location_subtype":"","month":"2025-12"},{"category":"anti-social-behaviour","location_type":"Force","location":{"latitude":"51.509152","street":{"id":1657109,"name":"On or near Michael Gaynor Close"},"longitude":"-0.330871"},"context":"","outcome_status":null,"persistent_id":"","id":132881346,"location_subtype":"","month":"2025-12"},{"category":"anti-social-behaviour","location_type":"Force","location":{"latitude":"51.509152","street":{"id":1657109,"name":"On or near Michael Gaynor Close"},"longitude":"-0.330871"},"context":"","outcome_status":null,"persistent_id":"","id":132873950,"location_subtype":"","month":"2025-12"},{"category":"anti-social-behaviour","location_type":"Force","location":{"latitude":"51.507893","street":{"id":1656091,"name":"On or near Hospital"},"longitude":"-0.346076"},"context":"","outcome_status":null,"persistent_id":"","id":132873474,"location_subtype":"","month":"2025-12"},{"category":"anti-social-behaviour","location_type":"Force","location":{"latitude":"51.505045","street":{"id":1656557,"name":"On or near Bostonthorpe Road"},"longitude":"-0.338643"},"context":"","outcome_status":null,"persistent_id":"","id":132869618,"location_subtype":"","month":"2025-12"},{"category":"anti-social-behaviour","location_type":"Force","location":{"latitude":"51.504669","street":{"id":1656611,"name":"On or near Rosebank Road"},"longitude":"-0.338152"},"context":"","outcome_status":null,"persistent_id":"","id":132869631,"location_subtype":"","month":"2025-12"},{"category":"anti-social-behaviour","location_type":"Force","location":{"latitude":"51.504428","street":{"id":1657796,"name":"On or near B452"},"longitude":"-0.318695"},"context":"","outcome_status":null,"persistent_id":"","id":132869825,"location_subtype":"","month":"2025-12"},{"category":"anti-social-behaviour","location_type":"Force","location":{"latitude":"51.513152","street":{"id":1657997,"name":"On or near Hastings Road"},"longitude":"-0.316947"},"context":"","outcome_status":null,"persistent_id":"","id":132869945,"location_subtype":"","month":"2025-12"},{"category":"anti-social-behaviour","location_type":"Force","location":{"latitude":"51.506302","street":{"id":1655396,"name":"On or near Water Lily Close"},"longitude":"-0.355096"},"context":"","outcome_status":null,"persistent_id":"","id":132870233,"location_subtype":"","month":"2025-12"},{"category":"anti-social-behaviour","location_type":"Force","location":{"latitude":"51.519676","street":{"id":1656509,"name":"On or near Greenford Avenue"},"longitude":"-0.338658"},"context":"","outcome_status":null,"persistent_id":"","id":132870642,"location_subtype":"","month":"2025-12"},{"category":"anti-social-behaviour","location_type":"Force","location":{"latitude":"51.513321","street":{"id":1656613,"name":"On or near Church Road"},"longitude":"-0.338198"},"context":"","outcome_status":null,"persistent_id":"","id":132870743,"location_subtype":"","month":"2025-12"},{"category":"anti-social-behaviour","location_type":"Force","location":{"latitude":"51.510379","street":{"id":1657652,"name":"On or near Broadway"},"longitude":"-0.322943"},"context":"","outcome_status":null,"persistent_id":"","id":132865036,"location_subtype":"","month":"2025-12"},{"category":"anti-social-behaviour","location_type":"Force","location":{"latitude":"51.509705","street":{"id":1655403,"name":"On or near Uxbridge Road"},"longitude":"-0.357308"},"context":"","outcome_status":null,"persistent_id":"","id":132865051,"location_subtype":"","month":"2025-12"},{"category":"anti-social-behaviour","location_type":"Force","location":{"latitude":"51.515146","street":{"id":1657553,"name":"On or near Drayton Grove"},"longitude":"-0.324267"},"context":"","outcome_status":null,"persistent_id":"","id":132865056,"location_subtype":"","month":"2025-12"},{"category":"anti-social-behaviour","location_type":"Force","location":{"latitude":"51.516679","street":{"id":1655469,"name":"On or near Haldane Road"},"longitude":"-0.357000"},"context":"","outcome_status":null,"persistent_id":"","id":132865064,"location_subtype":"","month":"2025-12"},{"category":"anti-social-behaviour","location_type":"Force","location":{"latitude":"51.508683","street":{"id":1656387,"name":"On or near Laurel Gardens"},"longitude":"-0.341522"},"context":"","outcome_status":null,"persistent_id":"","id":132865339,"location_subtype":"","month":"2025-12"},{"category":"anti-social-behaviour","location_type":"Force","location":{"latitude":"51.510604","street":{"id":1658091,"name":"On or near Broomfield Road"},"longitude":"-0.316709"},"context":"","outcome_status":null,"persistent_id":"","id":132865413,"location_subtype":"","month":"2025-12"},{"category":"anti-social-behaviour","location_type":"Force","location":{"latitude":"51.508683","street":{"id":1656387,"name":"On or near Laurel Gardens"},"longitude":"-0.341522"},"context":"","outcome_status":null,"persistent_id":"","id":132865444,"location_subtype":"","month":"2025-12"},{"category":"anti-social-behaviour","location_type":"Force","location":{"latitude":"51.512683","street":{"id":1656804,"name":"On or near Tennyson Road"},"longitude":"-0.335123"},"context":"","outcome_status":null,"persistent_id":"","id":132865574,"location_subtype":"","month":"2025-12"},{"category":"anti-social-behaviour","location_type":"Force","location":{"latitude":"51.510640","street":{"id":1656799,"name":"On or near Halford Place"},"longitude":"-0.335586"},"context":"","outcome_status":null,"persistent_id":"","id":132866347,"location_subtype":"","month":"2025-12"},{"category":"anti-social-behaviour","location_type":"Force","location":{"latitude":"51.509705","street":{"id":1655403,"name":"On or near Uxbridge Road"},"longitude":"-0.357308"},"context":"","outcome_status":null,"persistent_id":"","id":132866533,"location_subtype":"","month":"2025-12"},{"category":"anti-social-behaviour","location_type":"Force","location":{"latitude":"51.522838","street":{"id":1656304,"name":"On or near Gifford Gardens"},"longitude":"-0.343574"},"context":"","outcome_status":null,"persistent_id":"","id":132866549,"location_subtype":"","month":"2025-12"},{"category":"anti-social-behaviour","location_type":"Force","location":{"latitude":"51.513319","street":{"id":1656972,"name":"On or near Allingham Close"},"longitude":"-0.332390"},"context":"","outcome_status":null,"persistent_id":"","id":132866557,"location_subtype":"","month":"2025-12"},{"category":"anti-social-behaviour","location_type":"Force","location":{"latitude":"51.510476","street":{"id":1657919,"name":"On or near Chapel Road"},"longitude":"-0.318400"},"context":"","outcome_status":null,"persistent_id":"","id":132866981,"location_subtype":"","month":"2025-12"},{"category":"anti-social-behaviour","location_type":"Force","location":{"latitude":"51.508656","street":{"id":1657840,"name":"On or near Holbeck Road"},"longitude":"-0.320701"},"context":"","outcome_status":null,"persistent_id":"","id":132867216,"location_subtype":"","month":"2025-12"},{"category":"anti-social-behaviour","location_type":"Force","location":{"latitude":"51.508656","street":{"id":1657840,"name":"On or near Holbeck Road"},"longitude":"-0.320701"},"context":"","outcome_status":null,"persistent_id":"","id":132867222,"location_subtype":"","month":"2025-12"},{"category":"anti-social-behaviour","location_type":"Force","location":{"latitude":"51.510379","street":{"id":1657652,"name":"On or near Broadway"},"longitude":"-0.322943"},"context":"","outcome_status":null,"persistent_id":"","id":132867982,"location_subtype":"","month":"2025-12"},{"category":"anti-social-behaviour","location_type":"Force","location":{"latitude":"51.504156","street":{"id":1656638,"name":"On or near Osterley Park View Road"},"longitude":"-0.337465"},"context":"","outcome_status":null,"persistent_id":"","id":132868351,"location_subtype":"","month":"2025-12"},{"category":"anti-social-behaviour","location_type":"Force","location":{"latitude":"51.510378","street":{"id":1657111,"name":"On or near Shirley Gardens"},"longitude":"-0.329846"},"context":"","outcome_status":null,"persistent_id":"","id":132868353,"location_subtype":"","month":"2025-12"},{"category":"anti-social-behaviour","location_type":"Force","location":{"latitude":"51.509083","street":{"id":1656805,"name":"On or near Bentley Close"},"longitude":"-0.335484"},"context":"","outcome_status":null,"persistent_id":"","id":132868868,"location_subtype":"","month":"2025-12"},{"category":"anti-social-behaviour","location_type":"Force","location":{"latitude":"51.507696","street":{"id":1657805,"name":"On or near Seaford Road"},"longitude":"-0.320822"},"context":"","outcome_status":null,"persistent_id":"","id":132871436,"location_subtype":"","month":"2025-12"},{"category":"anti-social-behaviour","location_type":"Force","location":{"latitude":"51.501432","street":{"id":1656689,"name":"On or near Trumpers Way"},"longitude":"-0.336916"},"context":"","outcome_status":null,"persistent_id":"","id":132868990,"location_subtype":"","month":"2025-12"},{"category":"anti-social-behaviour","location_type":"Force","location":{"latitude":"51.510206","street":{"id":1657542,"name":"On or near Shopping Area"},"longitude":"-0.324693"},"context":"","outcome_status":null,"persistent_id":"","id":132875922,"location_subtype":"","month":"2025-12"},{"category":"anti-social-behaviour","location_type":"Force","location":{"latitude":"51.503193","street":{"id":1657270,"name":"On or near Elthorne Park Road"},"longitude":"-0.328581"},"context":"","outcome_status":null,"persistent_id":"","id":132875962,"location_subtype":"","month":"2025-12"},{"category":"anti-social-behaviour","location_type":"Force","location":{"latitude":"51.509152","street":{"id":1657109,"name":"On or near Michael Gaynor Close"},"longitude":"-0.330871"},"context":"","outcome_status":null,"persistent_id":"","id":132876045,"location_subtype":"","month":"2025-12"},{"category":"anti-social-behaviour","location_type":"Force","location":{"latitude":"51.509705","street":{"id":1655403,"name":"On or near Uxbridge Road"},"longitude":"-0.357308"},"context":"","outcome_status":null,"persistent_id":"","id":132876090,"location_subtype":"","month":"2025-12"},{"category":"anti-social-behaviour","location_type":"Force","location":{"latitude":"51.514668","street":{"id":1656310,"name":"On or near Oakley Close"},"longitude":"-0.341925"},"context":"","outcome_status":null,"persistent_id":"","id":132876198,"location_subtype":"","month":"2025-12"},{"category":"anti-social-behaviour","location_type":"Force","location":{"latitude":"51.511624","street":{"id":1658126,"name":"On or near Hospital"},"longitude":"-0.316340"},"context":"","outcome_status":null,"persistent_id":"","id":132876604,"location_subtype":"","month":"2025-12"},{"category":"anti-social-behaviour","location_type":"Force","location":{"latitude":"51.509589","street":{"id":1657193,"name":"On or near Uxbridge Road"},"longitude":"-0.329385"},"context":"","outcome_status":null,"persistent_id":"","id":132876622,"location_subtype":"","month":"2025-12"},{"category":"anti-social-behaviour","location_type":"Force","location":{"latitude":"51.504156","street":{"id":1656638,"name":"On or near Osterley Park View Road"},"longitude":"-0.337465"},"context":"","outcome_status":null,"persistent_id":"","id":132876636,"location_subtype":"","month":"2025-12"},{"category":"anti-social-behaviour","location_type":"Force","location":{"latitude":"51.523883","street":{"id":1656474,"name":"On or near Hillyard Road"},"longitude":"-0.339255"},"context":"","outcome_status":null,"persistent_id":"","id":132877111,"location_subtype":"","month":"2025-12"},{"category":"anti-social-behaviour","location_type":"Force","location":{"latitude":"51.513093","street":{"id":1657885,"name":"On or near Alexandria Road"},"longitude":"-0.319673"},"context":"","outcome_status":null,"persistent_id":"","id":132877147,"location_subtype":"","month":"2025-12"},{"category":"anti-social-behaviour","location_type":"Force","location":{"latitude":"51.503162","street":{"id":1656796,"name":"On or near Lambourn Close"},"longitude":"-0.335225"},"context":"","outcome_status":null,"persistent_id":"","id":132877198,"location_subtype":"","month":"2025-12"},{"category":"anti-social-behaviour","location_type":"Force","location":{"latitude":"51.513615","street":{"id":1656941,"name":"On or near Milton Road"},"longitude":"-0.333633"},"context":"","outcome_status":null,"persistent_id":"","id":132878066,"location_subtype":"","month":"2025-12"},{"category":"anti-social-behaviour","location_type":"Force","location":{"latitude":"51.506392","street":{"id":1655742,"name":"On or near Hilda Road"},"longitude":"-0.351274"},"context":"","outcome_status":null,"persistent_id":"","id":132878191,"location_subtype":"","month":"2025-12"},{"category":"anti-social-behaviour","location_type":"Force","location":{"latitude":"51.519775","street":{"id":1657034,"name":"On or near Copley Close"},"longitude":"-0.330468"},"context":"","outcome_status":null,"persistent_id":"","id":132878712,"location_subtype":"","month":"2025-12"},{"category":"anti-social-behaviour","location_type":"Force","location":{"latitude":"51.521782","street":{"id":1657000,"name":"On or near Templeman Road"},"longitude":"-0.332456"},"context":"","outcome_status":null,"persistent_id":"","id":132878971,"location_subtype":"","month":"2025-12"},{"category":"anti-social-behaviour","location_type":"Force","location":{"latitude":"51.509152","street":{"id":1657109,"name":"On or near Michael Gaynor Close"},"longitude":"-0.330871"},"context":"","outcome_status":null,"persistent_id":"","id":132879010,"location_subtype":"","month":"2025-12"},{"category":"anti-social-behaviour","location_type":"Force","location":{"latitude":"51.519129","street":{"id":1656272,"name":"On or near Studland Road"},"longitude":"-0.343276"},"context":"","outcome_status":null,"persistent_id":"","id":132879056,"location_subtype":"","month":"2025-12"},{"category":"anti-social-behaviour","location_type":"Force","location":{"latitude":"51.498824","street":{"id":1657411,"name":"On or near Haslemere Avenue"},"longitude":"-0.326090"},"context":"","outcome_status":null,"persistent_id":"","id":132879468,"location_subtype":"","month":"2025-12"},{"category":"anti-social-behaviour","location_type":"Force","location":{"latitude":"51.522758","street":{"id":1657088,"name":"On or near Castle Bar Park"},"longitude":"-0.331526"},"context":"","outcome_status":null,"persistent_id":"","id":132879670,"location_subtype":"","month":"2025-12"},{"category":"anti-social-behaviour","location_type":"Force","location":{"latitude":"51.509705","street":{"id":1655403,"name":"On or near Uxbridge Road"},"longitude":"-0.357308"},"context":"","outcome_status":null,"persistent_id":"","id":132879705,"location_subtype":"","month":"2025-12"},{"category":"anti-social-behaviour","location_type":"Force","location":{"latitude":"51.519775","street":{"id":1657034,"name":"On or near Copley Close"},"longitude":"-0.330468"},"context":"","outcome_status":null,"persistent_id":"","id":132879737,"location_subtype":"","month":"2025-12"},{"category":"anti-social-behaviour","location_type":"Force","location":{"latitude":"51.522838","street":{"id":1656304,"name":"On or near Gifford Gardens"},"longitude":"-0.343574"},"context":"","outcome_status":null,"persistent_id":"","id":132879980,"location_subtype":"","month":"2025-12"},{"category":"anti-social-behaviour","location_type":"Force","location":{"latitude":"51.520610","street":{"id":1656184,"name":"On or near Mayfield Gardens"},"longitude":"-0.343713"},"context":"","outcome_status":null,"persistent_id":"","id":132880149,"location_subtype":"","month":"2025-12"},{"category":"anti-social-behaviour","location_type":"Force","location":{"latitude":"51.508148","street":{"id":1657540,"name":"On or near Regina Road"},"longitude":"-0.324149"},"context":"","outcome_status":null,"persistent_id":"","id":132880249,"location_subtype":"","month":"2025-12"},{"category":"anti-social-behaviour","location_type":"Force","location":{"latitude":"51.509658","street":{"id":1656966,"name":"On or near Azalea Close"},"longitude":"-0.332308"},"context":"","outcome_status":null,"persistent_id":"","id":132880274,"location_subtype":"","month":"2025-12"},{"category":"anti-social-behaviour","location_type":"Force","location":{"latitude":"51.515146","street":{"id":1657553,"name":"On or near Drayton Grove"},"longitude":"-0.324267"},"context":"","outcome_status":null,"persistent_id":"","id":132880414,"location_subtype":"","month":"2025-12"},{"category":"anti-social-behaviour","location_type":"Force","location":{"latitude":"51.507922","street":{"id":1656842,"name":"On or near Montague Avenue"},"longitude":"-0.334792"},"context":"","outcome_status":null,"persistent_id":"","id":132880427,"location_subtype":"","month":"2025-12"},{"category":"anti-social-behaviour","location_type":"Force","location":{"latitude":"51.522758","street":{"id":1657088,"name":"On or near Castle Bar Park"},"longitude":"-0.331526"},"context":"","outcome_status":null,"persistent_id":"","id":132880447,"location_subtype":"","month":"2025-12"},{"category":"anti-social-behaviour","location_type":"Force","location":{"latitude":"51.522758","street":{"id":1657088,"name":"On or near Castle Bar Park"},"longitude":"-0.331526"},"context":"","outcome_status":null,"persistent_id":"","id":132880451,"location_subtype":"","month":"2025-12"},{"category":"anti-social-behaviour","location_type":"Force","location":{"latitude":"51.508270","street":{"id":1657238,"name":"On or near Grosvenor Road"},"longitude":"-0.328309"},"context":"","outcome_status":null,"persistent_id":"","id":132880546,"location_subtype":"","month":"2025-12"},{"category":"anti-social-behaviour","location_type":"Force","location":{"latitude":"51.508148","street":{"id":1657540,"name":"On or near Regina Road"},"longitude":"-0.324149"},"context":"","outcome_status":null,"persistent_id":"","id":132880574,"location_subtype":"","month":"2025-12"},{"category":"anti-social-behaviour","location_type":"Force","location":{"latitude":"51.510640","street":{"id":1656799,"name":"On or near Halford Place"},"longitude":"-0.335586"},"context":"","outcome_status":null,"persistent_id":"","id":132880586,"location_subtype":"","month":"2025-12"},{"category":"anti-social-behaviour","location_type":"Force","location":{"latitude":"51.508683","street":{"id":1656387,"name":"On or near Laurel Gardens"},"longitude":"-0.341522"},"context":"","outcome_status":null,"persistent_id":"","id":132880741,"location_subtype":"","month":"2025-12"},{"category":"anti-social-behaviour","location_type":"Force","location":{"latitude":"51.510379","street":{"id":1657652,"name":"On or near Broadway"},"longitude":"-0.322943"},"context":"","outcome_status":null,"persistent_id":"","id":132874844,"location_subtype":"","month":"2025-12"},{"category":"anti-social-behaviour","location_type":"Force","location":{"latitude":"51.513093","street":{"id":1657885,"name":"On or near Alexandria Road"},"longitude":"-0.319673"},"context":"","outcome_status":null,"persistent_id":"","id":132875004,"location_subtype":"","month":"2025-12"},{"category":"anti-social-behaviour","location_type":"Force","location":{"latitude":"51.507487","street":{"id":1657803,"name":"On or near Bowmans Close"},"longitude":"-0.320038"},"context":"","outcome_status":null,"persistent_id":"","id":132875074,"location_subtype":"","month":"2025-12"},{"category":"anti-social-behaviour","location_type":"Force","location":{"latitude":"51.507367","street":{"id":1656578,"name":"On or near A4001"},"longitude":"-0.337550"},"context":"","outcome_status":null,"persistent_id":"","id":132875239,"location_subtype":"","month":"2025-12"},{"category":"anti-social-behaviour","location_type":"Force","location":{"latitude":"51.509440","street":{"id":1656125,"name":"On or near Blackmore Avenue"},"longitude":"-0.346784"},"context":"","outcome_status":null,"persistent_id":"","id":132875417,"location_subtype":"","month":"2025-12"},{"category":"anti-social-behaviour","location_type":"Force","location":{"latitude":"51.511034","street":{"id":1657620,"name":"On or near Green Man Lane"},"longitude":"-0.323495"},"context":"","outcome_status":null,"persistent_id":"","id":132875569,"location_subtype":"","month":"2025-12"},{"category":"anti-social-behaviour","location_type":"Force","location":{"latitude":"51.513450","street":{"id":1657730,"name":"On or near West Ealing"},"longitude":"-0.320769"},"context":"","outcome_status":null,"persistent_id":"","id":132873389,"location_subtype":"","month":"2025-12"},{"category":"anti-social-behaviour","location_type":"Force","location":{"latitude":"51.505995","street":{"id":1656792,"name":"On or near Jasper Avenue"},"longitude":"-0.334603"},"context":"","outcome_status":null,"persistent_id":"","id":132873279,"location_subtype":"","month":"2025-12"},{"category":"anti-social-behaviour","location_type":"Force","location":{"latitude":"51.511624","street":{"id":1658126,"name":"On or near Hospital"},"longitude":"-0.316340"},"context":"","outcome_status":null,"persistent_id":"","id":132873190,"location_subtype":"","month":"2025-12"},{"category":"anti-social-behaviour","location_type":"Force","location":{"latitude":"51.521903","street":{"id":1656747,"name":"On or near Alcott Close"},"longitude":"-0.335291"},"context":"","outcome_status":null,"persistent_id":"","id":132872682,"location_subtype":"","month":"2025-12"},{"category":"anti-social-behaviour","location_type":"Force","location":{"latitude":"51.521903","street":{"id":1656747,"name":"On or near Alcott Close"},"longitude":"-0.335291"},"context":"","outcome_status":null,"persistent_id":"","id":132872258,"location_subtype":"","month":"2025-12"},{"category":"anti-social-behaviour","location_type":"Force","location":{"latitude":"51.516965","street":{"id":1658150,"name":"On or near Waldeck Road"},"longitude":"-0.316302"},"context":"","outcome_status":null,"persistent_id":"","id":132872240,"location_subtype":"","month":"2025-12"},{"category":"anti-social-behaviour","location_type":"Force","location":{"latitude":"51.509083","street":{"id":1656805,"name":"On or near Bentley Close"},"longitude":"-0.335484"},"context":"","outcome_status":null,"persistent_id":"","id":132872075,"location_subtype":"","month":"2025-12"},{"category":"anti-social-behaviour","location_type":"Force","location":{"latitude":"51.505995","street":{"id":1656792,"name":"On or near Jasper Avenue"},"longitude":"-0.334603"},"context":"","outcome_status":null,"persistent_id":"","id":132871944,"location_subtype":"","month":"2025-12"},{"category":"anti-social-behaviour","location_type":"Force","location":{"latitude":"51.507893","street":{"id":1656091,"name":"On or near Hospital"},"longitude":"-0.346076"},"context":"","outcome_status":null,"persistent_id":"","id":132868456,"location_subtype":"","month":"2025-12"},{"category":"anti-social-behaviour","location_type":"Force","location":{"latitude":"51.521782","street":{"id":1657000,"name":"On or near Templeman Road"},"longitude":"-0.332456"},"context":"","outcome_status":null,"persistent_id":"","id":132871943,"location_subtype":"","month":"2025-12"},{"category":"anti-social-behaviour","location_type":"Force","location":{"latitude":"51.507893","street":{"id":1656091,"name":"On or near Hospital"},"longitude":"-0.346076"},"context":"","outcome_status":null,"persistent_id":"","id":132864805,"location_subtype":"","month":"2025-12"},{"category":"anti-social-behaviour","location_type":"Force","location":{"latitude":"51.504756","street":{"id":1657722,"name":"On or near Hessel Road"},"longitude":"-0.322126"},"context":"","outcome_status":null,"persistent_id":"","id":132864787,"location_subtype":"","month":"2025-12"},{"category":"anti-social-behaviour","location_type":"Force","location":{"latitude":"51.512497","street":{"id":1657346,"name":"On or near Felix Road"},"longitude":"-0.326454"},"context":"","outcome_status":null,"persistent_id":"","id":132864746,"location_subtype":"","month":"2025-12"},{"category":"anti-social-behaviour","location_type":"Force","location":{"latitude":"51.504669","street":{"id":1656611,"name":"On or near Rosebank Road"},"longitude":"-0.338152"},"context":"","outcome_status":null,"persistent_id":"","id":132869626,"location_subtype":"","month":"2025-12"},{"category":"anti-social-behaviour","location_type":"Force","location":{"latitude":"51.503162","street":{"id":1656796,"name":"On or near Lambourn Close"},"longitude":"-0.335225"},"context":"","outcome_status":null,"persistent_id":"","id":132870902,"location_subtype":"","month":"2025-12"},{"category":"anti-social-behaviour","location_type":"Force","location":{"latitude":"51.512601","street":{"id":1657723,"name":"On or near Alexandria Road"},"longitude":"-0.321737"},"context":"","outcome_status":null,"persistent_id":"","id":132874792,"location_subtype":"","month":"2025-12"},{"category":"anti-social-behaviour","location_type":"Force","location":{"latitude":"51.510379","street":{"id":1657652,"name":"On or near Broadway"},"longitude":"-0.322943"},"context":"","outcome_status":null,"persistent_id":"","id":132874771,"location_subtype":"","month":"2025-12"},{"category":"anti-social-behaviour","location_type":"Force","location":{"latitude":"51.513973","street":{"id":1656608,"name":"On or near Yeats Close"},"longitude":"-0.336661"},"context":"","outcome_status":null,"persistent_id":"","id":132871725,"location_subtype":"","month":"2025-12"},{"category":"anti-social-behaviour","location_type":"Force","location":{"latitude":"51.508148","street":{"id":1657540,"name":"On or near Regina Road"},"longitude":"-0.324149"},"context":"","outcome_status":null,"persistent_id":"","id":132871147,"location_subtype":"","month":"2025-12"},{"category":"anti-social-behaviour","location_type":"Force","location":{"latitude":"51.517930","street":{"id":1655660,"name":"On or near Hawthorne Mews"},"longitude":"-0.354548"},"context":"","outcome_status":null,"persistent_id":"","id":132868083,"location_subtype":"","month":"2025-12"},{"category":"anti-social-behaviour","location_type":"Force","location":{"latitude":"51.504156","street":{"id":1656638,"name":"On or near Osterley Park View Road"},"longitude":"-0.337465"},"context":"","outcome_status":null,"persistent_id":"","id":132868390,"location_subtype":"","month":"2025-12"},{"category":"anti-social-behaviour","location_type":"Force","location":{"latitude":"51.513093","street":{"id":1657885,"name":"On or near Alexandria Road"},"longitude":"-0.319673"},"context":"","outcome_status":null,"persistent_id":"","id":132868487,"location_subtype":"","month":"2025-12"},{"category":"anti-social-behaviour","location_type":"Force","location":{"latitude":"51.510379","street":{"id":1657652,"name":"On or near Broadway"},"longitude":"-0.322943"},"context":"","outcome_status":null,"persistent_id":"","id":132878326,"location_subtype":"","month":"2025-12"},{"category":"anti-social-behaviour","location_type":"Force","location":{"latitude":"51.513973","street":{"id":1656608,"name":"On or near Yeats Close"},"longitude":"-0.336661"},"context":"","outcome_status":null,"persistent_id":"","id":132874748,"location_subtype":"","month":"2025-12"},{"category":"anti-social-behaviour","location_type":"Force","location":{"latitude":"51.511624","street":{"id":1658126,"name":"On or near Hospital"},"longitude":"-0.316340"},"context":"","outcome_status":null,"persistent_id":"","id":132874431,"location_subtype":"","month":"2025-12"},{"category":"anti-social-behaviour","location_type":"Force","location":{"latitude":"51.510379","street":{"id":1657652,"name":"On or near Broadway"},"longitude":"-0.322943"},"context":"","outcome_status":null,"persistent_id":"","id":132874313,"location_subtype":"","month":"2025-12"},{"category":"anti-social-behaviour","location_type":"Force","location":{"latitude":"51.507922","street":{"id":1656842,"name":"On or near Montague Avenue"},"longitude":"-0.334792"},"context":"","outcome_status":null,"persistent_id":"","id":132875333,"location_subtype":"","month":"2025-12"},{"category":"anti-social-behaviour","location_type":"Force","location":{"latitude":"51.506583","street":{"id":1658133,"name":"On or near Lancaster Gardens"},"longitude":"-0.316584"},"context":"","outcome_status":null,"persistent_id":"","id":132879936,"location_subtype":"","month":"2025-12"},{"category":"anti-social-behaviour","location_type":"Force","location":{"latitude":"51.508148","street":{"id":1657540,"name":"On or near Regina Road"},"longitude":"-0.324149"},"context":"","outcome_status":null,"persistent_id":"","id":132878565,"location_subtype":"","month":"2025-12"},{"category":"bicycle-theft","location_type":"Force","location":{"latitude":"51.522544","street":{"id":1655988,"name":"On or near Bridge Avenue"},"longitude":"-0.346309"},"context":"","outcome_status":{"category":"Investigation complete; no suspect identified","date":"2025-12"},"persistent_id":"91fa3f76e5d2092f33a1ddc908102842e02d96fef520d23472ee66a9f6b5b27d","id":132938759,"location_subtype":"","month":"2025-12"},{"category":"bicycle-theft","location_type":"Force","location":{"latitude":"51.511885","street":{"id":1658279,"name":"On or near Parking Area"},"longitude":"-0.314486"},"context":"","outcome_status":{"category":"Under investigation","date":"2025-12"},"persistent_id":"c3f8c93db5e95d076a7863ac19b6970894d4cf442902d200e7949b08efe5c0ca","id":132935504,"location_subtype":"","month":"2025-12"},{"category":"burglary","location_type":"Force","location":{"latitude":"51.506930","street":{"id":1657634,"name":"On or near Sydney Road"},"longitude":"-0.323228"},"context":"","outcome_status":{"category":"Investigation complete; no suspect identified","date":"2025-12"},"persistent_id":"c591ac3d909323c2bd764a98d933873fbc0e28d4dfd2cd09775738936521d75e","id":132955928,"location_subtype":"","month":"2025-12"},{"category":"burglary","location_type":"Force","location":{"latitude":"51.511091","street":{"id":1658218,"name":"On or near Dane Road"},"longitude":"-0.314904"},"context":"","outcome_status":{"category":"Under investigation","date":"2025-12"},"persistent_id":"bb0bc7c8c9a4a9b769b1a7920107972a0a42eb57e29c3f8c1977fae022eda351","id":132914030,"location_subtype":"","month":"2025-12"},{"category":"burglary","location_type":"Force","location":{"latitude":"51.522700","street":{"id":1656329,"name":"On or near Supermarket"},"longitude":"-0.340120"},"context":"","outcome_status":{"category":"Investigation complete; no suspect identified","date":"2025-12"},"persistent_id":"e913edf929d3dfa093dd2f0ff590f8d419a57b6001951340e36d072890c301c1","id":132952230,"location_subtype":"","month":"2025-12"},{"category":"burglary","location_type":"Force","location":{"latitude":"51.513093","street":{"id":1657885,"name":"On or near Alexandria Road"},"longitude":"-0.319673"},"context":"","outcome_status":{"category":"Investigation complete; no suspect identified","date":"2025-12"},"persistent_id":"33362d8dbd605120331c09a9d7755cef92886872d7c11d4d8d4d0971b3539e5a","id":132900441,"location_subtype":"","month":"2025-12"},{"category":"burglary","location_type":"Force","location":{"latitude":"51.521446","street":{"id":1656318,"name":"On or near Beresford Avenue"},"longitude":"-0.343005"},"context":"","outcome_status":{"category":"Under investigation","date":"2025-12"},"persistent_id":"8e82578e4a105604bdc620dfe698c016b4b4bcfa432eb61e88b0e6da2f3beb79","id":132923615,"location_subtype":"","month":"2025-12"},{"category":"burglary","location_type":"Force","location":{"latitude":"51.521130","street":{"id":1657312,"name":"On or near Rutland Gardens"},"longitude":"-0.327723"},"context":"","outcome_status":{"category":"Investigation complete; no suspect identified","date":"2026-01"},"persistent_id":"9b891acd7b0a09d6afa1ff74adb7440c65162af9361373d4b8e41e4f81e53bd1","id":132939527,"location_subtype":"","month":"2025-12"},{"category":"burglary","location_type":"Force","location":{"latitude":"51.513973","street":{"id":1656608,"name":"On or near Yeats Close"},"longitude":"-0.336661"},"context":"","outcome_status":{"category":"Under investigation","date":"2025-12"},"persistent_id":"2f875a026789400ac8aab225140e1ddb34426b6e61a507a9789301f99cfd6ea9","id":132890045,"location_subtype":"","month":"2025-12"},{"category":"burglary","location_type":"Force","location":{"latitude":"51.523883","street":{"id":1656474,"name":"On or near Hillyard Road"},"longitude":"-0.339255"},"context":"","outcome_status":{"category":"Investigation complete; no suspect identified","date":"2026-01"},"persistent_id":"c592dbb5c242410353cb778beb0f866e1ca07d067bf16fe6e020d3a8a082cb75","id":132955083,"location_subtype":"","month":"2025-12"},{"category":"burglary","location_type":"Force","location":{"latitude":"51.518475","street":{"id":1656886,"name":"On or near Homefarm Road"},"longitude":"-0.334551"},"context":"","outcome_status":{"category":"Investigation complete; no suspect identified","date":"2026-01"},"persistent_id":"740748b45a7eb57b3199148d189f00f27f65059a57952b714c22ea63e598f495","id":132890696,"location_subtype":"","month":"2025-12"},{"category":"burglary","location_type":"Force","location":{"latitude":"51.507514","street":{"id":1658168,"name":"On or near Rathgar Avenue"},"longitude":"-0.315656"},"context":"","outcome_status":{"category":"Investigation complete; no suspect identified","date":"2026-01"},"persistent_id":"addafdccd211bd806c1dc5a1af6e7a6011dc37d9bab0ae4d2075f5dac3959d3d","id":132945898,"location_subtype":"","month":"2025-12"},{"category":"burglary","location_type":"Force","location":{"latitude":"51.516091","street":{"id":1657618,"name":"On or near Sutherland Road"},"longitude":"-0.323742"},"context":"","outcome_status":{"category":"Under investigation","date":"2025-12"},"persistent_id":"418b634c46a56865ae63919d74f94ab2d2acb0d012f11f5a35720b0d79694392","id":132884855,"location_subtype":"","month":"2025-12"},{"category":"burglary","location_type":"Force","location":{"latitude":"51.503366","street":{"id":1657998,"name":"On or near Northfield Avenue"},"longitude":"-0.317351"},"context":"","outcome_status":{"category":"Under investigation","date":"2025-12"},"persistent_id":"ed8abd719ff04a7db5b8a29af59702e14efc4313a9c903c731124ce0b7cf3cbc","id":132930442,"location_subtype":"","month":"2025-12"},{"category":"burglary","location_type":"Force","location":{"latitude":"51.507893","street":{"id":1656091,"name":"On or near Hospital"},"longitude":"-0.346076"},"context":"","outcome_status":{"category":"Under investigation","date":"2025-12"},"persistent_id":"4e2e3d7b76a41125e1d8572f29f4ca063553b5fa593dde3cfdd8073cd2f6647a","id":132944757,"location_subtype":"","month":"2025-12"},{"category":"burglary","location_type":"Force","location":{"latitude":"51.514604","street":{"id":1658122,"name":"On or near Langham Gardens"},"longitude":"-0.315956"},"context":"","outcome_status":{"category":"Investigation complete; no suspect identified","date":"2025-12"},"persistent_id":"97028265818a1248e675f8afe095bb3f542a090929197ff9be8174880f74a05a","id":132901621,"location_subtype":"","month":"2025-12"},{"category":"burglary","location_type":"Force","location":{"latitude":"51.510237","street":{"id":1657559,"name":"On or near Broadway"},"longitude":"-0.323755"},"context":"","outcome_status":{"category":"Investigation complete; no suspect identified","date":"2025-12"},"persistent_id":"873965d08285d4bee7b3485fc5d70e35b455a474ba096a265d588c359e9e411d","id":132941616,"location_subtype":"","month":"2025-12"},{"category":"burglary","location_type":"Force","location":{"latitude":"51.522118","street":{"id":1656314,"name":"On or near Beechmount Avenue"},"longitude":"-0.343485"},"context":"","outcome_status":{"category":"Investigation complete; no suspect identified","date":"2026-01"},"persistent_id":"b443acc0439d73e1f498061308a9dfc3e8a88c5ebd821dbc730ddc118e8a41f8","id":132941195,"location_subtype":"","month":"2025-12"},{"category":"burglary","location_type":"Force","location":{"latitude":"51.520150","street":{"id":1657473,"name":"On or near Charles Road"},"longitude":"-0.323953"},"context":"","outcome_status":{"category":"Investigation complete; no suspect identified","date":"2026-01"},"persistent_id":"66065ce1c2b177b7985d4f971ad2c4ded99e6021b39073d12110154c1e9ae7d7","id":132941337,"location_subtype":"","month":"2025-12"},{"category":"burglary","location_type":"Force","location":{"latitude":"51.519281","street":{"id":1656917,"name":"On or near Stephenson Road"},"longitude":"-0.333628"},"context":"","outcome_status":{"category":"Investigation complete; no suspect identified","date":"2026-01"},"persistent_id":"71068e510f24dcd1ad8bdb4cf9a98d8de3fdfaeaa4a9b21519584adf7c3b4270","id":132935232,"location_subtype":"","month":"2025-12"},{"category":"burglary","location_type":"Force","location":{"latitude":"51.520209","street":{"id":1656880,"name":"On or near Westcott Crescent"},"longitude":"-0.333147"},"context":"","outcome_status":{"category":"Investigation complete; no suspect identified","date":"2026-01"},"persistent_id":"85654b54ce5918888136d54b3112c412a508c49d35d24ec1224e24d9816edb5a","id":132935430,"location_subtype":"","month":"2025-12"},{"category":"burglary","location_type":"Force","location":{"latitude":"51.513321","street":{"id":1656613,"name":"On or near Church Road"},"longitude":"-0.338198"},"context":"","outcome_status":{"category":"Investigation complete; no suspect identified","date":"2026-01"},"persistent_id":"762f1300aa6b62ad4563a89e8967c92f646e3c272326ee850b532742f827e378","id":132946795,"location_subtype":"","month":"2025-12"},{"category":"burglary","location_type":"Force","location":{"latitude":"51.509767","street":{"id":1657358,"name":"On or near Walsingham Road"},"longitude":"-0.326727"},"context":"","outcome_status":{"category":"Under investigation","date":"2025-12"},"persistent_id":"c377d258301c782c0db03578eadefc72e4740029ef6d2bdab7ecb366c6bcb20d","id":132938147,"location_subtype":"","month":"2025-12"},{"category":"burglary","location_type":"Force","location":{"latitude":"51.520406","street":{"id":1657613,"name":"On or near Hollingbourne Gardens"},"longitude":"-0.321739"},"context":"","outcome_status":{"category":"Investigation complete; no suspect identified","date":"2025-12"},"persistent_id":"f8a933f18c4760f2e11bbc79805c650609592126896752610b561e0432e4b17b","id":132920987,"location_subtype":"","month":"2025-12"},{"category":"burglary","location_type":"Force","location":{"latitude":"51.521941","street":{"id":1657143,"name":"On or near Chelsea Gardens"},"longitude":"-0.330360"},"context":"","outcome_status":{"category":"Under investigation","date":"2025-12"},"persistent_id":"f4a954c7e0af6cd5927c941b728bfc1a3df14c887e712965d34e80eb2707bd88","id":132935595,"location_subtype":"","month":"2025-12"},{"category":"burglary","location_type":"Force","location":{"latitude":"51.513321","street":{"id":1656613,"name":"On or near Church Road"},"longitude":"-0.338198"},"context":"","outcome_status":{"category":"Investigation complete; no suspect identified","date":"2026-01"},"persistent_id":"4aef211a9e97760dd6334451145964d7db40ef37a895921ce91515f65204f3aa","id":132895675,"location_subtype":"","month":"2025-12"},{"category":"burglary","location_type":"Force","location":{"latitude":"51.519717","street":{"id":1657271,"name":"On or near Cavendish Avenue"},"longitude":"-0.328308"},"context":"","outcome_status":{"category":"Investigation complete; no suspect identified","date":"2025-12"},"persistent_id":"3adc7608e05bc68a31fa61e9f03332caa7882923ed99be8249d8934e7467c892","id":132936946,"location_subtype":"","month":"2025-12"},{"category":"burglary","location_type":"Force","location":{"latitude":"51.507561","street":{"id":1658086,"name":"On or near Lavington Road"},"longitude":"-0.316432"},"context":"","outcome_status":{"category":"Under investigation","date":"2025-12"},"persistent_id":"3685d435724f18720bafc8496df20ff49567d384c43b44fd66a5d95d82f47c79","id":132951549,"location_subtype":"","month":"2025-12"},{"category":"burglary","location_type":"Force","location":{"latitude":"51.504327","street":{"id":1657198,"name":"On or near Manton Avenue"},"longitude":"-0.329246"},"context":"","outcome_status":{"category":"Under investigation","date":"2025-12"},"persistent_id":"3bf77f22f5dd74be6d7792d7b73bad07d1e852609ee160263a96c2ac10d8c13b","id":132941197,"location_subtype":"","month":"2025-12"},{"category":"burglary","location_type":"Force","location":{"latitude":"51.510379","street":{"id":1657652,"name":"On or near Broadway"},"longitude":"-0.322943"},"context":"","outcome_status":{"category":"Unable to prosecute suspect","date":"2026-01"},"persistent_id":"17256a3aa59e64137071a2e3466653ab9d8f279d1df5b7f44a04021c24474348","id":132923636,"location_subtype":"","month":"2025-12"},{"category":"criminal-damage-arson","location_type":"Force","location":{"latitude":"51.522544","street":{"id":1655988,"name":"On or near Bridge Avenue"},"longitude":"-0.346309"},"context":"","outcome_status":{"category":"Unable to prosecute suspect","date":"2026-01"},"persistent_id":"45969cb0d5023f9a040dbc9aafe995d04b31cb778df4c83b750924b7c550093e","id":132941288,"location_subtype":"","month":"2025-12"},{"category":"criminal-damage-arson","location_type":"Force","location":{"latitude":"51.524807","street":{"id":1657360,"name":"On or near Avalon Close"},"longitude":"-0.326435"},"context":"","outcome_status":{"category":"Investigation complete; no suspect identified","date":"2025-12"},"persistent_id":"825af17338783170ba0cc3fa3d9b7eb06174b0a6f2d41ccef52f090ddabe2782","id":132911808,"location_subtype":"","month":"2025-12"},{"category":"criminal-damage-arson","location_type":"Force","location":{"latitude":"51.510091","street":{"id":1658033,"name":"On or near Broomfield Place"},"longitude":"-0.317290"},"context":"","outcome_status":{"category":"Investigation complete; no suspect identified","date":"2025-12"},"persistent_id":"99a891496104e256103db30cf7a523e60debd7b6c7185875944e06ca5ef9d623","id":132939741,"location_subtype":"","month":"2025-12"},{"category":"criminal-damage-arson","location_type":"Force","location":{"latitude":"51.513117","street":{"id":1657643,"name":"On or near Supermarket"},"longitude":"-0.321978"},"context":"","outcome_status":{"category":"Investigation complete; no suspect identified","date":"2025-12"},"persistent_id":"60372e41a169f1db625ed42adabc75477ae660843a202adae0942e8180e0d991","id":132885095,"location_subtype":"","month":"2025-12"},{"category":"criminal-damage-arson","location_type":"Force","location":{"latitude":"51.518444","street":{"id":1657087,"name":"On or near Framfield Road"},"longitude":"-0.330473"},"context":"","outcome_status":{"category":"Under investigation","date":"2025-12"},"persistent_id":"847d329b435572824c94e041b1f178431246dae0e93bd1c5ad73ddabf98ef07b","id":132949937,"location_subtype":"","month":"2025-12"},{"category":"criminal-damage-arson","location_type":"Force","location":{"latitude":"51.506302","street":{"id":1655396,"name":"On or near Water Lily Close"},"longitude":"-0.355096"},"context":"","outcome_status":{"category":"Under investigation","date":"2025-12"},"persistent_id":"c9ae3119c3f6c920022917a348f8757a30856e600d60534ca4a30f74e669f8de","id":132902679,"location_subtype":"","month":"2025-12"},{"category":"criminal-damage-arson","location_type":"Force","location":{"latitude":"51.517930","street":{"id":1655660,"name":"On or near Hawthorne Mews"},"longitude":"-0.354548"},"context":"","outcome_status":{"category":"Investigation complete; no suspect identified","date":"2026-01"},"persistent_id":"b5971bff7131bc3431569e413984c7939b505610685255c2f0d7f4e9e07e7bff","id":132886919,"location_subtype":"","month":"2025-12"},{"category":"criminal-damage-arson","location_type":"Force","location":{"latitude":"51.510733","street":{"id":1657762,"name":"On or near Bedford Road"},"longitude":"-0.320711"},"context":"","outcome_status":{"category":"Investigation complete; no suspect identified","date":"2025-12"},"persistent_id":"2aecf4b9e4fda81b284e68b447c907f70e450accd66a6d29d9baf0afaa2822bf","id":132907650,"location_subtype":"","month":"2025-12"},{"category":"criminal-damage-arson","location_type":"Force","location":{"latitude":"51.514668","street":{"id":1656310,"name":"On or near Oakley Close"},"longitude":"-0.341925"},"context":"","outcome_status":{"category":"Investigation complete; no suspect identified","date":"2025-12"},"persistent_id":"41ca21a42100a8013ee679d547b7f1f63de9c807f4ab379f1c2d946e1a46f916","id":132945068,"location_subtype":"","month":"2025-12"},{"category":"criminal-damage-arson","location_type":"Force","location":{"latitude":"51.507893","street":{"id":1656091,"name":"On or near Hospital"},"longitude":"-0.346076"},"context":"","outcome_status":{"category":"Investigation complete; no suspect identified","date":"2025-12"},"persistent_id":"7313f832ff015b1c9a71e6963f872b6484a7069c75d167e8014367ba852394b5","id":132890687,"location_subtype":"","month":"2025-12"},{"category":"criminal-damage-arson","location_type":"Force","location":{"latitude":"51.517930","street":{"id":1655660,"name":"On or near Hawthorne Mews"},"longitude":"-0.354548"},"context":"","outcome_status":{"category":"Investigation complete; no suspect identified","date":"2026-01"},"persistent_id":"ac291106b2c8127eb039302cb51985948298f369ff3db617e12b2158ca799689","id":132909934,"location_subtype":"","month":"2025-12"},{"category":"criminal-damage-arson","location_type":"Force","location":{"latitude":"51.509281","street":{"id":1657502,"name":"On or near Supermarket"},"longitude":"-0.325390"},"context":"","outcome_status":{"category":"Investigation complete; no suspect identified","date":"2025-12"},"persistent_id":"e81d6a3aebdc5ee4b222eda36c7a25649a7fd8f16499fde767ce63d7a0135f08","id":132929916,"location_subtype":"","month":"2025-12"},{"category":"criminal-damage-arson","location_type":"Force","location":{"latitude":"51.509856","street":{"id":1657713,"name":"On or near Parking Area"},"longitude":"-0.322242"},"context":"","outcome_status":{"category":"Under investigation","date":"2025-12"},"persistent_id":"871d672069df31372a74d96f22fb64a69a8281b9ed2ad5b73f9cd7039dcbb30b","id":132920907,"location_subtype":"","month":"2025-12"},{"category":"criminal-damage-arson","location_type":"Force","location":{"latitude":"51.524807","street":{"id":1657360,"name":"On or near Avalon Close"},"longitude":"-0.326435"},"context":"","outcome_status":{"category":"Investigation complete; no suspect identified","date":"2025-12"},"persistent_id":"061a5947bbbf05e3123a83e32d2bdfacc05ba07e072617f73f8b4cbae490475c","id":132911799,"location_subtype":"","month":"2025-12"},{"category":"criminal-damage-arson","location_type":"Force","location":{"latitude":"51.510942","street":{"id":1657724,"name":"On or near Witham Road"},"longitude":"-0.322115"},"context":"","outcome_status":{"category":"Unable to prosecute suspect","date":"2026-01"},"persistent_id":"333a786a363444e3ff9a09974d7d2049a1f680a8ce33b5a944581ffb9a6c9fb4","id":132882710,"location_subtype":"","month":"2025-12"},{"category":"criminal-damage-arson","location_type":"Force","location":{"latitude":"51.509511","street":{"id":1657624,"name":"On or near Leeland Road"},"longitude":"-0.323292"},"context":"","outcome_status":{"category":"Under investigation","date":"2025-12"},"persistent_id":"d231bbdb2f6c395112013463cd7ef20f018ecdd5ef1cfede2c72604191335b4e","id":132948207,"location_subtype":"","month":"2025-12"},{"category":"criminal-damage-arson","location_type":"Force","location":{"latitude":"51.509932","street":{"id":1657470,"name":"On or near Brownlow Road"},"longitude":"-0.325683"},"context":"","outcome_status":{"category":"Unable to prosecute suspect","date":"2025-12"},"persistent_id":"ee73b2d680ecd0ca89140b6290889c68d863e80140f1ee6bc8c442357209ceb0","id":132932902,"location_subtype":"","month":"2025-12"},{"category":"criminal-damage-arson","location_type":"Force","location":{"latitude":"51.508270","street":{"id":1657238,"name":"On or near Grosvenor Road"},"longitude":"-0.328309"},"context":"","outcome_status":{"category":"Under investigation","date":"2025-12"},"persistent_id":"4cd456034b35d3fa5a0667b6fc09769714be1bce9c5f41e9b169f2c6298c9568","id":132932863,"location_subtype":"","month":"2025-12"},{"category":"criminal-damage-arson","location_type":"Force","location":{"latitude":"51.510942","street":{"id":1657724,"name":"On or near Witham Road"},"longitude":"-0.322115"},"context":"","outcome_status":{"category":"Under investigation","date":"2025-12"},"persistent_id":"333a786a363444e3ff9a09974d7d2049a1f680a8ce33b5a944581ffb9a6c9fb4","id":132882709,"location_subtype":"","month":"2025-12"},{"category":"criminal-damage-arson","location_type":"Force","location":{"latitude":"51.509589","street":{"id":1657193,"name":"On or near Uxbridge Road"},"longitude":"-0.329385"},"context":"","outcome_status":{"category":"Unable to prosecute suspect","date":"2025-12"},"persistent_id":"c19a5f1f9ffed51d5abc52c492847d45c412df842f12b51d7496c7be3fdb2b53","id":132928759,"location_subtype":"","month":"2025-12"},{"category":"criminal-damage-arson","location_type":"Force","location":{"latitude":"51.506716","street":{"id":1655697,"name":"On or near Hospital"},"longitude":"-0.351075"},"context":"","outcome_status":{"category":"Unable to prosecute suspect","date":"2026-01"},"persistent_id":"fa82ea4ea6d7ed7b220b3d7343f1645002f1b41e9ef26b771901eb7fa091b2c7","id":132931207,"location_subtype":"","month":"2025-12"},{"category":"criminal-damage-arson","location_type":"Force","location":{"latitude":"51.510722","street":{"id":1657509,"name":"On or near Parking Area"},"longitude":"-0.325539"},"context":"","outcome_status":{"category":"Unable to prosecute suspect","date":"2025-12"},"persistent_id":"c394532b8e8ceb0567c413a511b83bf6c9799301a5fb538c3f423d5cae8ad131","id":132913090,"location_subtype":"","month":"2025-12"},{"category":"criminal-damage-arson","location_type":"Force","location":{"latitude":"51.521941","street":{"id":1657143,"name":"On or near Chelsea Gardens"},"longitude":"-0.330360"},"context":"","outcome_status":{"category":"Under investigation","date":"2025-12"},"persistent_id":"fee95318e091e67a639b909d4f8976fb88a9c727af5c56e996ed39cf2475aaa2","id":132883709,"location_subtype":"","month":"2025-12"},{"category":"criminal-damage-arson","location_type":"Force","location":{"latitude":"51.519775","street":{"id":1657034,"name":"On or near Copley Close"},"longitude":"-0.330468"},"context":"","outcome_status":{"category":"Investigation complete; no suspect identified","date":"2025-12"},"persistent_id":"a8c584f6915f01ca10b86b41113f8d4a5d2abf5e3b8a4814ebeefb1ea9aa7c76","id":132883198,"location_subtype":"","month":"2025-12"},{"category":"drugs","location_type":"Force","location":{"latitude":"51.516188","street":{"id":1656861,"name":"On or near Dryden Avenue"},"longitude":"-0.334303"},"context":"","outcome_status":{"category":"Unable to prosecute suspect","date":"2025-12"},"persistent_id":"1ba4b0c0e8def7006f5fcddb67acd713f2d4dc5774f953fd2d2d75113f138568","id":132892118,"location_subtype":"","month":"2025-12"},{"category":"drugs","location_type":"Force","location":{"latitude":"51.505286","street":{"id":1655692,"name":"On or near Navigator Drive"},"longitude":"-0.353807"},"context":"","outcome_status":{"category":"Unable to prosecute suspect","date":"2025-12"},"persistent_id":"b61eaad14711cb67c709198c9328622a8b8392442b090dbedd01b573a4502e12","id":132882211,"location_subtype":"","month":"2025-12"},{"category":"drugs","location_type":"Force","location":{"latitude":"51.509083","street":{"id":1656805,"name":"On or near Bentley Close"},"longitude":"-0.335484"},"context":"","outcome_status":{"category":"Under investigation","date":"2025-12"},"persistent_id":"a4bbf959340fc2e472a20503c353fcc77e52c6dffe5c0d6bbbdfc05692daba30","id":132903591,"location_subtype":"","month":"2025-12"},{"category":"drugs","location_type":"Force","location":{"latitude":"51.510722","street":{"id":1657509,"name":"On or near Parking Area"},"longitude":"-0.325539"},"context":"","outcome_status":{"category":"Under investigation","date":"2025-12"},"persistent_id":"066d8329d4857a9e6d255a4b20bb0dc3ab4cdeeca6525ced6b5f128c9b974a58","id":132948072,"location_subtype":"","month":"2025-12"},{"category":"drugs","location_type":"Force","location":{"latitude":"51.522544","street":{"id":1655988,"name":"On or near Bridge Avenue"},"longitude":"-0.346309"},"context":"","outcome_status":{"category":"Unable to prosecute suspect","date":"2025-12"},"persistent_id":"7e3ce63de8817731a205d25f5024f0e993fd2063b68f3a7ff58a736bbc5696e5","id":132894341,"location_subtype":"","month":"2025-12"},{"category":"drugs","location_type":"Force","location":{"latitude":"51.509083","street":{"id":1656805,"name":"On or near Bentley Close"},"longitude":"-0.335484"},"context":"","outcome_status":{"category":"Unable to prosecute suspect","date":"2025-12"},"persistent_id":"a4bbf959340fc2e472a20503c353fcc77e52c6dffe5c0d6bbbdfc05692daba30","id":132903592,"location_subtype":"","month":"2025-12"},{"category":"drugs","location_type":"Force","location":{"latitude":"51.509658","street":{"id":1656966,"name":"On or near Azalea Close"},"longitude":"-0.332308"},"context":"","outcome_status":{"category":"Under investigation","date":"2025-12"},"persistent_id":"e38738d072e0a6d31fa2f84e04e41629960049ff314993617f3dd08f5576253c","id":132953899,"location_subtype":"","month":"2025-12"},{"category":"drugs","location_type":"Force","location":{"latitude":"51.506930","street":{"id":1657634,"name":"On or near Sydney Road"},"longitude":"-0.323228"},"context":"","outcome_status":{"category":"Under investigation","date":"2025-12"},"persistent_id":"59403586b8f5083509a09834b5bc836ec5a33433e0f58244803af9799610b045","id":132954621,"location_subtype":"","month":"2025-12"},{"category":"drugs","location_type":"Force","location":{"latitude":"51.510230","street":{"id":1657420,"name":"On or near Chignell Place"},"longitude":"-0.326349"},"context":"","outcome_status":{"category":"Unable to prosecute suspect","date":"2025-12"},"persistent_id":"f69ae356c130205024f26fcf2f092b65c270aaf0693cf591fcc9c96386a35505","id":132932298,"location_subtype":"","month":"2025-12"},{"category":"drugs","location_type":"Force","location":{"latitude":"51.510986","street":{"id":1658121,"name":"On or near Kirkfield Close"},"longitude":"-0.316393"},"context":"","outcome_status":{"category":"Awaiting court outcome","date":"2025-12"},"persistent_id":"73175a4afb7ed525a11defdf8e225e6f8c6159c69b8a35ea67894885550436fc","id":132939694,"location_subtype":"","month":"2025-12"},{"category":"drugs","location_type":"Force","location":{"latitude":"51.525431","street":{"id":1656307,"name":"On or near Old Twelve Close"},"longitude":"-0.341231"},"context":"","outcome_status":{"category":"Awaiting court outcome","date":"2026-01"},"persistent_id":"61ae58f22185e7d1349f52b65e8292d4ab4689ecf0a5b1c519330c32dfd32257","id":132951382,"location_subtype":"","month":"2025-12"},{"category":"drugs","location_type":"Force","location":{"latitude":"51.509281","street":{"id":1657502,"name":"On or near Supermarket"},"longitude":"-0.325390"},"context":"","outcome_status":{"category":"Under investigation","date":"2025-12"},"persistent_id":"fc10a1d987759d8c8ea1f1122d29623667a66c1b51bc73730e25435c23c5e119","id":132896098,"location_subtype":"","month":"2025-12"},{"category":"drugs","location_type":"Force","location":{"latitude":"51.509658","street":{"id":1656966,"name":"On or near Azalea Close"},"longitude":"-0.332308"},"context":"","outcome_status":{"category":"Under investigation","date":"2025-12"},"persistent_id":"3a659936d60a84c4fe7f248be33dcecf2b6145ec132556ddd735d83e8e311991","id":132953900,"location_subtype":"","month":"2025-12"},{"category":"drugs","location_type":"Force","location":{"latitude":"51.512601","street":{"id":1657723,"name":"On or near Alexandria Road"},"longitude":"-0.321737"},"context":"","outcome_status":{"category":"Local resolution","date":"2026-01"},"persistent_id":"aea1a89f458b4c4492bf05fc2ad92b3b8339c2dd3de13fb2bc95a95ab93418a8","id":132882369,"location_subtype":"","month":"2025-12"},{"category":"drugs","location_type":"Force","location":{"latitude":"51.508656","street":{"id":1657840,"name":"On or near Holbeck Road"},"longitude":"-0.320701"},"context":"","outcome_status":{"category":"Unable to prosecute suspect","date":"2025-12"},"persistent_id":"2808d04572d460e496486aa570d6a2afa875b4761983086d308a313f186906ec","id":132946914,"location_subtype":"","month":"2025-12"},{"category":"drugs","location_type":"Force","location":{"latitude":"51.510379","street":{"id":1657652,"name":"On or near Broadway"},"longitude":"-0.322943"},"context":"","outcome_status":{"category":"Local resolution","date":"2025-12"},"persistent_id":"8382d0a57590f806692fc0f826f05d4e11a12b112c8d303cfd1f556d9514da5b","id":132888879,"location_subtype":"","month":"2025-12"},{"category":"drugs","location_type":"Force","location":{"latitude":"51.509658","street":{"id":1656966,"name":"On or near Azalea Close"},"longitude":"-0.332308"},"context":"","outcome_status":{"category":"Unable to prosecute suspect","date":"2025-12"},"persistent_id":"3c8bd4c3c66ff866859c87ae4fb932b2805b102c65c2c394f52ecaca255ce21b","id":132912104,"location_subtype":"","month":"2025-12"},{"category":"other-theft","location_type":"Force","location":{"latitude":"51.501581","street":{"id":1656438,"name":"On or near Dock Meadow Reach"},"longitude":"-0.338481"},"context":"","outcome_status":{"category":"Investigation complete; no suspect identified","date":"2025-12"},"persistent_id":"ae6849059f5e2cc7d60cae84b5259af4a10b1a48750762916be2c05bb28e438c","id":132928058,"location_subtype":"","month":"2025-12"},{"category":"other-theft","location_type":"Force","location":{"latitude":"51.499949","street":{"id":1657582,"name":"On or near Haslemere Avenue"},"longitude":"-0.323023"},"context":"","outcome_status":{"category":"Under investigation","date":"2025-12"},"persistent_id":"3cb6fcd678aa87d856ff1cbb84fe88dac70ef17d9ff55cbbce42c33fc4119aa4","id":132943948,"location_subtype":"","month":"2025-12"},{"category":"other-theft","location_type":"Force","location":{"latitude":"51.507893","street":{"id":1656091,"name":"On or near Hospital"},"longitude":"-0.346076"},"context":"","outcome_status":{"category":"Investigation complete; no suspect identified","date":"2025-12"},"persistent_id":"d3806efc5fda23e1317c105891c77e06ff0010df9e5050e60037b54a9c2b4bc0","id":132954419,"location_subtype":"","month":"2025-12"},{"category":"other-theft","location_type":"Force","location":{"latitude":"51.508960","street":{"id":1657222,"name":"On or near Grosvenor Road"},"longitude":"-0.328759"},"context":"","outcome_status":{"category":"Investigation complete; no suspect identified","date":"2025-12"},"persistent_id":"b9a70ef9e7483df938e62ffbe16d8e6ff67c93bc34c8e1c89d57f76b899e3a84","id":132921201,"location_subtype":"","month":"2025-12"},{"category":"other-theft","location_type":"Force","location":{"latitude":"51.508376","street":{"id":1656579,"name":"On or near Clocktower Mews"},"longitude":"-0.338320"},"context":"","outcome_status":{"category":"Investigation complete; no suspect identified","date":"2025-12"},"persistent_id":"ab6697e1718e002416e4b30330b528c9f0829284fbae507592f321a64933e3b8","id":132916419,"location_subtype":"","month":"2025-12"},{"category":"other-theft","location_type":"Force","location":{"latitude":"51.517806","street":{"id":1656598,"name":"On or near Framfield Road"},"longitude":"-0.334878"},"context":"","outcome_status":{"category":"Under investigation","date":"2025-12"},"persistent_id":"492d9e68d010a56b69584ec2a87ac07403841fa90e97226510f7984945490a78","id":132903991,"location_subtype":"","month":"2025-12"},{"category":"other-theft","location_type":"Force","location":{"latitude":"51.506926","street":{"id":1656492,"name":"On or near Lower Boston Road"},"longitude":"-0.339382"},"context":"","outcome_status":{"category":"Investigation complete; no suspect identified","date":"2025-12"},"persistent_id":"35c3bb7b63c9935641a30682b12e89444f4098be786298447fd8b2b816820a51","id":132881656,"location_subtype":"","month":"2025-12"},{"category":"other-theft","location_type":"Force","location":{"latitude":"51.510379","street":{"id":1657652,"name":"On or near Broadway"},"longitude":"-0.322943"},"context":"","outcome_status":{"category":"Investigation complete; no suspect identified","date":"2025-12"},"persistent_id":"855ee1dc82cd820f0d3f570ebb4691a027a0ad04af6d97b15d1e44c5685240d5","id":132904858,"location_subtype":"","month":"2025-12"},{"category":"other-theft","location_type":"Force","location":{"latitude":"51.524462","street":{"id":1656851,"name":"On or near Greatdown Road"},"longitude":"-0.335025"},"context":"","outcome_status":{"category":"Investigation complete; no suspect identified","date":"2025-12"},"persistent_id":"d600eb13d14ae8afec1ac58f5c37824bb8b1691de9436b374e5eb7da0628c7d3","id":132886306,"location_subtype":"","month":"2025-12"},{"category":"other-theft","location_type":"Force","location":{"latitude":"51.507893","street":{"id":1656091,"name":"On or near Hospital"},"longitude":"-0.346076"},"context":"","outcome_status":{"category":"Under investigation","date":"2025-12"},"persistent_id":"d0d0090e38f5c76d8bc238a612b6ed92b6a23253d7f1fd48ce3a4a777121433a","id":132900503,"location_subtype":"","month":"2025-12"},{"category":"other-theft","location_type":"Force","location":{"latitude":"51.502068","street":{"id":1657875,"name":"On or near Northcroft Road"},"longitude":"-0.319646"},"context":"","outcome_status":{"category":"Investigation complete; no suspect identified","date":"2025-12"},"persistent_id":"bb26595adffb65a4b368378e593a3e5d596234b65fb4634d31fc60e926f1ae29","id":132886308,"location_subtype":"","month":"2025-12"},{"category":"other-theft","location_type":"Force","location":{"latitude":"51.510206","street":{"id":1657542,"name":"On or near Shopping Area"},"longitude":"-0.324693"},"context":"","outcome_status":{"category":"Investigation complete; no suspect identified","date":"2026-01"},"persistent_id":"a8edac8caaf85635b67f2bac54ebd17520bd6af7f2bf3fa9ebd7fb755430dc46","id":132892307,"location_subtype":"","month":"2025-12"},{"category":"other-theft","location_type":"Force","location":{"latitude":"51.510720","street":{"id":1657417,"name":"On or near Singapore Road"},"longitude":"-0.326058"},"context":"","outcome_status":{"category":"Investigation complete; no suspect identified","date":"2025-12"},"persistent_id":"123ee8c04d06441d840664ccf61656f57db50b5208fad30b4188824ad1a11bd9","id":132891053,"location_subtype":"","month":"2025-12"},{"category":"other-theft","location_type":"Force","location":{"latitude":"51.508277","street":{"id":1656027,"name":"On or near Addington Close"},"longitude":"-0.348454"},"context":"","outcome_status":{"category":"Under investigation","date":"2025-12"},"persistent_id":"63a992c7347f1c08dbf8f177e730f63ba369477b599cb7a459a55eded2ca6d10","id":132921757,"location_subtype":"","month":"2025-12"},{"category":"other-theft","location_type":"Force","location":{"latitude":"51.511624","street":{"id":1658126,"name":"On or near Hospital"},"longitude":"-0.316340"},"context":"","outcome_status":{"category":"Investigation complete; no suspect identified","date":"2025-12"},"persistent_id":"28d73b7f1f5618d607ff645f2046799d6134398a428a3b823dfcec33d2b19a83","id":132948059,"location_subtype":"","month":"2025-12"},{"category":"other-theft","location_type":"Force","location":{"latitude":"51.509121","street":{"id":1658180,"name":"On or near Churchfield Road"},"longitude":"-0.315481"},"context":"","outcome_status":{"category":"Unable to prosecute suspect","date":"2026-01"},"persistent_id":"6fd8efec796ebd88568237859065fb0ccb0c9fb855243343ad22868c41a69efa","id":132929235,"location_subtype":"","month":"2025-12"},{"category":"other-theft","location_type":"Force","location":{"latitude":"51.508033","street":{"id":1656735,"name":"On or near Supermarket"},"longitude":"-0.336272"},"context":"","outcome_status":{"category":"Under investigation","date":"2025-12"},"persistent_id":"46b0b05f80eaf16e60c4e287d125a3f257a47f1a42daba9e65faf5780b66e093","id":132928235,"location_subtype":"","month":"2025-12"},{"category":"other-theft","location_type":"Force","location":{"latitude":"51.509780","street":{"id":1657025,"name":"On or near Aria Mews"},"longitude":"-0.331410"},"context":"","outcome_status":{"category":"Under investigation","date":"2025-12"},"persistent_id":"012d248a048689af6a509c3550c797dcc7ed12824232d7217db87e348b7fb74e","id":132937004,"location_subtype":"","month":"2025-12"},{"category":"other-theft","location_type":"Force","location":{"latitude":"51.512362","street":{"id":1657843,"name":"On or near Lancing Road"},"longitude":"-0.320175"},"context":"","outcome_status":{"category":"Investigation complete; no suspect identified","date":"2025-12"},"persistent_id":"30ae035f89012ad2ad1dba0d2caca43ff738883a48725d29d6530cb727c8ab47","id":132930791,"location_subtype":"","month":"2025-12"},{"category":"other-theft","location_type":"Force","location":{"latitude":"51.521370","street":{"id":1657687,"name":"On or near Cleveland Road"},"longitude":"-0.321876"},"context":"","outcome_status":{"category":"Under investigation","date":"2025-12"},"persistent_id":"a6d97662192b8733fa4dc7a995142af0460bf7005322f3b1ef41db572ba6cf14","id":132928631,"location_subtype":"","month":"2025-12"},{"category":"other-theft","location_type":"Force","location":{"latitude":"51.516091","street":{"id":1657618,"name":"On or near Sutherland Road"},"longitude":"-0.323742"},"context":"","outcome_status":{"category":"Investigation complete; no suspect identified","date":"2025-12"},"persistent_id":"664f590de1061dfc6d28b94439d1838096e01abd48a8f5eea19e51337d801ab8","id":132890140,"location_subtype":"","month":"2025-12"},{"category":"other-theft","location_type":"Force","location":{"latitude":"51.503419","street":{"id":1657570,"name":"On or near Chamberlain Road"},"longitude":"-0.324193"},"context":"","outcome_status":{"category":"Under investigation","date":"2025-12"},"persistent_id":"63108f49430fb4a6f9fad553a901436e9eaa2038beade329f6c5ccd66e674f0b","id":132895812,"location_subtype":"","month":"2025-12"},{"category":"other-theft","location_type":"Force","location":{"latitude":"51.523883","street":{"id":1656474,"name":"On or near Hillyard Road"},"longitude":"-0.339255"},"context":"","outcome_status":{"category":"Under investigation","date":"2025-12"},"persistent_id":"8b036d69609383dc7d7177bcd050f1d05801992bb9360bec11202698a745118d","id":132889509,"location_subtype":"","month":"2025-12"},{"category":"other-theft","location_type":"Force","location":{"latitude":"51.508788","street":{"id":1655628,"name":"On or near Windmill Place"},"longitude":"-0.354762"},"context":"","outcome_status":{"category":"Investigation complete; no suspect identified","date":"2025-12"},"persistent_id":"054c2f9462dbe17754a772dfd57148927dae24c55d5cb67341d935d3606dcaef","id":132904598,"location_subtype":"","month":"2025-12"},{"category":"other-theft","location_type":"Force","location":{"latitude":"51.513319","street":{"id":1656972,"name":"On or near Allingham Close"},"longitude":"-0.332390"},"context":"","outcome_status":{"category":"Under investigation","date":"2025-12"},"persistent_id":"2b074165ef2539b8383ca4a086f2f9ec50fc7685e6383b90f8c3c438a8901522","id":132906413,"location_subtype":"","month":"2025-12"},{"category":"other-theft","location_type":"Force","location":{"latitude":"51.525078","street":{"id":1656776,"name":"On or near Harp Road"},"longitude":"-0.334065"},"context":"","outcome_status":{"category":"Investigation complete; no suspect identified","date":"2025-12"},"persistent_id":"29bb634b5faa5fdc3decb10bd784673e960eda953e260ef6418c492ebc82b7a9","id":132952955,"location_subtype":"","month":"2025-12"},{"category":"other-theft","location_type":"Force","location":{"latitude":"51.517938","street":{"id":1658000,"name":"On or near Bradley Gardens"},"longitude":"-0.316468"},"context":"","outcome_status":{"category":"Unable to prosecute suspect","date":"2025-12"},"persistent_id":"4396b00aee1e30ddec6b7b4e0f1f2a9c403a20b070f72201380369216660035d","id":132908957,"location_subtype":"","month":"2025-12"},{"category":"other-theft","location_type":"Force","location":{"latitude":"51.517930","street":{"id":1655660,"name":"On or near Hawthorne Mews"},"longitude":"-0.354548"},"context":"","outcome_status":{"category":"Under investigation","date":"2025-12"},"persistent_id":"88838d045051118f03ea00aaffe32dbcc78d86787c7fbc5f1c12061621974703","id":132933929,"location_subtype":"","month":"2025-12"},{"category":"other-theft","location_type":"Force","location":{"latitude":"51.510379","street":{"id":1657652,"name":"On or near Broadway"},"longitude":"-0.322943"},"context":"","outcome_status":{"category":"Under investigation","date":"2025-12"},"persistent_id":"b36cdba385c9ee558ee9a183ddc5e93d5d0e2ae3c9438ad949c73d915043cc5b","id":132900574,"location_subtype":"","month":"2025-12"},{"category":"other-theft","location_type":"Force","location":{"latitude":"51.526146","street":{"id":1656630,"name":"On or near Brants Walk"},"longitude":"-0.337717"},"context":"","outcome_status":{"category":"Investigation complete; no suspect identified","date":"2025-12"},"persistent_id":"6c0b943b1eddf482aa070735ecff9acda9485706e5932035e309e213c233076a","id":132943843,"location_subtype":"","month":"2025-12"},{"category":"other-theft","location_type":"Force","location":{"latitude":"51.517872","street":{"id":1655541,"name":"On or near Greenford Road"},"longitude":"-0.354852"},"context":"","outcome_status":{"category":"Under investigation","date":"2025-12"},"persistent_id":"d05456ca7a408267560d22fa321111eed7a1f5cee0f979c9f7e4b96816edc0b6","id":132941446,"location_subtype":"","month":"2025-12"},{"category":"other-theft","location_type":"Force","location":{"latitude":"51.508960","street":{"id":1657222,"name":"On or near Grosvenor Road"},"longitude":"-0.328759"},"context":"","outcome_status":{"category":"Under investigation","date":"2025-12"},"persistent_id":"71518d97c2201717ed3ab4c9eea6f99e43a0f432b6ae2c57ce1c0cd475815a0b","id":132942427,"location_subtype":"","month":"2025-12"},{"category":"other-theft","location_type":"Force","location":{"latitude":"51.511624","street":{"id":1658126,"name":"On or near Hospital"},"longitude":"-0.316340"},"context":"","outcome_status":{"category":"Investigation complete; no suspect identified","date":"2025-12"},"persistent_id":"6f96dac7fe8f8053f8e1b8e1092c949df7fd81780f0b5216ffb15e6941648aeb","id":132893143,"location_subtype":"","month":"2025-12"},{"category":"other-theft","location_type":"Force","location":{"latitude":"51.514406","street":{"id":1656965,"name":"On or near Shakespeare Road"},"longitude":"-0.333547"},"context":"","outcome_status":{"category":"Investigation complete; no suspect identified","date":"2025-12"},"persistent_id":"c939a933e6ccce7084863ca9c019feead635121fcf57a5bde89c7d05a1df1c6f","id":132950239,"location_subtype":"","month":"2025-12"},{"category":"other-theft","location_type":"Force","location":{"latitude":"51.511868","street":{"id":1657307,"name":"On or near Endsleigh Road"},"longitude":"-0.327716"},"context":"","outcome_status":{"category":"Investigation complete; no suspect identified","date":"2025-12"},"persistent_id":"e1a2eb47ba7ba2d389f9fbaea677649a3f633e391ec8ef6b5971154fab76a82f","id":132924156,"location_subtype":"","month":"2025-12"},{"category":"other-theft","location_type":"Force","location":{"latitude":"51.508389","street":{"id":1655734,"name":"On or near Halliday Square"},"longitude":"-0.350640"},"context":"","outcome_status":{"category":"Investigation complete; no suspect identified","date":"2026-01"},"persistent_id":"400902cd97e7a15f1211b7a76ce7995faabfc65eff27b18aa861600e9b14f34d","id":132910935,"location_subtype":"","month":"2025-12"},{"category":"possession-of-weapons","location_type":"Force","location":{"latitude":"51.510521","street":{"id":1656856,"name":"On or near Netheravon Road"},"longitude":"-0.334221"},"context":"","outcome_status":{"category":"Under investigation","date":"2025-12"},"persistent_id":"e8e8ffbf187dcebd783dc93859b4bed08266a514a11f7d7adea1f4bf0cfdb2d7","id":132906653,"location_subtype":"","month":"2025-12"},{"category":"possession-of-weapons","location_type":"Force","location":{"latitude":"51.521547","street":{"id":1656499,"name":"On or near Benham Road"},"longitude":"-0.338763"},"context":"","outcome_status":{"category":"Unable to prosecute suspect","date":"2025-12"},"persistent_id":"dcd5335a2dda3e93cd606fa9add296062f67e91bd5fdd2f022cb1e6130307827","id":132945637,"location_subtype":"","month":"2025-12"},{"category":"public-order","location_type":"Force","location":{"latitude":"51.509850","street":{"id":1657573,"name":"On or near Supermarket"},"longitude":"-0.324331"},"context":"","outcome_status":{"category":"Unable to prosecute suspect","date":"2026-01"},"persistent_id":"d1be6a27013dcb4c2946d561155babd225a3937a4141fd50f8428458d8887ed1","id":132904437,"location_subtype":"","month":"2025-12"},{"category":"public-order","location_type":"Force","location":{"latitude":"51.515508","street":{"id":1657237,"name":"On or near Glasse Close"},"longitude":"-0.328260"},"context":"","outcome_status":{"category":"Under investigation","date":"2025-12"},"persistent_id":"75867b92dcea33703682d55102a10aebe3e39cf8ce6edaf2b5799a4ac0d05ede","id":132946138,"location_subtype":"","month":"2025-12"},{"category":"public-order","location_type":"Force","location":{"latitude":"51.507893","street":{"id":1656091,"name":"On or near Hospital"},"longitude":"-0.346076"},"context":"","outcome_status":{"category":"Awaiting court outcome","date":"2026-01"},"persistent_id":"269cd3744fbe7e43e690d7d85fc87f06cad33c2829eb799d1e27e2e91728a5bb","id":132951008,"location_subtype":"","month":"2025-12"},{"category":"public-order","location_type":"Force","location":{"latitude":"51.510896","street":{"id":1657886,"name":"On or near Uxbridge Road"},"longitude":"-0.319480"},"context":"","outcome_status":{"category":"Unable to prosecute suspect","date":"2025-12"},"persistent_id":"24f66d192575ab40d9e19b2ae817798b4993cc36cde87121af61a33854ae89b8","id":132886816,"location_subtype":"","month":"2025-12"},{"category":"public-order","location_type":"Force","location":{"latitude":"51.517712","street":{"id":1657102,"name":"On or near Whitstone Avenue"},"longitude":"-0.330803"},"context":"","outcome_status":{"category":"Under investigation","date":"2025-12"},"persistent_id":"dfb57ac50d1ec77dab51e193491a7dddf00285db60b7a94b44fc7693787a1758","id":132886974,"location_subtype":"","month":"2025-12"},{"category":"public-order","location_type":"Force","location":{"latitude":"51.508421","street":{"id":1656556,"name":"On or near George Street"},"longitude":"-0.338924"},"context":"","outcome_status":{"category":"Investigation complete; no suspect identified","date":"2025-12"},"persistent_id":"e4f44a00351fc50ca25c652242a7d9b178aa5a6f12387bf7c359807435019dbf","id":132905094,"location_subtype":"","month":"2025-12"},{"category":"public-order","location_type":"Force","location":{"latitude":"51.503604","street":{"id":1656833,"name":"On or near Humes Avenue"},"longitude":"-0.335324"},"context":"","outcome_status":{"category":"Awaiting court outcome","date":"2026-01"},"persistent_id":"59ed9b7312c702c26c2335d5b862b5134062afadcb890b303a1c9bc05759896c","id":132904145,"location_subtype":"","month":"2025-12"},{"category":"public-order","location_type":"Force","location":{"latitude":"51.509956","street":{"id":1656940,"name":"On or near Nightingale Road"},"longitude":"-0.333032"},"context":"","outcome_status":{"category":"Under investigation","date":"2025-12"},"persistent_id":"1819bf27ecd4827335963b2833b76c4278f5c7a83be3ee085668b224d0123cfd","id":132905661,"location_subtype":"","month":"2025-12"},{"category":"public-order","location_type":"Force","location":{"latitude":"51.509956","street":{"id":1656940,"name":"On or near Nightingale Road"},"longitude":"-0.333032"},"context":"","outcome_status":{"category":"Unable to prosecute suspect","date":"2025-12"},"persistent_id":"1819bf27ecd4827335963b2833b76c4278f5c7a83be3ee085668b224d0123cfd","id":132905662,"location_subtype":"","month":"2025-12"},{"category":"public-order","location_type":"Force","location":{"latitude":"51.507893","street":{"id":1656091,"name":"On or near Hospital"},"longitude":"-0.346076"},"context":"","outcome_status":{"category":"Investigation complete; no suspect identified","date":"2025-12"},"persistent_id":"1143b4f559c94a19842ffdf30afc01ec2f13f719f3c3ae0be28960ae7355d5d0","id":132909593,"location_subtype":"","month":"2025-12"},{"category":"public-order","location_type":"Force","location":{"latitude":"51.509511","street":{"id":1657624,"name":"On or near Leeland Road"},"longitude":"-0.323292"},"context":"","outcome_status":{"category":"Under investigation","date":"2025-12"},"persistent_id":"ccaf791134f81fe10fb1bfe8ca8d6492f18ed6f0a3f6b5dcd860be2bb3d739cd","id":132893685,"location_subtype":"","month":"2025-12"},{"category":"public-order","location_type":"Force","location":{"latitude":"51.500021","street":{"id":1657156,"name":"On or near Westlea Road"},"longitude":"-0.329951"},"context":"","outcome_status":{"category":"Under investigation","date":"2025-12"},"persistent_id":"8917027da62e9d7cfaf07260b7b7510c4847785d8944873a1bfe7f2b20e60a3a","id":132899229,"location_subtype":"","month":"2025-12"},{"category":"public-order","location_type":"Force","location":{"latitude":"51.506716","street":{"id":1655697,"name":"On or near Hospital"},"longitude":"-0.351075"},"context":"","outcome_status":{"category":"Under investigation","date":"2025-12"},"persistent_id":"d6514c04a4bbd834dd56a48a6551aa2249e71a51c518e9c6a536e6d06f5b5629","id":132899271,"location_subtype":"","month":"2025-12"},{"category":"public-order","location_type":"Force","location":{"latitude":"51.516464","street":{"id":1657128,"name":"On or near Drayton Green"},"longitude":"-0.330329"},"context":"","outcome_status":{"category":"Investigation complete; no suspect identified","date":"2025-12"},"persistent_id":"5153ed29cdc403763c6d7b91efdb85e7f77e8ef815904773bb15a0cfb1f197c7","id":132886465,"location_subtype":"","month":"2025-12"},{"category":"public-order","location_type":"Force","location":{"latitude":"51.507487","street":{"id":1657803,"name":"On or near Bowmans Close"},"longitude":"-0.320038"},"context":"","outcome_status":{"category":"Investigation complete; no suspect identified","date":"2026-01"},"persistent_id":"dce1bb84a4645b3e8f8af30a2521fa63c5b26a23da448d946d5aaaf46f5d2c6e","id":132932864,"location_subtype":"","month":"2025-12"},{"category":"public-order","location_type":"Force","location":{"latitude":"51.509152","street":{"id":1657109,"name":"On or near Michael Gaynor Close"},"longitude":"-0.330871"},"context":"","outcome_status":{"category":"Unable to prosecute suspect","date":"2026-01"},"persistent_id":"c450cb8063db9b50534af8db81148d9f21ce96b1897bd583721f514127ced11e","id":132934484,"location_subtype":"","month":"2025-12"},{"category":"public-order","location_type":"Force","location":{"latitude":"51.523671","street":{"id":1657539,"name":"On or near Argyle Road"},"longitude":"-0.323694"},"context":"","outcome_status":{"category":"Investigation complete; no suspect identified","date":"2026-01"},"persistent_id":"db4fac81cc838d1520b1bf22f77f3026a6c6f69688800ba4eecb6a7549ed22df","id":132919945,"location_subtype":"","month":"2025-12"},{"category":"public-order","location_type":"Force","location":{"latitude":"51.507893","street":{"id":1656091,"name":"On or near Hospital"},"longitude":"-0.346076"},"context":"","outcome_status":{"category":"Investigation complete; no suspect identified","date":"2026-01"},"persistent_id":"a457f0f7f01fa1d113da4bde0e585a21c646fb6533cd444a4e203afba12bd11d","id":132920575,"location_subtype":"","month":"2025-12"},{"category":"public-order","location_type":"Force","location":{"latitude":"51.510379","street":{"id":1657652,"name":"On or near Broadway"},"longitude":"-0.322943"},"context":"","outcome_status":{"category":"Under investigation","date":"2025-12"},"persistent_id":"18ac8ac97a9c79350fc33b6a2bfa15906d581eded5c49a91a40fc0db028caadd","id":132949884,"location_subtype":"","month":"2025-12"},{"category":"public-order","location_type":"Force","location":{"latitude":"51.508788","street":{"id":1655628,"name":"On or near Windmill Place"},"longitude":"-0.354762"},"context":"","outcome_status":{"category":"Investigation complete; no suspect identified","date":"2026-01"},"persistent_id":"1303784061901801bdbedec4fbabec3a704657e472f2dc627d8917deb9e69702","id":132941642,"location_subtype":"","month":"2025-12"},{"category":"public-order","location_type":"Force","location":{"latitude":"51.522695","street":{"id":1657483,"name":"On or near Bruton Way"},"longitude":"-0.324638"},"context":"","outcome_status":{"category":"Investigation complete; no suspect identified","date":"2025-12"},"persistent_id":"bdd2e0fac63be23987cdbc1c0ef1ad110d4c8a0ebee9bc7d978ebb667422fadd","id":132888601,"location_subtype":"","month":"2025-12"},{"category":"public-order","location_type":"Force","location":{"latitude":"51.511996","street":{"id":1658221,"name":"On or near Arden Road"},"longitude":"-0.314727"},"context":"","outcome_status":{"category":"Investigation complete; no suspect identified","date":"2025-12"},"persistent_id":"b9e6a273d10ad1b6fdaf365ac872364063a6ddf0c7cbb2d4dc62fc829266c04e","id":132901604,"location_subtype":"","month":"2025-12"},{"category":"public-order","location_type":"Force","location":{"latitude":"51.516600","street":{"id":1655527,"name":"On or near Redcroft Road"},"longitude":"-0.355878"},"context":"","outcome_status":{"category":"Under investigation","date":"2025-12"},"persistent_id":"022036fc537bcd8119aa03b865bfa7dc8fc2dc66d843e04b2c1722f51c992cc8","id":132924247,"location_subtype":"","month":"2025-12"},{"category":"public-order","location_type":"Force","location":{"latitude":"51.514069","street":{"id":1658220,"name":"On or near St Leonard's Road"},"longitude":"-0.314420"},"context":"","outcome_status":{"category":"Unable to prosecute suspect","date":"2025-12"},"persistent_id":"26ab93aaf0bd3b8da097d8c079c1bc94c6449f4e5b4f79ff4372065055cbeb91","id":132883659,"location_subtype":"","month":"2025-12"},{"category":"public-order","location_type":"Force","location":{"latitude":"51.509921","street":{"id":1658204,"name":"On or near Pursewardens Close"},"longitude":"-0.314227"},"context":"","outcome_status":{"category":"Under investigation","date":"2025-12"},"persistent_id":"dd53aab17f05c721aaad926fc04bcee7b2fcfa17f42de1036d261180a53bbbfe","id":132947763,"location_subtype":"","month":"2025-12"},{"category":"public-order","location_type":"Force","location":{"latitude":"51.509856","street":{"id":1657713,"name":"On or near Parking Area"},"longitude":"-0.322242"},"context":"","outcome_status":{"category":"Investigation complete; no suspect identified","date":"2026-01"},"persistent_id":"1376148d14cb66890659524a3ca735cab030fec022185e7946245738de9a578f","id":132920932,"location_subtype":"","month":"2025-12"},{"category":"public-order","location_type":"Force","location":{"latitude":"51.510379","street":{"id":1657652,"name":"On or near Broadway"},"longitude":"-0.322943"},"context":"","outcome_status":{"category":"Unable to prosecute suspect","date":"2025-12"},"persistent_id":"b482adda20d9481802fcb07b6c3aa8b07f0a5c51be3ea98d33be89ab7fdc0806","id":132903291,"location_subtype":"","month":"2025-12"},{"category":"public-order","location_type":"Force","location":{"latitude":"51.507893","street":{"id":1656091,"name":"On or near Hospital"},"longitude":"-0.346076"},"context":"","outcome_status":{"category":"Unable to prosecute suspect","date":"2025-12"},"persistent_id":"a5da866abede2d84b6c2a3776afdca42906f74c33ca2f7dae4d333137fa4e7e3","id":132905320,"location_subtype":"","month":"2025-12"},{"category":"public-order","location_type":"Force","location":{"latitude":"51.511034","street":{"id":1657620,"name":"On or near Green Man Lane"},"longitude":"-0.323495"},"context":"","outcome_status":{"category":"Unable to prosecute suspect","date":"2025-12"},"persistent_id":"9097f4aa47351f105810537e3710ed41d614777ff755dbb2c6d9d5e27904f731","id":132917213,"location_subtype":"","month":"2025-12"},{"category":"public-order","location_type":"Force","location":{"latitude":"51.508376","street":{"id":1656579,"name":"On or near Clocktower Mews"},"longitude":"-0.338320"},"context":"","outcome_status":{"category":"Investigation complete; no suspect identified","date":"2025-12"},"persistent_id":"e91424596d2c904f5facd683a9c39088e555248774b5874a5c3bb5d7ff57881e","id":132925700,"location_subtype":"","month":"2025-12"},{"category":"public-order","location_type":"Force","location":{"latitude":"51.504669","street":{"id":1656611,"name":"On or near Rosebank Road"},"longitude":"-0.338152"},"context":"","outcome_status":{"category":"Investigation complete; no suspect identified","date":"2026-01"},"persistent_id":"f7ff0318c2665ca91bff4f9bf37150afa1775ea9eb415bc63243850cfcf573c0","id":132911881,"location_subtype":"","month":"2025-12"},{"category":"robbery","location_type":"Force","location":{"latitude":"51.508421","street":{"id":1656556,"name":"On or near George Street"},"longitude":"-0.338924"},"context":"","outcome_status":{"category":"Under investigation","date":"2025-12"},"persistent_id":"046c35d46f847e6c108dfbc77a01c883700a95040891fb5b48ed4b654d6ec6eb","id":132916646,"location_subtype":"","month":"2025-12"},{"category":"robbery","location_type":"Force","location":{"latitude":"51.510206","street":{"id":1657542,"name":"On or near Shopping Area"},"longitude":"-0.324693"},"context":"","outcome_status":{"category":"Under investigation","date":"2025-12"},"persistent_id":"9652cc544a87c38ede175caf9745709ab666b1e337286cab980e6ebd22fe379f","id":132932906,"location_subtype":"","month":"2025-12"},{"category":"robbery","location_type":"Force","location":{"latitude":"51.508033","street":{"id":1656735,"name":"On or near Supermarket"},"longitude":"-0.336272"},"context":"","outcome_status":{"category":"Unable to prosecute suspect","date":"2025-12"},"persistent_id":"0b74033703a23aeb235ed4efce67249b6db480bbce09554223c414a7e2d934a5","id":132906642,"location_subtype":"","month":"2025-12"},{"category":"robbery","location_type":"Force","location":{"latitude":"51.509932","street":{"id":1657470,"name":"On or near Brownlow Road"},"longitude":"-0.325683"},"context":"","outcome_status":{"category":"Under investigation","date":"2025-12"},"persistent_id":"ff485791db0c44fc56f91b2331e5bdfcea1ed615860d31b2dbb3124285f92168","id":132931670,"location_subtype":"","month":"2025-12"},{"category":"shoplifting","location_type":"Force","location":{"latitude":"51.510237","street":{"id":1657559,"name":"On or near Broadway"},"longitude":"-0.323755"},"context":"","outcome_status":{"category":"Under investigation","date":"2025-12"},"persistent_id":"5ea7cd8535f377e3572e04592fb70a2bbd35745e658fc02d3f74278b5ca852e1","id":132910916,"location_subtype":"","month":"2025-12"},{"category":"shoplifting","location_type":"Force","location":{"latitude":"51.510237","street":{"id":1657559,"name":"On or near Broadway"},"longitude":"-0.323755"},"context":"","outcome_status":{"category":"Awaiting court outcome","date":"2025-12"},"persistent_id":"f229568564006db4f2ba010de24acddd37d9eac5c337953b08682ee80a7f5287","id":132922471,"location_subtype":"","month":"2025-12"},{"category":"shoplifting","location_type":"Force","location":{"latitude":"51.510476","street":{"id":1657919,"name":"On or near Chapel Road"},"longitude":"-0.318400"},"context":"","outcome_status":{"category":"Unable to prosecute suspect","date":"2026-01"},"persistent_id":"d5fb5772718e15cc99cb7b900b75c078dd31bc9ae6eb6845088d510cc44ecab7","id":132933667,"location_subtype":"","month":"2025-12"},{"category":"shoplifting","location_type":"Force","location":{"latitude":"51.508033","street":{"id":1656735,"name":"On or near Supermarket"},"longitude":"-0.336272"},"context":"","outcome_status":{"category":"Under investigation","date":"2025-12"},"persistent_id":"e8129ff1453525b6e0eb4b38f055b66998acd30689d54e90b4f96bb0f5557a80","id":132929754,"location_subtype":"","month":"2025-12"},{"category":"shoplifting","location_type":"Force","location":{"latitude":"51.516613","street":{"id":1656521,"name":"On or near Grove Avenue"},"longitude":"-0.338914"},"context":"","outcome_status":{"category":"Investigation complete; no suspect identified","date":"2025-12"},"persistent_id":"97adc4669e64ec1e3cf97938fde646b4d0fcde2c275476552b9662b78020eca1","id":132934991,"location_subtype":"","month":"2025-12"},{"category":"shoplifting","location_type":"Force","location":{"latitude":"51.508033","street":{"id":1656735,"name":"On or near Supermarket"},"longitude":"-0.336272"},"context":"","outcome_status":{"category":"Investigation complete; no suspect identified","date":"2025-12"},"persistent_id":"caee6d4461d53153ff71385411d84d3b242b5f8eef7234aeba05e532ec8de735","id":132935218,"location_subtype":"","month":"2025-12"},{"category":"shoplifting","location_type":"Force","location":{"latitude":"51.510237","street":{"id":1657559,"name":"On or near Broadway"},"longitude":"-0.323755"},"context":"","outcome_status":{"category":"Investigation complete; no suspect identified","date":"2025-12"},"persistent_id":"5e9bb5084eba41e9d0838fc7541ed3b5385229fb02ca06b3b784a19b5a54cda6","id":132908947,"location_subtype":"","month":"2025-12"},{"category":"shoplifting","location_type":"Force","location":{"latitude":"51.509932","street":{"id":1657470,"name":"On or near Brownlow Road"},"longitude":"-0.325683"},"context":"","outcome_status":{"category":"Investigation complete; no suspect identified","date":"2025-12"},"persistent_id":"2262e69684c301368f13d5aa9beb52cfb9b0f04650a91d3bf894bfe654fba89a","id":132926146,"location_subtype":"","month":"2025-12"},{"category":"shoplifting","location_type":"Force","location":{"latitude":"51.508033","street":{"id":1656735,"name":"On or near Supermarket"},"longitude":"-0.336272"},"context":"","outcome_status":{"category":"Under investigation","date":"2025-12"},"persistent_id":"fe7002381847e8dcd8411de2dee837dd99a4e1503e5d6cd1f41023b14fe4b7ec","id":132947240,"location_subtype":"","month":"2025-12"},{"category":"shoplifting","location_type":"Force","location":{"latitude":"51.511624","street":{"id":1658126,"name":"On or near Hospital"},"longitude":"-0.316340"},"context":"","outcome_status":{"category":"Investigation complete; no suspect identified","date":"2025-12"},"persistent_id":"678da04b910981a9e093004a29680ebe1e8b412bd2fb7c06ebab567312fec0dd","id":132953807,"location_subtype":"","month":"2025-12"},{"category":"shoplifting","location_type":"Force","location":{"latitude":"51.507893","street":{"id":1656091,"name":"On or near Hospital"},"longitude":"-0.346076"},"context":"","outcome_status":{"category":"Investigation complete; no suspect identified","date":"2025-12"},"persistent_id":"6e4a5cd2048952867a2d040742aabcd703bb26fc9a00b82c16ae030c0c7b1bc5","id":132930272,"location_subtype":"","month":"2025-12"},{"category":"shoplifting","location_type":"Force","location":{"latitude":"51.513973","street":{"id":1656608,"name":"On or near Yeats Close"},"longitude":"-0.336661"},"context":"","outcome_status":{"category":"Investigation complete; no suspect identified","date":"2025-12"},"persistent_id":"e57fd9ed3a68ec1ea2bef6484fb7c53377b570d3db5d5df370e491f1842590ee","id":132942369,"location_subtype":"","month":"2025-12"},{"category":"shoplifting","location_type":"Force","location":{"latitude":"51.511091","street":{"id":1658218,"name":"On or near Dane Road"},"longitude":"-0.314904"},"context":"","outcome_status":{"category":"Investigation complete; no suspect identified","date":"2025-12"},"persistent_id":"4eacc9443e370cc7ed16a46240a887b092212892b8380913f6c86886ce7f122e","id":132946551,"location_subtype":"","month":"2025-12"},{"category":"shoplifting","location_type":"Force","location":{"latitude":"51.513450","street":{"id":1657730,"name":"On or near West Ealing"},"longitude":"-0.320769"},"context":"","outcome_status":{"category":"Investigation complete; no suspect identified","date":"2025-12"},"persistent_id":"42daee36bae3e2927fc9057e1a6e783857a7a1b7a1813986646f7121e5aaeb87","id":132910917,"location_subtype":"","month":"2025-12"},{"category":"shoplifting","location_type":"Force","location":{"latitude":"51.508421","street":{"id":1656556,"name":"On or near George Street"},"longitude":"-0.338924"},"context":"","outcome_status":{"category":"Investigation complete; no suspect identified","date":"2025-12"},"persistent_id":"1e3f2e4da99f5d03990fdc00e6a38d11bc5a90fd5ea0dbe0fbf20062a50f63ab","id":132904855,"location_subtype":"","month":"2025-12"},{"category":"shoplifting","location_type":"Force","location":{"latitude":"51.511624","street":{"id":1658126,"name":"On or near Hospital"},"longitude":"-0.316340"},"context":"","outcome_status":{"category":"Unable to prosecute suspect","date":"2026-01"},"persistent_id":"72c4e0c60d6145930647a676dc40b1634d26172dd484e255834733431edeb4b1","id":132883745,"location_subtype":"","month":"2025-12"},{"category":"shoplifting","location_type":"Force","location":{"latitude":"51.513117","street":{"id":1657643,"name":"On or near Supermarket"},"longitude":"-0.321978"},"context":"","outcome_status":{"category":"Investigation complete; no suspect identified","date":"2025-12"},"persistent_id":"db879365861244edd1e6aadc54221b9f6ebd73d09379959f83c956704b1d23da","id":132884190,"location_subtype":"","month":"2025-12"},{"category":"shoplifting","location_type":"Force","location":{"latitude":"51.522700","street":{"id":1656329,"name":"On or near Supermarket"},"longitude":"-0.340120"},"context":"","outcome_status":{"category":"Under investigation","date":"2025-12"},"persistent_id":"8e58bb71b942559169609a9261c97dd3399b3828dd6c98ef64e92843c07158b1","id":132914084,"location_subtype":"","month":"2025-12"},{"category":"shoplifting","location_type":"Force","location":{"latitude":"51.522700","street":{"id":1656329,"name":"On or near Supermarket"},"longitude":"-0.340120"},"context":"","outcome_status":{"category":"Awaiting court outcome","date":"2026-01"},"persistent_id":"377a5e29132740ff36a70bd1c02c6e0a09710c883d59da6f29c8894250414322","id":132903322,"location_subtype":"","month":"2025-12"},{"category":"shoplifting","location_type":"Force","location":{"latitude":"51.508389","street":{"id":1655734,"name":"On or near Halliday Square"},"longitude":"-0.350640"},"context":"","outcome_status":{"category":"Investigation complete; no suspect identified","date":"2025-12"},"persistent_id":"3cc2e1ec1caad6bbb6b302ce8fee98fc98c75be26779d128500dd89566f6fad2","id":132888294,"location_subtype":"","month":"2025-12"},{"category":"shoplifting","location_type":"Force","location":{"latitude":"51.513117","street":{"id":1657643,"name":"On or near Supermarket"},"longitude":"-0.321978"},"context":"","outcome_status":{"category":"Awaiting court outcome","date":"2025-12"},"persistent_id":"e97fd0694795df9b5b8a34bb09105e165541b05444ba18220b661f3d6ccd60e7","id":132931291,"location_subtype":"","month":"2025-12"},{"category":"shoplifting","location_type":"Force","location":{"latitude":"51.522700","street":{"id":1656329,"name":"On or near Supermarket"},"longitude":"-0.340120"},"context":"","outcome_status":{"category":"Awaiting court outcome","date":"2025-12"},"persistent_id":"4440bb57a89fbfd81bd0344b93ee71f603ceac1314e69eb588b5a1ae83db5065","id":132897109,"location_subtype":"","month":"2025-12"},{"category":"shoplifting","location_type":"Force","location":{"latitude":"51.507893","street":{"id":1656091,"name":"On or near Hospital"},"longitude":"-0.346076"},"context":"","outcome_status":{"category":"Investigation complete; no suspect identified","date":"2025-12"},"persistent_id":"b6583e30ae67ba6ff7625623469455a286bab6b0408ffd7faa5c4da22a1d3b7d","id":132921462,"location_subtype":"","month":"2025-12"},{"category":"shoplifting","location_type":"Force","location":{"latitude":"51.506934","street":{"id":1656722,"name":"On or near Adelaide Court"},"longitude":"-0.336773"},"context":"","outcome_status":{"category":"Investigation complete; no suspect identified","date":"2025-12"},"persistent_id":"b34fc4016b635c8d5858bf8a186303fd522ffbb2f31375123ae7d616ed1e2042","id":132945572,"location_subtype":"","month":"2025-12"},{"category":"shoplifting","location_type":"Force","location":{"latitude":"51.509127","street":{"id":1656668,"name":"On or near Broadway"},"longitude":"-0.337342"},