[{"category":"anti-social-behaviour","location_type":"Force","location":{"latitude":"51.495200","street":{"id":1670818,"name":"On or near Gloucester Road"},"longitude":"-0.182925"},"context":"","outcome_status":null,"persistent_id":"","id":127556621,"location_subtype":"","month":"2025-04"},{"category":"anti-social-behaviour","location_type":"Force","location":{"latitude":"51.512909","street":{"id":1668080,"name":"On or near Denbigh Terrace"},"longitude":"-0.202354"},"context":"","outcome_status":null,"persistent_id":"","id":127557836,"location_subtype":"","month":"2025-04"},{"category":"anti-social-behaviour","location_type":"Force","location":{"latitude":"51.512469","street":{"id":1670191,"name":"On or near Inverness Mews"},"longitude":"-0.187181"},"context":"","outcome_status":null,"persistent_id":"","id":127558264,"location_subtype":"","month":"2025-04"},{"category":"anti-social-behaviour","location_type":"Force","location":{"latitude":"51.492925","street":{"id":1668584,"name":"On or near Nevern Road"},"longitude":"-0.198084"},"context":"","outcome_status":null,"persistent_id":"","id":127557441,"location_subtype":"","month":"2025-04"},{"category":"anti-social-behaviour","location_type":"Force","location":{"latitude":"51.493558","street":{"id":1671678,"name":"On or near Glendower Place"},"longitude":"-0.175600"},"context":"","outcome_status":null,"persistent_id":"","id":127557502,"location_subtype":"","month":"2025-04"},{"category":"anti-social-behaviour","location_type":"Force","location":{"latitude":"51.510232","street":{"id":1668857,"name":"On or near Pembridge Gardens"},"longitude":"-0.196695"},"context":"","outcome_status":null,"persistent_id":"","id":127558800,"location_subtype":"","month":"2025-04"},{"category":"anti-social-behaviour","location_type":"Force","location":{"latitude":"51.501417","street":{"id":1668876,"name":"On or near Argyll Road"},"longitude":"-0.196495"},"context":"","outcome_status":null,"persistent_id":"","id":127558821,"location_subtype":"","month":"2025-04"},{"category":"anti-social-behaviour","location_type":"Force","location":{"latitude":"51.493192","street":{"id":1668765,"name":"On or near Longridge Road"},"longitude":"-0.197324"},"context":"","outcome_status":null,"persistent_id":"","id":127557969,"location_subtype":"","month":"2025-04"},{"category":"anti-social-behaviour","location_type":"Force","location":{"latitude":"51.501866","street":{"id":1672110,"name":"On or near A315"},"longitude":"-0.172675"},"context":"","outcome_status":null,"persistent_id":"","id":127558112,"location_subtype":"","month":"2025-04"},{"category":"anti-social-behaviour","location_type":"Force","location":{"latitude":"51.490477","street":{"id":1670576,"name":"On or near Cresswell Gardens"},"longitude":"-0.183977"},"context":"","outcome_status":null,"persistent_id":"","id":127558703,"location_subtype":"","month":"2025-04"},{"category":"anti-social-behaviour","location_type":"Force","location":{"latitude":"51.512492","street":{"id":1669725,"name":"On or near Moscow Place"},"longitude":"-0.189875"},"context":"","outcome_status":null,"persistent_id":"","id":127558969,"location_subtype":"","month":"2025-04"},{"category":"anti-social-behaviour","location_type":"Force","location":{"latitude":"51.512785","street":{"id":1669311,"name":"On or near Dawson Place"},"longitude":"-0.193697"},"context":"","outcome_status":null,"persistent_id":"","id":127559190,"location_subtype":"","month":"2025-04"},{"category":"anti-social-behaviour","location_type":"Force","location":{"latitude":"51.494787","street":{"id":1667343,"name":"On or near Avonmore Road"},"longitude":"-0.206942"},"context":"","outcome_status":null,"persistent_id":"","id":127559147,"location_subtype":"","month":"2025-04"},{"category":"anti-social-behaviour","location_type":"Force","location":{"latitude":"51.493192","street":{"id":1668765,"name":"On or near Longridge Road"},"longitude":"-0.197324"},"context":"","outcome_status":null,"persistent_id":"","id":127559480,"location_subtype":"","month":"2025-04"},{"category":"anti-social-behaviour","location_type":"Force","location":{"latitude":"51.493313","street":{"id":1671684,"name":"On or near Kendrick Mews"},"longitude":"-0.176633"},"context":"","outcome_status":null,"persistent_id":"","id":127559645,"location_subtype":"","month":"2025-04"},{"category":"anti-social-behaviour","location_type":"Force","location":{"latitude":"51.492339","street":{"id":1668482,"name":"On or near Warwick Road"},"longitude":"-0.199706"},"context":"","outcome_status":null,"persistent_id":"","id":127559670,"location_subtype":"","month":"2025-04"},{"category":"anti-social-behaviour","location_type":"Force","location":{"latitude":"51.488459","street":{"id":1668002,"name":"On or near Ivatt Place"},"longitude":"-0.202955"},"context":"","outcome_status":null,"persistent_id":"","id":127559965,"location_subtype":"","month":"2025-04"},{"category":"anti-social-behaviour","location_type":"Force","location":{"latitude":"51.506670","street":{"id":1669305,"name":"On or near Brunswick Gardens"},"longitude":"-0.193723"},"context":"","outcome_status":null,"persistent_id":"","id":127560395,"location_subtype":"","month":"2025-04"},{"category":"anti-social-behaviour","location_type":"Force","location":{"latitude":"51.497855","street":{"id":1667610,"name":"On or near Strangways Terrace"},"longitude":"-0.204675"},"context":"","outcome_status":null,"persistent_id":"","id":127559791,"location_subtype":"","month":"2025-04"},{"category":"anti-social-behaviour","location_type":"Force","location":{"latitude":"51.493971","street":{"id":1669816,"name":"On or near Collingham Place"},"longitude":"-0.189500"},"context":"","outcome_status":null,"persistent_id":"","id":127559794,"location_subtype":"","month":"2025-04"},{"category":"anti-social-behaviour","location_type":"Force","location":{"latitude":"51.511849","street":{"id":1669070,"name":"On or near Pembridge Square"},"longitude":"-0.195377"},"context":"","outcome_status":null,"persistent_id":"","id":127560863,"location_subtype":"","month":"2025-04"},{"category":"anti-social-behaviour","location_type":"Force","location":{"latitude":"51.491640","street":{"id":1667278,"name":"On or near Trevanion Road"},"longitude":"-0.209313"},"context":"","outcome_status":null,"persistent_id":"","id":127561943,"location_subtype":"","month":"2025-04"},{"category":"anti-social-behaviour","location_type":"Force","location":{"latitude":"51.508760","street":{"id":1668859,"name":"On or near Further/higher Educational Building"},"longitude":"-0.196854"},"context":"","outcome_status":null,"persistent_id":"","id":127563712,"location_subtype":"","month":"2025-04"},{"category":"anti-social-behaviour","location_type":"Force","location":{"latitude":"51.494928","street":{"id":1670548,"name":"On or near Cromwell Road"},"longitude":"-0.184549"},"context":"","outcome_status":null,"persistent_id":"","id":127564243,"location_subtype":"","month":"2025-04"},{"category":"anti-social-behaviour","location_type":"Force","location":{"latitude":"51.493192","street":{"id":1668765,"name":"On or near Longridge Road"},"longitude":"-0.197324"},"context":"","outcome_status":null,"persistent_id":"","id":127554454,"location_subtype":"","month":"2025-04"},{"category":"anti-social-behaviour","location_type":"Force","location":{"latitude":"51.493313","street":{"id":1671684,"name":"On or near Kendrick Mews"},"longitude":"-0.176633"},"context":"","outcome_status":null,"persistent_id":"","id":127555061,"location_subtype":"","month":"2025-04"},{"category":"anti-social-behaviour","location_type":"Force","location":{"latitude":"51.492775","street":{"id":1669590,"name":"On or near Earl's Court Gardens"},"longitude":"-0.191823"},"context":"","outcome_status":null,"persistent_id":"","id":127557677,"location_subtype":"","month":"2025-04"},{"category":"anti-social-behaviour","location_type":"Force","location":{"latitude":"51.492925","street":{"id":1668584,"name":"On or near Nevern Road"},"longitude":"-0.198084"},"context":"","outcome_status":null,"persistent_id":"","id":127558091,"location_subtype":"","month":"2025-04"},{"category":"anti-social-behaviour","location_type":"Force","location":{"latitude":"51.513045","street":{"id":1669631,"name":"On or near Princes Square"},"longitude":"-0.191309"},"context":"","outcome_status":null,"persistent_id":"","id":127558169,"location_subtype":"","month":"2025-04"},{"category":"anti-social-behaviour","location_type":"Force","location":{"latitude":"51.512532","street":{"id":1667922,"name":"On or near Kensington Park Road"},"longitude":"-0.203003"},"context":"","outcome_status":null,"persistent_id":"","id":127558772,"location_subtype":"","month":"2025-04"},{"category":"anti-social-behaviour","location_type":"Force","location":{"latitude":"51.506046","street":{"id":1667508,"name":"On or near Holland Park"},"longitude":"-0.207523"},"context":"","outcome_status":null,"persistent_id":"","id":127559317,"location_subtype":"","month":"2025-04"},{"category":"anti-social-behaviour","location_type":"Force","location":{"latitude":"51.502649","street":{"id":1672071,"name":"On or near Parking Area"},"longitude":"-0.173278"},"context":"","outcome_status":null,"persistent_id":"","id":127555643,"location_subtype":"","month":"2025-04"},{"category":"anti-social-behaviour","location_type":"Force","location":{"latitude":"51.494338","street":{"id":1670779,"name":"On or near Gloucester Road"},"longitude":"-0.182988"},"context":"","outcome_status":null,"persistent_id":"","id":127546457,"location_subtype":"","month":"2025-04"},{"category":"anti-social-behaviour","location_type":"Force","location":{"latitude":"51.512280","street":{"id":1670379,"name":"On or near Queensborough Terrace"},"longitude":"-0.185459"},"context":"","outcome_status":null,"persistent_id":"","id":127545079,"location_subtype":"","month":"2025-04"},{"category":"anti-social-behaviour","location_type":"Force","location":{"latitude":"51.493364","street":{"id":1667159,"name":"On or near Fitzjames Avenue"},"longitude":"-0.209706"},"context":"","outcome_status":null,"persistent_id":"","id":127545043,"location_subtype":"","month":"2025-04"},{"category":"anti-social-behaviour","location_type":"Force","location":{"latitude":"51.497961","street":{"id":1667549,"name":"On or near Napier Place"},"longitude":"-0.206904"},"context":"","outcome_status":null,"persistent_id":"","id":127543075,"location_subtype":"","month":"2025-04"},{"category":"anti-social-behaviour","location_type":"Force","location":{"latitude":"51.502684","street":{"id":1670048,"name":"On or near Parking Area"},"longitude":"-0.188304"},"context":"","outcome_status":null,"persistent_id":"","id":127542913,"location_subtype":"","month":"2025-04"},{"category":"anti-social-behaviour","location_type":"Force","location":{"latitude":"51.505291","street":{"id":1666803,"name":"On or near Holland Park Gardens"},"longitude":"-0.211674"},"context":"","outcome_status":null,"persistent_id":"","id":127542919,"location_subtype":"","month":"2025-04"},{"category":"anti-social-behaviour","location_type":"Force","location":{"latitude":"51.494675","street":{"id":1668733,"name":"On or near Logan Place"},"longitude":"-0.197871"},"context":"","outcome_status":null,"persistent_id":"","id":127542920,"location_subtype":"","month":"2025-04"},{"category":"anti-social-behaviour","location_type":"Force","location":{"latitude":"51.493307","street":{"id":1667764,"name":"On or near Stonor Road"},"longitude":"-0.204839"},"context":"","outcome_status":null,"persistent_id":"","id":127543348,"location_subtype":"","month":"2025-04"},{"category":"anti-social-behaviour","location_type":"Force","location":{"latitude":"51.512469","street":{"id":1670191,"name":"On or near Inverness Mews"},"longitude":"-0.187181"},"context":"","outcome_status":null,"persistent_id":"","id":127543696,"location_subtype":"","month":"2025-04"},{"category":"anti-social-behaviour","location_type":"Force","location":{"latitude":"51.491022","street":{"id":1667233,"name":"On or near Gwendwr Road"},"longitude":"-0.209481"},"context":"","outcome_status":null,"persistent_id":"","id":127543698,"location_subtype":"","month":"2025-04"},{"category":"anti-social-behaviour","location_type":"Force","location":{"latitude":"51.488444","street":{"id":1669284,"name":"On or near Kramer Mews"},"longitude":"-0.193809"},"context":"","outcome_status":null,"persistent_id":"","id":127543261,"location_subtype":"","month":"2025-04"},{"category":"anti-social-behaviour","location_type":"Force","location":{"latitude":"51.490808","street":{"id":1669262,"name":"On or near Penywern Road"},"longitude":"-0.193730"},"context":"","outcome_status":null,"persistent_id":"","id":127543972,"location_subtype":"","month":"2025-04"},{"category":"anti-social-behaviour","location_type":"Force","location":{"latitude":"51.493964","street":{"id":1667571,"name":"On or near Lisgar Terrace"},"longitude":"-0.206614"},"context":"","outcome_status":null,"persistent_id":"","id":127544018,"location_subtype":"","month":"2025-04"},{"category":"anti-social-behaviour","location_type":"Force","location":{"latitude":"51.491640","street":{"id":1667278,"name":"On or near Trevanion Road"},"longitude":"-0.209313"},"context":"","outcome_status":null,"persistent_id":"","id":127544025,"location_subtype":"","month":"2025-04"},{"category":"anti-social-behaviour","location_type":"Force","location":{"latitude":"51.508843","street":{"id":1667149,"name":"On or near Pottery Lane"},"longitude":"-0.209935"},"context":"","outcome_status":null,"persistent_id":"","id":127544055,"location_subtype":"","month":"2025-04"},{"category":"anti-social-behaviour","location_type":"Force","location":{"latitude":"51.494211","street":{"id":1668481,"name":"On or near Cromwell Crescent"},"longitude":"-0.199229"},"context":"","outcome_status":null,"persistent_id":"","id":127544078,"location_subtype":"","month":"2025-04"},{"category":"anti-social-behaviour","location_type":"Force","location":{"latitude":"51.495200","street":{"id":1670818,"name":"On or near Gloucester Road"},"longitude":"-0.182925"},"context":"","outcome_status":null,"persistent_id":"","id":127544740,"location_subtype":"","month":"2025-04"},{"category":"anti-social-behaviour","location_type":"Force","location":{"latitude":"51.492925","street":{"id":1668584,"name":"On or near Nevern Road"},"longitude":"-0.198084"},"context":"","outcome_status":null,"persistent_id":"","id":127545333,"location_subtype":"","month":"2025-04"},{"category":"anti-social-behaviour","location_type":"Force","location":{"latitude":"51.493192","street":{"id":1668765,"name":"On or near Longridge Road"},"longitude":"-0.197324"},"context":"","outcome_status":null,"persistent_id":"","id":127545359,"location_subtype":"","month":"2025-04"},{"category":"anti-social-behaviour","location_type":"Force","location":{"latitude":"51.492925","street":{"id":1668584,"name":"On or near Nevern Road"},"longitude":"-0.198084"},"context":"","outcome_status":null,"persistent_id":"","id":127544480,"location_subtype":"","month":"2025-04"},{"category":"anti-social-behaviour","location_type":"Force","location":{"latitude":"51.491070","street":{"id":1669679,"name":"On or near Bramham Gardens"},"longitude":"-0.190349"},"context":"","outcome_status":null,"persistent_id":"","id":127545196,"location_subtype":"","month":"2025-04"},{"category":"anti-social-behaviour","location_type":"Force","location":{"latitude":"51.512469","street":{"id":1670191,"name":"On or near Inverness Mews"},"longitude":"-0.187181"},"context":"","outcome_status":null,"persistent_id":"","id":127545255,"location_subtype":"","month":"2025-04"},{"category":"anti-social-behaviour","location_type":"Force","location":{"latitude":"51.508074","street":{"id":1666728,"name":"On or near St James's Gardens"},"longitude":"-0.213121"},"context":"","outcome_status":null,"persistent_id":"","id":127545419,"location_subtype":"","month":"2025-04"},{"category":"anti-social-behaviour","location_type":"Force","location":{"latitude":"51.508526","street":{"id":1668592,"name":"On or near Theatre/concert Hall"},"longitude":"-0.198288"},"context":"","outcome_status":null,"persistent_id":"","id":127545433,"location_subtype":"","month":"2025-04"},{"category":"anti-social-behaviour","location_type":"Force","location":{"latitude":"51.502684","street":{"id":1670048,"name":"On or near Parking Area"},"longitude":"-0.188304"},"context":"","outcome_status":null,"persistent_id":"","id":127546146,"location_subtype":"","month":"2025-04"},{"category":"anti-social-behaviour","location_type":"Force","location":{"latitude":"51.494338","street":{"id":1670779,"name":"On or near Gloucester Road"},"longitude":"-0.182988"},"context":"","outcome_status":null,"persistent_id":"","id":127546329,"location_subtype":"","month":"2025-04"},{"category":"anti-social-behaviour","location_type":"Force","location":{"latitude":"51.510232","street":{"id":1668857,"name":"On or near Pembridge Gardens"},"longitude":"-0.196695"},"context":"","outcome_status":null,"persistent_id":"","id":127546103,"location_subtype":"","month":"2025-04"},{"category":"anti-social-behaviour","location_type":"Force","location":{"latitude":"51.510232","street":{"id":1668857,"name":"On or near Pembridge Gardens"},"longitude":"-0.196695"},"context":"","outcome_status":null,"persistent_id":"","id":127545687,"location_subtype":"","month":"2025-04"},{"category":"anti-social-behaviour","location_type":"Force","location":{"latitude":"51.500137","street":{"id":1667044,"name":"On or near Nightclub"},"longitude":"-0.210997"},"context":"","outcome_status":null,"persistent_id":"","id":127546460,"location_subtype":"","month":"2025-04"},{"category":"anti-social-behaviour","location_type":"Force","location":{"latitude":"51.494823","street":{"id":1671527,"name":"On or near Cromwell Place"},"longitude":"-0.174844"},"context":"","outcome_status":null,"persistent_id":"","id":127546422,"location_subtype":"","month":"2025-04"},{"category":"anti-social-behaviour","location_type":"Force","location":{"latitude":"51.495103","street":{"id":1669614,"name":"On or near Hospital"},"longitude":"-0.191382"},"context":"","outcome_status":null,"persistent_id":"","id":127546504,"location_subtype":"","month":"2025-04"},{"category":"anti-social-behaviour","location_type":"Force","location":{"latitude":"51.490117","street":{"id":1669787,"name":"On or near Wetherby Mews"},"longitude":"-0.189782"},"context":"","outcome_status":null,"persistent_id":"","id":127546533,"location_subtype":"","month":"2025-04"},{"category":"anti-social-behaviour","location_type":"Force","location":{"latitude":"51.490808","street":{"id":1669262,"name":"On or near Penywern Road"},"longitude":"-0.193730"},"context":"","outcome_status":null,"persistent_id":"","id":127546544,"location_subtype":"","month":"2025-04"},{"category":"anti-social-behaviour","location_type":"Force","location":{"latitude":"51.493558","street":{"id":1671678,"name":"On or near Glendower Place"},"longitude":"-0.175600"},"context":"","outcome_status":null,"persistent_id":"","id":127546547,"location_subtype":"","month":"2025-04"},{"category":"anti-social-behaviour","location_type":"Force","location":{"latitude":"51.502373","street":{"id":1669394,"name":"On or near Kensington Church Walk"},"longitude":"-0.192625"},"context":"","outcome_status":null,"persistent_id":"","id":127546677,"location_subtype":"","month":"2025-04"},{"category":"anti-social-behaviour","location_type":"Force","location":{"latitude":"51.501973","street":{"id":1669581,"name":"On or near Kensington Church Court"},"longitude":"-0.191762"},"context":"","outcome_status":null,"persistent_id":"","id":127546830,"location_subtype":"","month":"2025-04"},{"category":"anti-social-behaviour","location_type":"Force","location":{"latitude":"51.493192","street":{"id":1668765,"name":"On or near Longridge Road"},"longitude":"-0.197324"},"context":"","outcome_status":null,"persistent_id":"","id":127547167,"location_subtype":"","month":"2025-04"},{"category":"anti-social-behaviour","location_type":"Force","location":{"latitude":"51.511162","street":{"id":1670168,"name":"On or near Shopping Area"},"longitude":"-0.187579"},"context":"","outcome_status":null,"persistent_id":"","id":127546956,"location_subtype":"","month":"2025-04"},{"category":"anti-social-behaviour","location_type":"Force","location":{"latitude":"51.508074","street":{"id":1666728,"name":"On or near St James's Gardens"},"longitude":"-0.213121"},"context":"","outcome_status":null,"persistent_id":"","id":127547415,"location_subtype":"","month":"2025-04"},{"category":"anti-social-behaviour","location_type":"Force","location":{"latitude":"51.509265","street":{"id":1668318,"name":"On or near Victoria Gardens"},"longitude":"-0.199874"},"context":"","outcome_status":null,"persistent_id":"","id":127547433,"location_subtype":"","month":"2025-04"},{"category":"anti-social-behaviour","location_type":"Force","location":{"latitude":"51.496433","street":{"id":1669196,"name":"On or near Stratford Road"},"longitude":"-0.194632"},"context":"","outcome_status":null,"persistent_id":"","id":127547459,"location_subtype":"","month":"2025-04"},{"category":"anti-social-behaviour","location_type":"Force","location":{"latitude":"51.510925","street":{"id":1670326,"name":"On or near Fosbury Mews"},"longitude":"-0.186219"},"context":"","outcome_status":null,"persistent_id":"","id":127547470,"location_subtype":"","month":"2025-04"},{"category":"anti-social-behaviour","location_type":"Force","location":{"latitude":"51.509265","street":{"id":1668318,"name":"On or near Victoria Gardens"},"longitude":"-0.199874"},"context":"","outcome_status":null,"persistent_id":"","id":127547675,"location_subtype":"","month":"2025-04"},{"category":"anti-social-behaviour","location_type":"Force","location":{"latitude":"51.501409","street":{"id":1670096,"name":"On or near Kensington Court"},"longitude":"-0.187851"},"context":"","outcome_status":null,"persistent_id":"","id":127547113,"location_subtype":"","month":"2025-04"},{"category":"anti-social-behaviour","location_type":"Force","location":{"latitude":"51.504469","street":{"id":1666746,"name":"On or near Upper Addison Gardens"},"longitude":"-0.213190"},"context":"","outcome_status":null,"persistent_id":"","id":127547141,"location_subtype":"","month":"2025-04"},{"category":"anti-social-behaviour","location_type":"Force","location":{"latitude":"51.491357","street":{"id":1670781,"name":"On or near Dove Mews"},"longitude":"-0.182718"},"context":"","outcome_status":null,"persistent_id":"","id":127547146,"location_subtype":"","month":"2025-04"},{"category":"anti-social-behaviour","location_type":"Force","location":{"latitude":"51.509609","street":{"id":1666736,"name":"On or near Cowling Close"},"longitude":"-0.212946"},"context":"","outcome_status":null,"persistent_id":"","id":127547185,"location_subtype":"","month":"2025-04"},{"category":"anti-social-behaviour","location_type":"Force","location":{"latitude":"51.493923","street":{"id":1670845,"name":"On or near Stanhope Mews West"},"longitude":"-0.181766"},"context":"","outcome_status":null,"persistent_id":"","id":127547962,"location_subtype":"","month":"2025-04"},{"category":"anti-social-behaviour","location_type":"Force","location":{"latitude":"51.512379","street":{"id":1670413,"name":"On or near Porchester Terrace"},"longitude":"-0.184317"},"context":"","outcome_status":null,"persistent_id":"","id":127548328,"location_subtype":"","month":"2025-04"},{"category":"anti-social-behaviour","location_type":"Force","location":{"latitude":"51.495753","street":{"id":1667578,"name":"On or near Radnor Terrace"},"longitude":"-0.205391"},"context":"","outcome_status":null,"persistent_id":"","id":127548343,"location_subtype":"","month":"2025-04"},{"category":"anti-social-behaviour","location_type":"Force","location":{"latitude":"51.493632","street":{"id":1670005,"name":"On or near Courtfield Gardens"},"longitude":"-0.188548"},"context":"","outcome_status":null,"persistent_id":"","id":127548124,"location_subtype":"","month":"2025-04"},{"category":"anti-social-behaviour","location_type":"Force","location":{"latitude":"51.492775","street":{"id":1669590,"name":"On or near Earl's Court Gardens"},"longitude":"-0.191823"},"context":"","outcome_status":null,"persistent_id":"","id":127547845,"location_subtype":"","month":"2025-04"},{"category":"anti-social-behaviour","location_type":"Force","location":{"latitude":"51.512469","street":{"id":1670191,"name":"On or near Inverness Mews"},"longitude":"-0.187181"},"context":"","outcome_status":null,"persistent_id":"","id":127547917,"location_subtype":"","month":"2025-04"},{"category":"anti-social-behaviour","location_type":"Force","location":{"latitude":"51.502067","street":{"id":1666318,"name":"On or near Sinclair Gardens"},"longitude":"-0.216713"},"context":"","outcome_status":null,"persistent_id":"","id":127548151,"location_subtype":"","month":"2025-04"},{"category":"anti-social-behaviour","location_type":"Force","location":{"latitude":"51.511849","street":{"id":1669070,"name":"On or near Pembridge Square"},"longitude":"-0.195377"},"context":"","outcome_status":null,"persistent_id":"","id":127548754,"location_subtype":"","month":"2025-04"},{"category":"anti-social-behaviour","location_type":"Force","location":{"latitude":"51.511849","street":{"id":1669070,"name":"On or near Pembridge Square"},"longitude":"-0.195377"},"context":"","outcome_status":null,"persistent_id":"","id":127548755,"location_subtype":"","month":"2025-04"},{"category":"anti-social-behaviour","location_type":"Force","location":{"latitude":"51.513045","street":{"id":1669631,"name":"On or near Princes Square"},"longitude":"-0.191309"},"context":"","outcome_status":null,"persistent_id":"","id":127548782,"location_subtype":"","month":"2025-04"},{"category":"anti-social-behaviour","location_type":"Force","location":{"latitude":"51.490808","street":{"id":1669262,"name":"On or near Penywern Road"},"longitude":"-0.193730"},"context":"","outcome_status":null,"persistent_id":"","id":127548895,"location_subtype":"","month":"2025-04"},{"category":"anti-social-behaviour","location_type":"Force","location":{"latitude":"51.492775","street":{"id":1669590,"name":"On or near Earl's Court Gardens"},"longitude":"-0.191823"},"context":"","outcome_status":null,"persistent_id":"","id":127549036,"location_subtype":"","month":"2025-04"},{"category":"anti-social-behaviour","location_type":"Force","location":{"latitude":"51.492918","street":{"id":1668996,"name":"On or near Templeton Place"},"longitude":"-0.195865"},"context":"","outcome_status":null,"persistent_id":"","id":127549231,"location_subtype":"","month":"2025-04"},{"category":"anti-social-behaviour","location_type":"Force","location":{"latitude":"51.492775","street":{"id":1669590,"name":"On or near Earl's Court Gardens"},"longitude":"-0.191823"},"context":"","outcome_status":null,"persistent_id":"","id":127549767,"location_subtype":"","month":"2025-04"},{"category":"anti-social-behaviour","location_type":"Force","location":{"latitude":"51.492950","street":{"id":1670553,"name":"On or near Harrington Gardens"},"longitude":"-0.184527"},"context":"","outcome_status":null,"persistent_id":"","id":127549280,"location_subtype":"","month":"2025-04"},{"category":"anti-social-behaviour","location_type":"Force","location":{"latitude":"51.511343","street":{"id":1670687,"name":"On or near Leinster Terrace"},"longitude":"-0.183032"},"context":"","outcome_status":null,"persistent_id":"","id":127550307,"location_subtype":"","month":"2025-04"},{"category":"anti-social-behaviour","location_type":"Force","location":{"latitude":"51.494928","street":{"id":1670548,"name":"On or near Cromwell Road"},"longitude":"-0.184549"},"context":"","outcome_status":null,"persistent_id":"","id":127550926,"location_subtype":"","month":"2025-04"},{"category":"anti-social-behaviour","location_type":"Force","location":{"latitude":"51.508020","street":{"id":1668917,"name":"On or near Farmer Street"},"longitude":"-0.196696"},"context":"","outcome_status":null,"persistent_id":"","id":127551382,"location_subtype":"","month":"2025-04"},{"category":"anti-social-behaviour","location_type":"Force","location":{"latitude":"51.492339","street":{"id":1668482,"name":"On or near Warwick Road"},"longitude":"-0.199706"},"context":"","outcome_status":null,"persistent_id":"","id":127551117,"location_subtype":"","month":"2025-04"},{"category":"anti-social-behaviour","location_type":"Force","location":{"latitude":"51.511570","street":{"id":1671029,"name":"On or near Lancaster Gate"},"longitude":"-0.180271"},"context":"","outcome_status":null,"persistent_id":"","id":127551612,"location_subtype":"","month":"2025-04"},{"category":"anti-social-behaviour","location_type":"Force","location":{"latitude":"51.511162","street":{"id":1670168,"name":"On or near Shopping Area"},"longitude":"-0.187579"},"context":"","outcome_status":null,"persistent_id":"","id":127551222,"location_subtype":"","month":"2025-04"},{"category":"anti-social-behaviour","location_type":"Force","location":{"latitude":"51.508943","street":{"id":1666918,"name":"On or near Penzance Place"},"longitude":"-0.211142"},"context":"","outcome_status":null,"persistent_id":"","id":127551546,"location_subtype":"","month":"2025-04"},{"category":"anti-social-behaviour","location_type":"Force","location":{"latitude":"51.495871","street":{"id":1670560,"name":"On or near Southwell Gardens"},"longitude":"-0.184411"},"context":"","outcome_status":null,"persistent_id":"","id":127551884,"location_subtype":"","month":"2025-04"},{"category":"anti-social-behaviour","location_type":"Force","location":{"latitude":"51.494863","street":{"id":1668402,"name":"On or near Pembroke Road"},"longitude":"-0.199534"},"context":"","outcome_status":null,"persistent_id":"","id":127551810,"location_subtype":"","month":"2025-04"},{"category":"anti-social-behaviour","location_type":"Force","location":{"latitude":"51.512684","street":{"id":1670460,"name":"On or near Queensborough Mews"},"longitude":"-0.185429"},"context":"","outcome_status":null,"persistent_id":"","id":127552173,"location_subtype":"","month":"2025-04"},{"category":"anti-social-behaviour","location_type":"Force","location":{"latitude":"51.511391","street":{"id":1669297,"name":"On or near Clanricarde Gardens"},"longitude":"-0.193666"},"context":"","outcome_status":null,"persistent_id":"","id":127552243,"location_subtype":"","month":"2025-04"},{"category":"anti-social-behaviour","location_type":"Force","location":{"latitude":"51.508526","street":{"id":1668592,"name":"On or near Theatre/concert Hall"},"longitude":"-0.198288"},"context":"","outcome_status":null,"persistent_id":"","id":127552881,"location_subtype":"","month":"2025-04"},{"category":"anti-social-behaviour","location_type":"Force","location":{"latitude":"51.492339","street":{"id":1668482,"name":"On or near Warwick Road"},"longitude":"-0.199706"},"context":"","outcome_status":null,"persistent_id":"","id":127552697,"location_subtype":"","month":"2025-04"},{"category":"anti-social-behaviour","location_type":"Force","location":{"latitude":"51.514105","street":{"id":1668327,"name":"On or near Lambton Place"},"longitude":"-0.200030"},"context":"","outcome_status":null,"persistent_id":"","id":127553041,"location_subtype":"","month":"2025-04"},{"category":"anti-social-behaviour","location_type":"Force","location":{"latitude":"51.508542","street":{"id":1667028,"name":"On or near Penzance Street"},"longitude":"-0.210826"},"context":"","outcome_status":null,"persistent_id":"","id":127552761,"location_subtype":"","month":"2025-04"},{"category":"anti-social-behaviour","location_type":"Force","location":{"latitude":"51.492775","street":{"id":1669590,"name":"On or near Earl's Court Gardens"},"longitude":"-0.191823"},"context":"","outcome_status":null,"persistent_id":"","id":127553167,"location_subtype":"","month":"2025-04"},{"category":"anti-social-behaviour","location_type":"Force","location":{"latitude":"51.490620","street":{"id":1670761,"name":"On or near Theatre/concert Hall"},"longitude":"-0.183338"},"context":"","outcome_status":null,"persistent_id":"","id":127552714,"location_subtype":"","month":"2025-04"},{"category":"anti-social-behaviour","location_type":"Force","location":{"latitude":"51.511849","street":{"id":1669070,"name":"On or near Pembridge Square"},"longitude":"-0.195377"},"context":"","outcome_status":null,"persistent_id":"","id":127553425,"location_subtype":"","month":"2025-04"},{"category":"anti-social-behaviour","location_type":"Force","location":{"latitude":"51.496955","street":{"id":1669782,"name":"On or near Thomas Place"},"longitude":"-0.189987"},"context":"","outcome_status":null,"persistent_id":"","id":127553307,"location_subtype":"","month":"2025-04"},{"category":"anti-social-behaviour","location_type":"Force","location":{"latitude":"51.489927","street":{"id":1669556,"name":"On or near Farnell Mews"},"longitude":"-0.191993"},"context":"","outcome_status":null,"persistent_id":"","id":127553758,"location_subtype":"","month":"2025-04"},{"category":"anti-social-behaviour","location_type":"Force","location":{"latitude":"51.508074","street":{"id":1666728,"name":"On or near St James's Gardens"},"longitude":"-0.213121"},"context":"","outcome_status":null,"persistent_id":"","id":127553798,"location_subtype":"","month":"2025-04"},{"category":"anti-social-behaviour","location_type":"Force","location":{"latitude":"51.491763","street":{"id":1669376,"name":"On or near Old Manor Yard"},"longitude":"-0.193261"},"context":"","outcome_status":null,"persistent_id":"","id":127555264,"location_subtype":"","month":"2025-04"},{"category":"anti-social-behaviour","location_type":"Force","location":{"latitude":"51.512469","street":{"id":1670191,"name":"On or near Inverness Mews"},"longitude":"-0.187181"},"context":"","outcome_status":null,"persistent_id":"","id":127562672,"location_subtype":"","month":"2025-04"},{"category":"anti-social-behaviour","location_type":"Force","location":{"latitude":"51.493632","street":{"id":1670005,"name":"On or near Courtfield Gardens"},"longitude":"-0.188548"},"context":"","outcome_status":null,"persistent_id":"","id":127554990,"location_subtype":"","month":"2025-04"},{"category":"anti-social-behaviour","location_type":"Force","location":{"latitude":"51.492339","street":{"id":1668482,"name":"On or near Warwick Road"},"longitude":"-0.199706"},"context":"","outcome_status":null,"persistent_id":"","id":127555312,"location_subtype":"","month":"2025-04"},{"category":"anti-social-behaviour","location_type":"Force","location":{"latitude":"51.494007","street":{"id":1671634,"name":"On or near Bute Street"},"longitude":"-0.176735"},"context":"","outcome_status":null,"persistent_id":"","id":127556011,"location_subtype":"","month":"2025-04"},{"category":"anti-social-behaviour","location_type":"Force","location":{"latitude":"51.500620","street":{"id":1669367,"name":"On or near Shopping Area"},"longitude":"-0.193474"},"context":"","outcome_status":null,"persistent_id":"","id":127555681,"location_subtype":"","month":"2025-04"},{"category":"anti-social-behaviour","location_type":"Force","location":{"latitude":"51.514437","street":{"id":1668718,"name":"On or near Westbourne Grove Mews"},"longitude":"-0.197624"},"context":"","outcome_status":null,"persistent_id":"","id":127556120,"location_subtype":"","month":"2025-04"},{"category":"anti-social-behaviour","location_type":"Force","location":{"latitude":"51.506046","street":{"id":1667508,"name":"On or near Holland Park"},"longitude":"-0.207523"},"context":"","outcome_status":null,"persistent_id":"","id":127555813,"location_subtype":"","month":"2025-04"},{"category":"anti-social-behaviour","location_type":"Force","location":{"latitude":"51.492682","street":{"id":1671524,"name":"On or near Further/higher Educational Building"},"longitude":"-0.177666"},"context":"","outcome_status":null,"persistent_id":"","id":127556792,"location_subtype":"","month":"2025-04"},{"category":"anti-social-behaviour","location_type":"Force","location":{"latitude":"51.493964","street":{"id":1667571,"name":"On or near Lisgar Terrace"},"longitude":"-0.206614"},"context":"","outcome_status":null,"persistent_id":"","id":127543637,"location_subtype":"","month":"2025-04"},{"category":"anti-social-behaviour","location_type":"Force","location":{"latitude":"51.509369","street":{"id":1668201,"name":"On or near Ladbroke Terrace"},"longitude":"-0.201355"},"context":"","outcome_status":null,"persistent_id":"","id":127544000,"location_subtype":"","month":"2025-04"},{"category":"anti-social-behaviour","location_type":"Force","location":{"latitude":"51.495680","street":{"id":1670258,"name":"On or near Mcleod's Mews"},"longitude":"-0.186637"},"context":"","outcome_status":null,"persistent_id":"","id":127544930,"location_subtype":"","month":"2025-04"},{"category":"anti-social-behaviour","location_type":"Force","location":{"latitude":"51.513045","street":{"id":1669631,"name":"On or near Princes Square"},"longitude":"-0.191309"},"context":"","outcome_status":null,"persistent_id":"","id":127545841,"location_subtype":"","month":"2025-04"},{"category":"anti-social-behaviour","location_type":"Force","location":{"latitude":"51.494823","street":{"id":1671527,"name":"On or near Cromwell Place"},"longitude":"-0.174844"},"context":"","outcome_status":null,"persistent_id":"","id":127546748,"location_subtype":"","month":"2025-04"},{"category":"anti-social-behaviour","location_type":"Force","location":{"latitude":"51.514048","street":{"id":1669354,"name":"On or near Leinster Square"},"longitude":"-0.192797"},"context":"","outcome_status":null,"persistent_id":"","id":127547180,"location_subtype":"","month":"2025-04"},{"category":"anti-social-behaviour","location_type":"Force","location":{"latitude":"51.492339","street":{"id":1668482,"name":"On or near Warwick Road"},"longitude":"-0.199706"},"context":"","outcome_status":null,"persistent_id":"","id":127547540,"location_subtype":"","month":"2025-04"},{"category":"anti-social-behaviour","location_type":"Force","location":{"latitude":"51.499281","street":{"id":1668656,"name":"On or near Kensington High Street"},"longitude":"-0.197991"},"context":"","outcome_status":null,"persistent_id":"","id":127548362,"location_subtype":"","month":"2025-04"},{"category":"anti-social-behaviour","location_type":"Force","location":{"latitude":"51.507909","street":{"id":1668993,"name":"On or near Newcombe Street"},"longitude":"-0.195331"},"context":"","outcome_status":null,"persistent_id":"","id":127549347,"location_subtype":"","month":"2025-04"},{"category":"anti-social-behaviour","location_type":"Force","location":{"latitude":"51.494249","street":{"id":1667054,"name":"On or near Gorleston Street"},"longitude":"-0.209945"},"context":"","outcome_status":null,"persistent_id":"","id":127550173,"location_subtype":"","month":"2025-04"},{"category":"anti-social-behaviour","location_type":"Force","location":{"latitude":"51.500080","street":{"id":1666967,"name":"On or near Russell Gardens"},"longitude":"-0.211417"},"context":"","outcome_status":null,"persistent_id":"","id":127550355,"location_subtype":"","month":"2025-04"},{"category":"anti-social-behaviour","location_type":"Force","location":{"latitude":"51.510197","street":{"id":1667050,"name":"On or near Hippodrome Place"},"longitude":"-0.210848"},"context":"","outcome_status":null,"persistent_id":"","id":127550675,"location_subtype":"","month":"2025-04"},{"category":"anti-social-behaviour","location_type":"Force","location":{"latitude":"51.492925","street":{"id":1668584,"name":"On or near Nevern Road"},"longitude":"-0.198084"},"context":"","outcome_status":null,"persistent_id":"","id":127559960,"location_subtype":"","month":"2025-04"},{"category":"anti-social-behaviour","location_type":"Force","location":{"latitude":"51.508012","street":{"id":1668245,"name":"On or near Campden Hill Place"},"longitude":"-0.200875"},"context":"","outcome_status":null,"persistent_id":"","id":127562165,"location_subtype":"","month":"2025-04"},{"category":"anti-social-behaviour","location_type":"Force","location":{"latitude":"51.494823","street":{"id":1671527,"name":"On or near Cromwell Place"},"longitude":"-0.174844"},"context":"","outcome_status":null,"persistent_id":"","id":127551725,"location_subtype":"","month":"2025-04"},{"category":"anti-social-behaviour","location_type":"Force","location":{"latitude":"51.512469","street":{"id":1670191,"name":"On or near Inverness Mews"},"longitude":"-0.187181"},"context":"","outcome_status":null,"persistent_id":"","id":127554057,"location_subtype":"","month":"2025-04"},{"category":"anti-social-behaviour","location_type":"Force","location":{"latitude":"51.497333","street":{"id":1668748,"name":"On or near Police Station"},"longitude":"-0.197943"},"context":"","outcome_status":null,"persistent_id":"","id":127553750,"location_subtype":"","month":"2025-04"},{"category":"anti-social-behaviour","location_type":"Force","location":{"latitude":"51.490808","street":{"id":1669262,"name":"On or near Penywern Road"},"longitude":"-0.193730"},"context":"","outcome_status":null,"persistent_id":"","id":127562933,"location_subtype":"","month":"2025-04"},{"category":"anti-social-behaviour","location_type":"Force","location":{"latitude":"51.493192","street":{"id":1668765,"name":"On or near Longridge Road"},"longitude":"-0.197324"},"context":"","outcome_status":null,"persistent_id":"","id":127554666,"location_subtype":"","month":"2025-04"},{"category":"anti-social-behaviour","location_type":"Force","location":{"latitude":"51.512684","street":{"id":1670460,"name":"On or near Queensborough Mews"},"longitude":"-0.185429"},"context":"","outcome_status":null,"persistent_id":"","id":127555111,"location_subtype":"","month":"2025-04"},{"category":"anti-social-behaviour","location_type":"Force","location":{"latitude":"51.489927","street":{"id":1669556,"name":"On or near Farnell Mews"},"longitude":"-0.191993"},"context":"","outcome_status":null,"persistent_id":"","id":127555977,"location_subtype":"","month":"2025-04"},{"category":"anti-social-behaviour","location_type":"Force","location":{"latitude":"51.511849","street":{"id":1669070,"name":"On or near Pembridge Square"},"longitude":"-0.195377"},"context":"","outcome_status":null,"persistent_id":"","id":127558071,"location_subtype":"","month":"2025-04"},{"category":"anti-social-behaviour","location_type":"Force","location":{"latitude":"51.502684","street":{"id":1670048,"name":"On or near Parking Area"},"longitude":"-0.188304"},"context":"","outcome_status":null,"persistent_id":"","id":127563546,"location_subtype":"","month":"2025-04"},{"category":"anti-social-behaviour","location_type":"Force","location":{"latitude":"51.494211","street":{"id":1668481,"name":"On or near Cromwell Crescent"},"longitude":"-0.199229"},"context":"","outcome_status":null,"persistent_id":"","id":127563618,"location_subtype":"","month":"2025-04"},{"category":"anti-social-behaviour","location_type":"Force","location":{"latitude":"51.490117","street":{"id":1669787,"name":"On or near Wetherby Mews"},"longitude":"-0.189782"},"context":"","outcome_status":null,"persistent_id":"","id":127557800,"location_subtype":"","month":"2025-04"},{"category":"anti-social-behaviour","location_type":"Force","location":{"latitude":"51.491763","street":{"id":1669376,"name":"On or near Old Manor Yard"},"longitude":"-0.193261"},"context":"","outcome_status":null,"persistent_id":"","id":127558596,"location_subtype":"","month":"2025-04"},{"category":"anti-social-behaviour","location_type":"Force","location":{"latitude":"51.489927","street":{"id":1669556,"name":"On or near Farnell Mews"},"longitude":"-0.191993"},"context":"","outcome_status":null,"persistent_id":"","id":127557708,"location_subtype":"","month":"2025-04"},{"category":"anti-social-behaviour","location_type":"Force","location":{"latitude":"51.490350","street":{"id":1667408,"name":"On or near North End Road"},"longitude":"-0.206641"},"context":"","outcome_status":null,"persistent_id":"","id":127557394,"location_subtype":"","month":"2025-04"},{"category":"anti-social-behaviour","location_type":"Force","location":{"latitude":"51.495200","street":{"id":1670818,"name":"On or near Gloucester Road"},"longitude":"-0.182925"},"context":"","outcome_status":null,"persistent_id":"","id":127553692,"location_subtype":"","month":"2025-04"},{"category":"anti-social-behaviour","location_type":"Force","location":{"latitude":"51.490808","street":{"id":1669262,"name":"On or near Penywern Road"},"longitude":"-0.193730"},"context":"","outcome_status":null,"persistent_id":"","id":127554151,"location_subtype":"","month":"2025-04"},{"category":"anti-social-behaviour","location_type":"Force","location":{"latitude":"51.512900","street":{"id":1667660,"name":"On or near Ladbroke Gardens"},"longitude":"-0.205280"},"context":"","outcome_status":null,"persistent_id":"","id":127547086,"location_subtype":"","month":"2025-04"},{"category":"anti-social-behaviour","location_type":"Force","location":{"latitude":"51.489927","street":{"id":1669556,"name":"On or near Farnell Mews"},"longitude":"-0.191993"},"context":"","outcome_status":null,"persistent_id":"","id":127556921,"location_subtype":"","month":"2025-04"},{"category":"anti-social-behaviour","location_type":"Force","location":{"latitude":"51.512379","street":{"id":1670413,"name":"On or near Porchester Terrace"},"longitude":"-0.184317"},"context":"","outcome_status":null,"persistent_id":"","id":127556357,"location_subtype":"","month":"2025-04"},{"category":"anti-social-behaviour","location_type":"Force","location":{"latitude":"51.512469","street":{"id":1670191,"name":"On or near Inverness Mews"},"longitude":"-0.187181"},"context":"","outcome_status":null,"persistent_id":"","id":127545559,"location_subtype":"","month":"2025-04"},{"category":"anti-social-behaviour","location_type":"Force","location":{"latitude":"51.490808","street":{"id":1669262,"name":"On or near Penywern Road"},"longitude":"-0.193730"},"context":"","outcome_status":null,"persistent_id":"","id":127546123,"location_subtype":"","month":"2025-04"},{"category":"anti-social-behaviour","location_type":"Force","location":{"latitude":"51.488459","street":{"id":1668002,"name":"On or near Ivatt Place"},"longitude":"-0.202955"},"context":"","outcome_status":null,"persistent_id":"","id":127556202,"location_subtype":"","month":"2025-04"},{"category":"anti-social-behaviour","location_type":"Force","location":{"latitude":"51.499141","street":{"id":1670644,"name":"On or near Albert Mews"},"longitude":"-0.184252"},"context":"","outcome_status":null,"persistent_id":"","id":127548955,"location_subtype":"","month":"2025-04"},{"category":"anti-social-behaviour","location_type":"Force","location":{"latitude":"51.493313","street":{"id":1671684,"name":"On or near Kendrick Mews"},"longitude":"-0.176633"},"context":"","outcome_status":null,"persistent_id":"","id":127549528,"location_subtype":"","month":"2025-04"},{"category":"anti-social-behaviour","location_type":"Force","location":{"latitude":"51.492792","street":{"id":1667406,"name":"On or near North End Crescent"},"longitude":"-0.206977"},"context":"","outcome_status":null,"persistent_id":"","id":127549553,"location_subtype":"","month":"2025-04"},{"category":"anti-social-behaviour","location_type":"Force","location":{"latitude":"51.512469","street":{"id":1670191,"name":"On or near Inverness Mews"},"longitude":"-0.187181"},"context":"","outcome_status":null,"persistent_id":"","id":127549419,"location_subtype":"","month":"2025-04"},{"category":"anti-social-behaviour","location_type":"Force","location":{"latitude":"51.495200","street":{"id":1670818,"name":"On or near Gloucester Road"},"longitude":"-0.182925"},"context":"","outcome_status":null,"persistent_id":"","id":127549104,"location_subtype":"","month":"2025-04"},{"category":"anti-social-behaviour","location_type":"Force","location":{"latitude":"51.495765","street":{"id":1668552,"name":"On or near Pembroke Villas"},"longitude":"-0.198534"},"context":"","outcome_status":null,"persistent_id":"","id":127549697,"location_subtype":"","month":"2025-04"},{"category":"anti-social-behaviour","location_type":"Force","location":{"latitude":"51.500473","street":{"id":1669672,"name":"On or near Kensington Square"},"longitude":"-0.190697"},"context":"","outcome_status":null,"persistent_id":"","id":127550258,"location_subtype":"","month":"2025-04"},{"category":"anti-social-behaviour","location_type":"Force","location":{"latitude":"51.512138","street":{"id":1667868,"name":"On or near Stanley Gardens"},"longitude":"-0.204286"},"context":"","outcome_status":null,"persistent_id":"","id":127550829,"location_subtype":"","month":"2025-04"},{"category":"anti-social-behaviour","location_type":"Force","location":{"latitude":"51.492775","street":{"id":1669590,"name":"On or near Earl's Court Gardens"},"longitude":"-0.191823"},"context":"","outcome_status":null,"persistent_id":"","id":127550990,"location_subtype":"","month":"2025-04"},{"category":"anti-social-behaviour","location_type":"Force","location":{"latitude":"51.490477","street":{"id":1670576,"name":"On or near Cresswell Gardens"},"longitude":"-0.183977"},"context":"","outcome_status":null,"persistent_id":"","id":127551001,"location_subtype":"","month":"2025-04"},{"category":"anti-social-behaviour","location_type":"Force","location":{"latitude":"51.512469","street":{"id":1670191,"name":"On or near Inverness Mews"},"longitude":"-0.187181"},"context":"","outcome_status":null,"persistent_id":"","id":127549824,"location_subtype":"","month":"2025-04"},{"category":"anti-social-behaviour","location_type":"Force","location":{"latitude":"51.498113","street":{"id":1668805,"name":"On or near Abingdon Road"},"longitude":"-0.196309"},"context":"","outcome_status":null,"persistent_id":"","id":127551201,"location_subtype":"","month":"2025-04"},{"category":"anti-social-behaviour","location_type":"Force","location":{"latitude":"51.492775","street":{"id":1669590,"name":"On or near Earl's Court Gardens"},"longitude":"-0.191823"},"context":"","outcome_status":null,"persistent_id":"","id":127551528,"location_subtype":"","month":"2025-04"},{"category":"anti-social-behaviour","location_type":"Force","location":{"latitude":"51.491022","street":{"id":1667233,"name":"On or near Gwendwr Road"},"longitude":"-0.209481"},"context":"","outcome_status":null,"persistent_id":"","id":127551935,"location_subtype":"","month":"2025-04"},{"category":"anti-social-behaviour","location_type":"Force","location":{"latitude":"51.497524","street":{"id":1670580,"name":"On or near Kynance Place"},"longitude":"-0.184345"},"context":"","outcome_status":null,"persistent_id":"","id":127552395,"location_subtype":"","month":"2025-04"},{"category":"anti-social-behaviour","location_type":"Force","location":{"latitude":"51.492925","street":{"id":1668584,"name":"On or near Nevern Road"},"longitude":"-0.198084"},"context":"","outcome_status":null,"persistent_id":"","id":127552484,"location_subtype":"","month":"2025-04"},{"category":"anti-social-behaviour","location_type":"Force","location":{"latitude":"51.490808","street":{"id":1669262,"name":"On or near Penywern Road"},"longitude":"-0.193730"},"context":"","outcome_status":null,"persistent_id":"","id":127552525,"location_subtype":"","month":"2025-04"},{"category":"anti-social-behaviour","location_type":"Force","location":{"latitude":"51.493192","street":{"id":1668765,"name":"On or near Longridge Road"},"longitude":"-0.197324"},"context":"","outcome_status":null,"persistent_id":"","id":127553003,"location_subtype":"","month":"2025-04"},{"category":"anti-social-behaviour","location_type":"Force","location":{"latitude":"51.488444","street":{"id":1669284,"name":"On or near Kramer Mews"},"longitude":"-0.193809"},"context":"","outcome_status":null,"persistent_id":"","id":127553026,"location_subtype":"","month":"2025-04"},{"category":"anti-social-behaviour","location_type":"Force","location":{"latitude":"51.512469","street":{"id":1670191,"name":"On or near Inverness Mews"},"longitude":"-0.187181"},"context":"","outcome_status":null,"persistent_id":"","id":127553190,"location_subtype":"","month":"2025-04"},{"category":"anti-social-behaviour","location_type":"Force","location":{"latitude":"51.499112","street":{"id":1670835,"name":"On or near Queen's Gate Mews"},"longitude":"-0.181747"},"context":"","outcome_status":null,"persistent_id":"","id":127553459,"location_subtype":"","month":"2025-04"},{"category":"anti-social-behaviour","location_type":"Force","location":{"latitude":"51.508012","street":{"id":1668245,"name":"On or near Campden Hill Place"},"longitude":"-0.200875"},"context":"","outcome_status":null,"persistent_id":"","id":127553415,"location_subtype":"","month":"2025-04"},{"category":"anti-social-behaviour","location_type":"Force","location":{"latitude":"51.490808","street":{"id":1669262,"name":"On or near Penywern Road"},"longitude":"-0.193730"},"context":"","outcome_status":null,"persistent_id":"","id":127552966,"location_subtype":"","month":"2025-04"},{"category":"anti-social-behaviour","location_type":"Force","location":{"latitude":"51.497150","street":{"id":1667825,"name":"On or near St Mary Abbot's Place"},"longitude":"-0.203248"},"context":"","outcome_status":null,"persistent_id":"","id":127545868,"location_subtype":"","month":"2025-04"},{"category":"anti-social-behaviour","location_type":"Force","location":{"latitude":"51.490350","street":{"id":1667408,"name":"On or near North End Road"},"longitude":"-0.206641"},"context":"","outcome_status":null,"persistent_id":"","id":127545719,"location_subtype":"","month":"2025-04"},{"category":"anti-social-behaviour","location_type":"Force","location":{"latitude":"51.492775","street":{"id":1669590,"name":"On or near Earl's Court Gardens"},"longitude":"-0.191823"},"context":"","outcome_status":null,"persistent_id":"","id":127544543,"location_subtype":"","month":"2025-04"},{"category":"anti-social-behaviour","location_type":"Force","location":{"latitude":"51.489064","street":{"id":1669649,"name":"On or near Coleherne Road"},"longitude":"-0.191437"},"context":"","outcome_status":null,"persistent_id":"","id":127545300,"location_subtype":"","month":"2025-04"},{"category":"anti-social-behaviour","location_type":"Force","location":{"latitude":"51.493558","street":{"id":1671678,"name":"On or near Glendower Place"},"longitude":"-0.175600"},"context":"","outcome_status":null,"persistent_id":"","id":127545316,"location_subtype":"","month":"2025-04"},{"category":"anti-social-behaviour","location_type":"Force","location":{"latitude":"51.493192","street":{"id":1668765,"name":"On or near Longridge Road"},"longitude":"-0.197324"},"context":"","outcome_status":null,"persistent_id":"","id":127545322,"location_subtype":"","month":"2025-04"},{"category":"anti-social-behaviour","location_type":"Force","location":{"latitude":"51.499281","street":{"id":1668656,"name":"On or near Kensington High Street"},"longitude":"-0.197991"},"context":"","outcome_status":null,"persistent_id":"","id":127544692,"location_subtype":"","month":"2025-04"},{"category":"anti-social-behaviour","location_type":"Force","location":{"latitude":"51.499891","street":{"id":1666714,"name":"On or near Sinclair Road"},"longitude":"-0.213773"},"context":"","outcome_status":null,"persistent_id":"","id":127545467,"location_subtype":"","month":"2025-04"},{"category":"anti-social-behaviour","location_type":"Force","location":{"latitude":"51.495200","street":{"id":1670818,"name":"On or near Gloucester Road"},"longitude":"-0.182925"},"context":"","outcome_status":null,"persistent_id":"","id":127545737,"location_subtype":"","month":"2025-04"},{"category":"anti-social-behaviour","location_type":"Force","location":{"latitude":"51.512469","street":{"id":1670191,"name":"On or near Inverness Mews"},"longitude":"-0.187181"},"context":"","outcome_status":null,"persistent_id":"","id":127546180,"location_subtype":"","month":"2025-04"},{"category":"anti-social-behaviour","location_type":"Force","location":{"latitude":"51.490477","street":{"id":1670576,"name":"On or near Cresswell Gardens"},"longitude":"-0.183977"},"context":"","outcome_status":null,"persistent_id":"","id":127562118,"location_subtype":"","month":"2025-04"},{"category":"anti-social-behaviour","location_type":"Force","location":{"latitude":"51.492339","street":{"id":1668482,"name":"On or near Warwick Road"},"longitude":"-0.199706"},"context":"","outcome_status":null,"persistent_id":"","id":127562235,"location_subtype":"","month":"2025-04"},{"category":"anti-social-behaviour","location_type":"Force","location":{"latitude":"51.512138","street":{"id":1667868,"name":"On or near Stanley Gardens"},"longitude":"-0.204286"},"context":"","outcome_status":null,"persistent_id":"","id":127551389,"location_subtype":"","month":"2025-04"},{"category":"anti-social-behaviour","location_type":"Force","location":{"latitude":"51.513296","street":{"id":1670011,"name":"On or near Salem Road"},"longitude":"-0.188907"},"context":"","outcome_status":null,"persistent_id":"","id":127555207,"location_subtype":"","month":"2025-04"},{"category":"anti-social-behaviour","location_type":"Force","location":{"latitude":"51.495432","street":{"id":1667255,"name":"On or near Earsby Street"},"longitude":"-0.209121"},"context":"","outcome_status":null,"persistent_id":"","id":127556317,"location_subtype":"","month":"2025-04"},{"category":"anti-social-behaviour","location_type":"Force","location":{"latitude":"51.509609","street":{"id":1666736,"name":"On or near Cowling Close"},"longitude":"-0.212946"},"context":"","outcome_status":null,"persistent_id":"","id":127557039,"location_subtype":"","month":"2025-04"},{"category":"anti-social-behaviour","location_type":"Force","location":{"latitude":"51.493192","street":{"id":1668765,"name":"On or near Longridge Road"},"longitude":"-0.197324"},"context":"","outcome_status":null,"persistent_id":"","id":127562978,"location_subtype":"","month":"2025-04"},{"category":"anti-social-behaviour","location_type":"Force","location":{"latitude":"51.492925","street":{"id":1668584,"name":"On or near Nevern Road"},"longitude":"-0.198084"},"context":"","outcome_status":null,"persistent_id":"","id":127564107,"location_subtype":"","month":"2025-04"},{"category":"anti-social-behaviour","location_type":"Force","location":{"latitude":"51.494823","street":{"id":1671527,"name":"On or near Cromwell Place"},"longitude":"-0.174844"},"context":"","outcome_status":null,"persistent_id":"","id":127563455,"location_subtype":"","month":"2025-04"},{"category":"anti-social-behaviour","location_type":"Force","location":{"latitude":"51.490117","street":{"id":1669787,"name":"On or near Wetherby Mews"},"longitude":"-0.189782"},"context":"","outcome_status":null,"persistent_id":"","id":127563670,"location_subtype":"","month":"2025-04"},{"category":"anti-social-behaviour","location_type":"Force","location":{"latitude":"51.494675","street":{"id":1668733,"name":"On or near Logan Place"},"longitude":"-0.197871"},"context":"","outcome_status":null,"persistent_id":"","id":127561524,"location_subtype":"","month":"2025-04"},{"category":"anti-social-behaviour","location_type":"Force","location":{"latitude":"51.512469","street":{"id":1670191,"name":"On or near Inverness Mews"},"longitude":"-0.187181"},"context":"","outcome_status":null,"persistent_id":"","id":127560008,"location_subtype":"","month":"2025-04"},{"category":"anti-social-behaviour","location_type":"Force","location":{"latitude":"51.496653","street":{"id":1671265,"name":"On or near Queen's Gate"},"longitude":"-0.179208"},"context":"","outcome_status":null,"persistent_id":"","id":127560353,"location_subtype":"","month":"2025-04"},{"category":"anti-social-behaviour","location_type":"Force","location":{"latitude":"51.501973","street":{"id":1669581,"name":"On or near Kensington Church Court"},"longitude":"-0.191762"},"context":"","outcome_status":null,"persistent_id":"","id":127560188,"location_subtype":"","month":"2025-04"},{"category":"anti-social-behaviour","location_type":"Force","location":{"latitude":"51.512379","street":{"id":1670413,"name":"On or near Porchester Terrace"},"longitude":"-0.184317"},"context":"","outcome_status":null,"persistent_id":"","id":127559620,"location_subtype":"","month":"2025-04"},{"category":"anti-social-behaviour","location_type":"Force","location":{"latitude":"51.497559","street":{"id":1666732,"name":"On or near Hazlitt Road"},"longitude":"-0.212956"},"context":"","outcome_status":null,"persistent_id":"","id":127559522,"location_subtype":"","month":"2025-04"},{"category":"anti-social-behaviour","location_type":"Force","location":{"latitude":"51.492775","street":{"id":1669590,"name":"On or near Earl's Court Gardens"},"longitude":"-0.191823"},"context":"","outcome_status":null,"persistent_id":"","id":127559499,"location_subtype":"","month":"2025-04"},{"category":"anti-social-behaviour","location_type":"Force","location":{"latitude":"51.514717","street":{"id":1668839,"name":"On or near Rosehart Mews"},"longitude":"-0.197152"},"context":"","outcome_status":null,"persistent_id":"","id":127548748,"location_subtype":"","month":"2025-04"},{"category":"anti-social-behaviour","location_type":"Force","location":{"latitude":"51.492775","street":{"id":1669590,"name":"On or near Earl's Court Gardens"},"longitude":"-0.191823"},"context":"","outcome_status":null,"persistent_id":"","id":127559353,"location_subtype":"","month":"2025-04"},{"category":"anti-social-behaviour","location_type":"Force","location":{"latitude":"51.488728","street":{"id":1669182,"name":"On or near Kempsford Gardens"},"longitude":"-0.194763"},"context":"","outcome_status":null,"persistent_id":"","id":127558949,"location_subtype":"","month":"2025-04"},{"category":"anti-social-behaviour","location_type":"Force","location":{"latitude":"51.502684","street":{"id":1670048,"name":"On or near Parking Area"},"longitude":"-0.188304"},"context":"","outcome_status":null,"persistent_id":"","id":127548787,"location_subtype":"","month":"2025-04"},{"category":"anti-social-behaviour","location_type":"Force","location":{"latitude":"51.493632","street":{"id":1670005,"name":"On or near Courtfield Gardens"},"longitude":"-0.188548"},"context":"","outcome_status":null,"persistent_id":"","id":127548726,"location_subtype":"","month":"2025-04"},{"category":"anti-social-behaviour","location_type":"Force","location":{"latitude":"51.508382","street":{"id":1669247,"name":"On or near Kensington Mall"},"longitude":"-0.194491"},"context":"","outcome_status":null,"persistent_id":"","id":127548661,"location_subtype":"","month":"2025-04"},{"category":"anti-social-behaviour","location_type":"Force","location":{"latitude":"51.512280","street":{"id":1670379,"name":"On or near Queensborough Terrace"},"longitude":"-0.185459"},"context":"","outcome_status":null,"persistent_id":"","id":127548084,"location_subtype":"","month":"2025-04"},{"category":"anti-social-behaviour","location_type":"Force","location":{"latitude":"51.492775","street":{"id":1669590,"name":"On or near Earl's Court Gardens"},"longitude":"-0.191823"},"context":"","outcome_status":null,"persistent_id":"","id":127547564,"location_subtype":"","month":"2025-04"},{"category":"anti-social-behaviour","location_type":"Force","location":{"latitude":"51.493192","street":{"id":1668765,"name":"On or near Longridge Road"},"longitude":"-0.197324"},"context":"","outcome_status":null,"persistent_id":"","id":127547247,"location_subtype":"","month":"2025-04"},{"category":"anti-social-behaviour","location_type":"Force","location":{"latitude":"51.494007","street":{"id":1671634,"name":"On or near Bute Street"},"longitude":"-0.176735"},"context":"","outcome_status":null,"persistent_id":"","id":127547244,"location_subtype":"","month":"2025-04"},{"category":"anti-social-behaviour","location_type":"Force","location":{"latitude":"51.501760","street":{"id":1670865,"name":"On or near Parking Area"},"longitude":"-0.180330"},"context":"","outcome_status":null,"persistent_id":"","id":127547222,"location_subtype":"","month":"2025-04"},{"category":"anti-social-behaviour","location_type":"Force","location":{"latitude":"51.493971","street":{"id":1669816,"name":"On or near Collingham Place"},"longitude":"-0.189500"},"context":"","outcome_status":null,"persistent_id":"","id":127547072,"location_subtype":"","month":"2025-04"},{"category":"anti-social-behaviour","location_type":"Force","location":{"latitude":"51.489064","street":{"id":1669649,"name":"On or near Coleherne Road"},"longitude":"-0.191437"},"context":"","outcome_status":null,"persistent_id":"","id":127550190,"location_subtype":"","month":"2025-04"},{"category":"anti-social-behaviour","location_type":"Force","location":{"latitude":"51.493117","street":{"id":1669450,"name":"On or near Hogarth Road"},"longitude":"-0.192458"},"context":"","outcome_status":null,"persistent_id":"","id":127547866,"location_subtype":"","month":"2025-04"},{"category":"anti-social-behaviour","location_type":"Force","location":{"latitude":"51.493192","street":{"id":1668765,"name":"On or near Longridge Road"},"longitude":"-0.197324"},"context":"","outcome_status":null,"persistent_id":"","id":127562857,"location_subtype":"","month":"2025-04"},{"category":"anti-social-behaviour","location_type":"Force","location":{"latitude":"51.494675","street":{"id":1668733,"name":"On or near Logan Place"},"longitude":"-0.197871"},"context":"","outcome_status":null,"persistent_id":"","id":127547626,"location_subtype":"","month":"2025-04"},{"category":"anti-social-behaviour","location_type":"Force","location":{"latitude":"51.490808","street":{"id":1669262,"name":"On or near Penywern Road"},"longitude":"-0.193730"},"context":"","outcome_status":null,"persistent_id":"","id":127547624,"location_subtype":"","month":"2025-04"},{"category":"anti-social-behaviour","location_type":"Force","location":{"latitude":"51.490808","street":{"id":1669262,"name":"On or near Penywern Road"},"longitude":"-0.193730"},"context":"","outcome_status":null,"persistent_id":"","id":127547623,"location_subtype":"","month":"2025-04"},{"category":"anti-social-behaviour","location_type":"Force","location":{"latitude":"51.494928","street":{"id":1670548,"name":"On or near Cromwell Road"},"longitude":"-0.184549"},"context":"","outcome_status":null,"persistent_id":"","id":127546988,"location_subtype":"","month":"2025-04"},{"category":"anti-social-behaviour","location_type":"Force","location":{"latitude":"51.493313","street":{"id":1671684,"name":"On or near Kendrick Mews"},"longitude":"-0.176633"},"context":"","outcome_status":null,"persistent_id":"","id":127546925,"location_subtype":"","month":"2025-04"},{"category":"anti-social-behaviour","location_type":"Force","location":{"latitude":"51.495200","street":{"id":1670818,"name":"On or near Gloucester Road"},"longitude":"-0.182925"},"context":"","outcome_status":null,"persistent_id":"","id":127550859,"location_subtype":"","month":"2025-04"},{"category":"anti-social-behaviour","location_type":"Force","location":{"latitude":"51.510197","street":{"id":1667050,"name":"On or near Hippodrome Place"},"longitude":"-0.210848"},"context":"","outcome_status":null,"persistent_id":"","id":127559972,"location_subtype":"","month":"2025-04"},{"category":"anti-social-behaviour","location_type":"Force","location":{"latitude":"51.507464","street":{"id":1668339,"name":"On or near Campden Hill Gardens"},"longitude":"-0.199744"},"context":"","outcome_status":null,"persistent_id":"","id":127546514,"location_subtype":"","month":"2025-04"},{"category":"anti-social-behaviour","location_type":"Force","location":{"latitude":"51.492682","street":{"id":1671524,"name":"On or near Further/higher Educational Building"},"longitude":"-0.177666"},"context":"","outcome_status":null,"persistent_id":"","id":127546259,"location_subtype":"","month":"2025-04"},{"category":"anti-social-behaviour","location_type":"Force","location":{"latitude":"51.494414","street":{"id":1671522,"name":"On or near Queensberry Place"},"longitude":"-0.177453"},"context":"","outcome_status":null,"persistent_id":"","id":127546258,"location_subtype":"","month":"2025-04"},{"category":"anti-social-behaviour","location_type":"Force","location":{"latitude":"51.489927","street":{"id":1669556,"name":"On or near Farnell Mews"},"longitude":"-0.191993"},"context":"","outcome_status":null,"persistent_id":"","id":127546009,"location_subtype":"","month":"2025-04"},{"category":"anti-social-behaviour","location_type":"Force","location":{"latitude":"51.515183","street":{"id":1669361,"name":"On or near Monmouth Road"},"longitude":"-0.192896"},"context":"","outcome_status":null,"persistent_id":"","id":127558236,"location_subtype":"","month":"2025-04"},{"category":"anti-social-behaviour","location_type":"Force","location":{"latitude":"51.494675","street":{"id":1668733,"name":"On or near Logan Place"},"longitude":"-0.197871"},"context":"","outcome_status":null,"persistent_id":"","id":127556646,"location_subtype":"","month":"2025-04"},{"category":"anti-social-behaviour","location_type":"Force","location":{"latitude":"51.503168","street":{"id":1669020,"name":"On or near Hornton Street"},"longitude":"-0.195216"},"context":"","outcome_status":null,"persistent_id":"","id":127545701,"location_subtype":"","month":"2025-04"},{"category":"anti-social-behaviour","location_type":"Force","location":{"latitude":"51.511162","street":{"id":1670168,"name":"On or near Shopping Area"},"longitude":"-0.187579"},"context":"","outcome_status":null,"persistent_id":"","id":127544577,"location_subtype":"","month":"2025-04"},{"category":"anti-social-behaviour","location_type":"Force","location":{"latitude":"51.511849","street":{"id":1669070,"name":"On or near Pembridge Square"},"longitude":"-0.195377"},"context":"","outcome_status":null,"persistent_id":"","id":127543216,"location_subtype":"","month":"2025-04"},{"category":"anti-social-behaviour","location_type":"Force","location":{"latitude":"51.498164","street":{"id":1672099,"name":"On or near Princes Gate Mews"},"longitude":"-0.172823"},"context":"","outcome_status":null,"persistent_id":"","id":127543421,"location_subtype":"","month":"2025-04"},{"category":"anti-social-behaviour","location_type":"Force","location":{"latitude":"51.500095","street":{"id":1671951,"name":"On or near Exhibition Road"},"longitude":"-0.174460"},"context":"","outcome_status":null,"persistent_id":"","id":127543008,"location_subtype":"","month":"2025-04"},{"category":"anti-social-behaviour","location_type":"Force","location":{"latitude":"51.492339","street":{"id":1668482,"name":"On or near Warwick Road"},"longitude":"-0.199706"},"context":"","outcome_status":null,"persistent_id":"","id":127543787,"location_subtype":"","month":"2025-04"},{"category":"anti-social-behaviour","location_type":"Force","location":{"latitude":"51.501973","street":{"id":1669581,"name":"On or near Kensington Church Court"},"longitude":"-0.191762"},"context":"","outcome_status":null,"persistent_id":"","id":127543508,"location_subtype":"","month":"2025-04"},{"category":"anti-social-behaviour","location_type":"Force","location":{"latitude":"51.511849","street":{"id":1669070,"name":"On or near Pembridge Square"},"longitude":"-0.195377"},"context":"","outcome_status":null,"persistent_id":"","id":127544287,"location_subtype":"","month":"2025-04"},{"category":"bicycle-theft","location_type":"Force","location":{"latitude":"51.515112","street":{"id":1668459,"name":"On or near Lonsdale Road"},"longitude":"-0.199399"},"context":"","outcome_status":{"category":"Investigation complete; no suspect identified","date":"2025-04"},"persistent_id":"9ef929f87fa3e931d748a93965d707f16fdc2b2c5ab5ff87d83a17c5f4a57cd7","id":127633838,"location_subtype":"","month":"2025-04"},{"category":"bicycle-theft","location_type":"Force","location":{"latitude":"51.513388","street":{"id":1669941,"name":"On or near Queen's Mews"},"longitude":"-0.189061"},"context":"","outcome_status":{"category":"Investigation complete; no suspect identified","date":"2025-09"},"persistent_id":"c92bfde35e1f651ad8aff050fadae0ab5f79ca0325fdd6b3708b0615b96b4b3f","id":127633945,"location_subtype":"","month":"2025-04"},{"category":"bicycle-theft","location_type":"Force","location":{"latitude":"51.491563","street":{"id":1668775,"name":"On or near Nevern Square"},"longitude":"-0.196654"},"context":"","outcome_status":{"category":"Investigation complete; no suspect identified","date":"2025-04"},"persistent_id":"a85ec4d4c5891314f92ee3e670c8633903a817d10ef344841fe2a0c019626b9c","id":127633946,"location_subtype":"","month":"2025-04"},{"category":"bicycle-theft","location_type":"Force","location":{"latitude":"51.503078","street":{"id":1669529,"name":"On or near Gregory Place"},"longitude":"-0.192237"},"context":"","outcome_status":{"category":"Investigation complete; no suspect identified","date":"2025-04"},"persistent_id":"3b6e1fc6e602dbb0a6c684e6e1423bd9c90a16ea101820dd44b0b78b2633edbb","id":127634023,"location_subtype":"","month":"2025-04"},{"category":"bicycle-theft","location_type":"Force","location":{"latitude":"51.491926","street":{"id":1671318,"name":"On or near Clareville Grove"},"longitude":"-0.179396"},"context":"","outcome_status":{"category":"Investigation complete; no suspect identified","date":"2025-04"},"persistent_id":"19a8ad148af0961d16d7f7fae196258501d86d7e9cdb61d0e191a9385463f455","id":127634070,"location_subtype":"","month":"2025-04"},{"category":"bicycle-theft","location_type":"Force","location":{"latitude":"51.493964","street":{"id":1667571,"name":"On or near Lisgar Terrace"},"longitude":"-0.206614"},"context":"","outcome_status":{"category":"Unable to prosecute suspect","date":"2025-05"},"persistent_id":"24e32a39f70583f258e44b1e9df33351592c42b5e39d1ad9198a87098d819bb8","id":127634280,"location_subtype":"","month":"2025-04"},{"category":"bicycle-theft","location_type":"Force","location":{"latitude":"51.511391","street":{"id":1669297,"name":"On or near Clanricarde Gardens"},"longitude":"-0.193666"},"context":"","outcome_status":{"category":"Investigation complete; no suspect identified","date":"2025-05"},"persistent_id":"287a6d945884b778bf1117aa8a412b8a5e4669e0990aecabe2f6fdd358277a5c","id":127634055,"location_subtype":"","month":"2025-04"},{"category":"bicycle-theft","location_type":"Force","location":{"latitude":"51.510232","street":{"id":1668857,"name":"On or near Pembridge Gardens"},"longitude":"-0.196695"},"context":"","outcome_status":{"category":"Investigation complete; no suspect identified","date":"2025-06"},"persistent_id":"423c4f6cf8360b95340a5828f218bd3e146c87c3a40c6b695fe710de2e4db588","id":127633997,"location_subtype":"","month":"2025-04"},{"category":"bicycle-theft","location_type":"Force","location":{"latitude":"51.497268","street":{"id":1670651,"name":"On or near Petersham Mews"},"longitude":"-0.182929"},"context":"","outcome_status":{"category":"Investigation complete; no suspect identified","date":"2025-04"},"persistent_id":"5b37f2fa5bd9319cfa9be811eff886a97cfcccf39bf75890fb3435f6c2b39890","id":127634650,"location_subtype":"","month":"2025-04"},{"category":"bicycle-theft","location_type":"Force","location":{"latitude":"51.498192","street":{"id":1671890,"name":"On or near Exhibition Road"},"longitude":"-0.174046"},"context":"","outcome_status":{"category":"Investigation complete; no suspect identified","date":"2025-04"},"persistent_id":"c79c6180b54f8d98e2e1e6b381c199c758e18bcffbf02540c2bf7a007d75a1af","id":127634136,"location_subtype":"","month":"2025-04"},{"category":"bicycle-theft","location_type":"Force","location":{"latitude":"51.497150","street":{"id":1667825,"name":"On or near St Mary Abbot's Place"},"longitude":"-0.203248"},"context":"","outcome_status":{"category":"Investigation complete; no suspect identified","date":"2025-04"},"persistent_id":"2fb64942babf9c7d306e1b06936f724715771d384ca6bc942ed882a2c753386e","id":127634186,"location_subtype":"","month":"2025-04"},{"category":"bicycle-theft","location_type":"Force","location":{"latitude":"51.511579","street":{"id":1669397,"name":"On or near Ossington Close"},"longitude":"-0.193053"},"context":"","outcome_status":{"category":"Investigation complete; no suspect identified","date":"2025-05"},"persistent_id":"73e1c83974eef332315ae9dd54f014565897646f2014f8d693ed5f226ce33105","id":127633927,"location_subtype":"","month":"2025-04"},{"category":"bicycle-theft","location_type":"Force","location":{"latitude":"51.513045","street":{"id":1669631,"name":"On or near Princes Square"},"longitude":"-0.191309"},"context":"","outcome_status":{"category":"Awaiting court outcome","date":"2025-08"},"persistent_id":"9100b38ee19ff10fbd18da286031a5e16a4b8fd2492a4e9ca944ab04d0904f81","id":127634562,"location_subtype":"","month":"2025-04"},{"category":"bicycle-theft","location_type":"Force","location":{"latitude":"51.488675","street":{"id":1669359,"name":"On or near Warwick Road"},"longitude":"-0.192475"},"context":"","outcome_status":{"category":"Investigation complete; no suspect identified","date":"2025-04"},"persistent_id":"33030382c1b92c072af96e3f004b959be331f87e64d6b8827376c2aa3999d7c8","id":127634872,"location_subtype":"","month":"2025-04"},{"category":"bicycle-theft","location_type":"Force","location":{"latitude":"51.492984","street":{"id":1671321,"name":"On or near Manson Mews"},"longitude":"-0.179196"},"context":"","outcome_status":{"category":"Investigation complete; no suspect identified","date":"2025-07"},"persistent_id":"c7402233be5fb2e687a163df918c733516d13166bf9269ebb001f4e547f54226","id":127633966,"location_subtype":"","month":"2025-04"},{"category":"bicycle-theft","location_type":"Force","location":{"latitude":"51.490940","street":{"id":1668185,"name":"On or near Philbeach Gardens"},"longitude":"-0.199977"},"context":"","outcome_status":{"category":"Investigation complete; no suspect identified","date":"2025-11"},"persistent_id":"9ec8fb27ed487ce98c53097a32ea24e082f381c6ea5effa43bfec85d727d31ad","id":127634120,"location_subtype":"","month":"2025-04"},{"category":"bicycle-theft","location_type":"Force","location":{"latitude":"51.510161","street":{"id":1669154,"name":"On or near Linden Gardens"},"longitude":"-0.194406"},"context":"","outcome_status":{"category":"Investigation complete; no suspect identified","date":"2025-04"},"persistent_id":"882751db004b6cb474c9c2891ec8aeb4c5cc7ca039b4112ca03e3e2034eee9f7","id":127634622,"location_subtype":"","month":"2025-04"},{"category":"bicycle-theft","location_type":"Force","location":{"latitude":"51.512492","street":{"id":1669725,"name":"On or near Moscow Place"},"longitude":"-0.189875"},"context":"","outcome_status":{"category":"Investigation complete; no suspect identified","date":"2026-01"},"persistent_id":"c4914a27ff878ff5257280d25d8ea25f0d0edadb0e04db3ec6d424ab08646c2e","id":127634608,"location_subtype":"","month":"2025-04"},{"category":"bicycle-theft","location_type":"Force","location":{"latitude":"51.507464","street":{"id":1668339,"name":"On or near Campden Hill Gardens"},"longitude":"-0.199744"},"context":"","outcome_status":{"category":"Investigation complete; no suspect identified","date":"2025-09"},"persistent_id":"b52d1c84d58e5c6db731a87a09c879d126a411697b271244418eb4f204e63b14","id":127633992,"location_subtype":"","month":"2025-04"},{"category":"bicycle-theft","location_type":"Force","location":{"latitude":"51.499841","street":{"id":1671526,"name":"On or near Prince Consort Road"},"longitude":"-0.177193"},"context":"","outcome_status":{"category":"Investigation complete; no suspect identified","date":"2026-01"},"persistent_id":"942fd567e0fd58826cb37bc673a6268bbe794133866ebe12d9adede00ea1f11c","id":127634366,"location_subtype":"","month":"2025-04"},{"category":"bicycle-theft","location_type":"Force","location":{"latitude":"51.488778","street":{"id":1668850,"name":"On or near Eardley Crescent"},"longitude":"-0.195654"},"context":"","outcome_status":{"category":"Investigation complete; no suspect identified","date":"2025-04"},"persistent_id":"2e63a253ea9c83b7e0ab27bd8d04145137f984c9314174be97747b7b908ffb3a","id":127633916,"location_subtype":"","month":"2025-04"},{"category":"bicycle-theft","location_type":"Force","location":{"latitude":"51.507363","street":{"id":1669299,"name":"On or near Palace Gardens Terrace"},"longitude":"-0.193148"},"context":"","outcome_status":{"category":"Investigation complete; no suspect identified","date":"2025-09"},"persistent_id":"3cb7ecf365d5a0ebb5cfac1a88ea6b29c50a27344fee525155c2d37421eddfaf","id":127633900,"location_subtype":"","month":"2025-04"},{"category":"bicycle-theft","location_type":"Force","location":{"latitude":"51.492965","street":{"id":1671677,"name":"On or near Barnaby Place"},"longitude":"-0.176243"},"context":"","outcome_status":{"category":"Investigation complete; no suspect identified","date":"2025-04"},"persistent_id":"e7b8f043b70b3249e72496b109d86c02341021d08aad6b0820382d5db24cb0e5","id":127634752,"location_subtype":"","month":"2025-04"},{"category":"burglary","location_type":"Force","location":{"latitude":"51.512469","street":{"id":1670191,"name":"On or near Inverness Mews"},"longitude":"-0.187181"},"context":"","outcome_status":{"category":"Investigation complete; no suspect identified","date":"2025-07"},"persistent_id":"57f747054b90158761b34cbd09883a5650ba13a6e7a2b1bdbe3f436a4f9729eb","id":127621886,"location_subtype":"","month":"2025-04"},{"category":"burglary","location_type":"Force","location":{"latitude":"51.503409","street":{"id":1669549,"name":"On or near Holland Place"},"longitude":"-0.192152"},"context":"","outcome_status":{"category":"Investigation complete; no suspect identified","date":"2025-07"},"persistent_id":"f35bf94cda9f32aa7da2a0ba637697ad192bdb5593cb76a48b0897b83fb9faa4","id":127621705,"location_subtype":"","month":"2025-04"},{"category":"burglary","location_type":"Force","location":{"latitude":"51.494515","street":{"id":1671664,"name":"On or near Cromwell Mews"},"longitude":"-0.175274"},"context":"","outcome_status":{"category":"Investigation complete; no suspect identified","date":"2025-07"},"persistent_id":"aa09e2e1269d2425bc0d1708e6e5ab356128d1feee28966752dc89c1007ea4aa","id":127621958,"location_subtype":"","month":"2025-04"},{"category":"burglary","location_type":"Force","location":{"latitude":"51.493226","street":{"id":1671555,"name":"On or near Kendrick Place"},"longitude":"-0.176852"},"context":"","outcome_status":{"category":"Investigation complete; no suspect identified","date":"2025-06"},"persistent_id":"91c1c226474832b82d14619bbf6976395cf6ff0f47299475fa82db715dffff5b","id":127617737,"location_subtype":"","month":"2025-04"},{"category":"burglary","location_type":"Force","location":{"latitude":"51.494211","street":{"id":1668481,"name":"On or near Cromwell Crescent"},"longitude":"-0.199229"},"context":"","outcome_status":{"category":"Investigation complete; no suspect identified","date":"2025-04"},"persistent_id":"12516e239c02e4754518e074e2c5801e348bb113ac3a1aced20438dea5372ad9","id":127615249,"location_subtype":"","month":"2025-04"},{"category":"burglary","location_type":"Force","location":{"latitude":"51.505570","street":{"id":1668456,"name":"On or near Airlie Gardens"},"longitude":"-0.199328"},"context":"","outcome_status":{"category":"Investigation complete; no suspect identified","date":"2025-04"},"persistent_id":"57cff36f0470f6fea3d3c117fadf739fe8e2ccb6a6d0ca8bf65dc805fd0b6d6e","id":127621212,"location_subtype":"","month":"2025-04"},{"category":"burglary","location_type":"Force","location":{"latitude":"51.513899","street":{"id":1669244,"name":"On or near Rede Place"},"longitude":"-0.194244"},"context":"","outcome_status":{"category":"Investigation complete; no suspect identified","date":"2025-12"},"persistent_id":"4cb12bafb05e409936d0110003b8c7bba42d0711caaa105cf216c49f9e869457","id":127621605,"location_subtype":"","month":"2025-04"},{"category":"burglary","location_type":"Force","location":{"latitude":"51.502684","street":{"id":1670048,"name":"On or near Parking Area"},"longitude":"-0.188304"},"context":"","outcome_status":{"category":"Investigation complete; no suspect identified","date":"2025-07"},"persistent_id":"708c84830a71e19e50032c4978593ae61d3c5e1b483ffcbfbf6c1364b5119043","id":127620953,"location_subtype":"","month":"2025-04"},{"category":"burglary","location_type":"Force","location":{"latitude":"51.509855","street":{"id":1668804,"name":"On or near Pembridge Road"},"longitude":"-0.197315"},"context":"","outcome_status":{"category":"Investigation complete; no suspect identified","date":"2025-06"},"persistent_id":"ef05cbc28be6dcbf2e8dd24bb832221c2a26f43b5ca7a41beac0bb9846aac1d5","id":127621793,"location_subtype":"","month":"2025-04"},{"category":"burglary","location_type":"Force","location":{"latitude":"51.515443","street":{"id":1669024,"name":"On or near Bott's Mews"},"longitude":"-0.195206"},"context":"","outcome_status":{"category":"Investigation complete; no suspect identified","date":"2025-04"},"persistent_id":"f09293c2b892bed28b03decbf57a89a649588c8fd0f229cb64d7c32d6de1243c","id":127617817,"location_subtype":"","month":"2025-04"},{"category":"burglary","location_type":"Force","location":{"latitude":"51.502373","street":{"id":1669394,"name":"On or near Kensington Church Walk"},"longitude":"-0.192625"},"context":"","outcome_status":{"category":"Investigation complete; no suspect identified","date":"2025-08"},"persistent_id":"8dc429e5ac55df0d0359be025778695a6051ac7a195a17a6febd1b4641a21232","id":127616182,"location_subtype":"","month":"2025-04"},{"category":"burglary","location_type":"Force","location":{"latitude":"51.506670","street":{"id":1669305,"name":"On or near Brunswick Gardens"},"longitude":"-0.193723"},"context":"","outcome_status":{"category":"Investigation complete; no suspect identified","date":"2025-04"},"persistent_id":"4640a34076f5b6d8d992434b15ec45fcabb44f77516db6640f1e5956c1f47a99","id":127614846,"location_subtype":"","month":"2025-04"},{"category":"burglary","location_type":"Force","location":{"latitude":"51.512179","street":{"id":1668274,"name":"On or near Simon Close"},"longitude":"-0.200466"},"context":"","outcome_status":{"category":"Investigation complete; no suspect identified","date":"2025-07"},"persistent_id":"8fe8a585b8c4b78dfdacf5154115180370f5228a73f8e1600db299d95d35d8d3","id":127616255,"location_subtype":"","month":"2025-04"},{"category":"burglary","location_type":"Force","location":{"latitude":"51.511986","street":{"id":1668581,"name":"On or near Pembridge Crescent"},"longitude":"-0.199075"},"context":"","outcome_status":{"category":"Investigation complete; no suspect identified","date":"2025-07"},"persistent_id":"d1b18d1dbdc63c88a9bd80414cbf6c69213d298ceafe19f83d45f87e9b0ef46b","id":127615840,"location_subtype":"","month":"2025-04"},{"category":"burglary","location_type":"Force","location":{"latitude":"51.510161","street":{"id":1669154,"name":"On or near Linden Gardens"},"longitude":"-0.194406"},"context":"","outcome_status":{"category":"Investigation complete; no suspect identified","date":"2025-07"},"persistent_id":"d8c9ee77acb71645cf86949728a4486a3ff3ff68ba08145a64386e645305a819","id":127615167,"location_subtype":"","month":"2025-04"},{"category":"burglary","location_type":"Force","location":{"latitude":"51.505570","street":{"id":1668456,"name":"On or near Airlie Gardens"},"longitude":"-0.199328"},"context":"","outcome_status":{"category":"Investigation complete; no suspect identified","date":"2025-04"},"persistent_id":"aa94532d9364d3ec207d45ca05c3682345576bee01b514bcb37ccb2a93caa9fb","id":127615162,"location_subtype":"","month":"2025-04"},{"category":"burglary","location_type":"Force","location":{"latitude":"51.496617","street":{"id":1669800,"name":"On or near Cornwall Gardens Walk"},"longitude":"-0.189049"},"context":"","outcome_status":{"category":"Investigation complete; no suspect identified","date":"2025-10"},"persistent_id":"b4708e2143b895f3ec62c7b5fe019e369fd04886f063db9e4bb0aca8bf7829cc","id":127614999,"location_subtype":"","month":"2025-04"},{"category":"burglary","location_type":"Force","location":{"latitude":"51.493971","street":{"id":1669816,"name":"On or near Collingham Place"},"longitude":"-0.189500"},"context":"","outcome_status":{"category":"Investigation complete; no suspect identified","date":"2025-05"},"persistent_id":"c93449af2fa54c581f1f1cd200741159b20bde3aa18c00be019967f5ac7a6a4a","id":127617705,"location_subtype":"","month":"2025-04"},{"category":"burglary","location_type":"Force","location":{"latitude":"51.499993","street":{"id":1667566,"name":"On or near Oakwood Court"},"longitude":"-0.206291"},"context":"","outcome_status":{"category":"Investigation complete; no suspect identified","date":"2025-04"},"persistent_id":"4654e3cb4696a3a538b5b7721cbb8d00770185ffb0f7836e4b70b7dba13aa961","id":127621829,"location_subtype":"","month":"2025-04"},{"category":"burglary","location_type":"Force","location":{"latitude":"51.506478","street":{"id":1667387,"name":"On or near Holland Park Avenue"},"longitude":"-0.208155"},"context":"","outcome_status":{"category":"Investigation complete; no suspect identified","date":"2025-06"},"persistent_id":"c32334745a1c5893027698e1a055626acfefe27195cac8f2ebd93f19ea1a15f3","id":127621598,"location_subtype":"","month":"2025-04"},{"category":"burglary","location_type":"Force","location":{"latitude":"51.491560","street":{"id":1671593,"name":"On or near Onslow Mews West"},"longitude":"-0.177236"},"context":"","outcome_status":{"category":"Investigation complete; no suspect identified","date":"2025-10"},"persistent_id":"65d6f02aba9fd0c09e46cee37daaeafff402c947de2ff8c70f1745f7db673666","id":127614354,"location_subtype":"","month":"2025-04"},{"category":"burglary","location_type":"Force","location":{"latitude":"51.503444","street":{"id":1669470,"name":"On or near Carmel Court"},"longitude":"-0.192698"},"context":"","outcome_status":{"category":"Investigation complete; no suspect identified","date":"2025-10"},"persistent_id":"3e52578ad517a2f12cccef05e7dd0b937a7cd3d91f5c5c5af7d08b64ab037472","id":127618377,"location_subtype":"","month":"2025-04"},{"category":"burglary","location_type":"Force","location":{"latitude":"51.507909","street":{"id":1668993,"name":"On or near Newcombe Street"},"longitude":"-0.195331"},"context":"","outcome_status":{"category":"Investigation complete; no suspect identified","date":"2025-10"},"persistent_id":"846ee5db88289efcd28acee637b3ef9e4e5e339e5f14f7d1718a7e0c38e43e35","id":127618942,"location_subtype":"","month":"2025-04"},{"category":"burglary","location_type":"Force","location":{"latitude":"51.491763","street":{"id":1669376,"name":"On or near Old Manor Yard"},"longitude":"-0.193261"},"context":"","outcome_status":{"category":"Awaiting court outcome","date":"2025-12"},"persistent_id":"9a00810d6508db79753ab37ccb994c5a243aff790d85f57a9da0a2832c61e0bb","id":127621334,"location_subtype":"","month":"2025-04"},{"category":"burglary","location_type":"Force","location":{"latitude":"51.509592","street":{"id":1668698,"name":"On or near Bulmer Mews"},"longitude":"-0.197729"},"context":"","outcome_status":{"category":"Awaiting court outcome","date":"2025-12"},"persistent_id":"d803350c613c9c70dc85a9806d04bd5cd4ba57fc8e977a227714d9005da315a6","id":127621355,"location_subtype":"","month":"2025-04"},{"category":"burglary","location_type":"Force","location":{"latitude":"51.512543","street":{"id":1669476,"name":"On or near Prince's Mews"},"longitude":"-0.192583"},"context":"","outcome_status":{"category":"Investigation complete; no suspect identified","date":"2025-12"},"persistent_id":"afa432a4efc4e54b0da3993819cb39afb72b2b3af0edd9a83077a4d6f19a0862","id":127621594,"location_subtype":"","month":"2025-04"},{"category":"burglary","location_type":"Force","location":{"latitude":"51.492339","street":{"id":1668482,"name":"On or near Warwick Road"},"longitude":"-0.199706"},"context":"","outcome_status":{"category":"Status update unavailable","date":"2025-08"},"persistent_id":"8455d6f83896ea17df9b9f1062b67643ea0c17b6f07604be64658e71288288e4","id":127619272,"location_subtype":"","month":"2025-04"},{"category":"burglary","location_type":"Force","location":{"latitude":"51.510827","street":{"id":1670176,"name":"On or near Parking Area"},"longitude":"-0.186872"},"context":"","outcome_status":{"category":"Investigation complete; no suspect identified","date":"2025-07"},"persistent_id":"db67322c590fbeae7d2a93d2d0f87c51e3c84d731c6c612379ea652b00203854","id":127621627,"location_subtype":"","month":"2025-04"},{"category":"burglary","location_type":"Force","location":{"latitude":"51.490940","street":{"id":1668185,"name":"On or near Philbeach Gardens"},"longitude":"-0.199977"},"context":"","outcome_status":{"category":"Investigation complete; no suspect identified","date":"2025-10"},"persistent_id":"2a00a1182d773218b153196314e3fe00ab4689c17b452144295418326d092f4a","id":127617128,"location_subtype":"","month":"2025-04"},{"category":"burglary","location_type":"Force","location":{"latitude":"51.512674","street":{"id":1669686,"name":"On or near Ilchester Gardens"},"longitude":"-0.191151"},"context":"","outcome_status":{"category":"Investigation complete; no suspect identified","date":"2025-06"},"persistent_id":"237a57efe3e969cb5659979833288547d8610fd50bdfdf923ead6ed7a7e939e8","id":127618301,"location_subtype":"","month":"2025-04"},{"category":"burglary","location_type":"Force","location":{"latitude":"51.509592","street":{"id":1668698,"name":"On or near Bulmer Mews"},"longitude":"-0.197729"},"context":"","outcome_status":{"category":"Awaiting court outcome","date":"2025-08"},"persistent_id":"7d1afba3fa81291559291b7ab3cf64b9d3871520620375e498726fbf259e984b","id":127621423,"location_subtype":"","month":"2025-04"},{"category":"burglary","location_type":"Force","location":{"latitude":"51.513705","street":{"id":1668369,"name":"On or near Ledbury Mews West"},"longitude":"-0.199152"},"context":"","outcome_status":{"category":"Awaiting court outcome","date":"2025-10"},"persistent_id":"eef5425559e306e82946e23bbf44eaae045c43dd8d92bbac907b773ea9d3f5a8","id":127621077,"location_subtype":"","month":"2025-04"},{"category":"burglary","location_type":"Force","location":{"latitude":"51.491763","street":{"id":1669376,"name":"On or near Old Manor Yard"},"longitude":"-0.193261"},"context":"","outcome_status":{"category":"Awaiting court outcome","date":"2025-09"},"persistent_id":"732b5e3dd9909755ac311927b7cf238fee4085cd5db1df87f4df83495dfbdd14","id":127621691,"location_subtype":"","month":"2025-04"},{"category":"burglary","location_type":"Force","location":{"latitude":"51.499311","street":{"id":1670112,"name":"On or near St Alban's Grove"},"longitude":"-0.187646"},"context":"","outcome_status":{"category":"Investigation complete; no suspect identified","date":"2025-04"},"persistent_id":"e2c4ff93c60e7f36b7b3c1a18181d2f931b84cbb09d1db2e77fcf28d7fbf81c5","id":127616706,"location_subtype":"","month":"2025-04"},{"category":"burglary","location_type":"Force","location":{"latitude":"51.509103","street":{"id":1668969,"name":"On or near Notting Hill Gate"},"longitude":"-0.196379"},"context":"","outcome_status":{"category":"Investigation complete; no suspect identified","date":"2025-04"},"persistent_id":"8b0e73ecbb8c0cd8e36e39eae9bd42be92449a1f76e4dea55dd10ebb3d16dc43","id":127621513,"location_subtype":"","month":"2025-04"},{"category":"burglary","location_type":"Force","location":{"latitude":"51.502373","street":{"id":1669394,"name":"On or near Kensington Church Walk"},"longitude":"-0.192625"},"context":"","outcome_status":{"category":"Investigation complete; no suspect identified","date":"2025-07"},"persistent_id":"2159021dc0c2b571bc24381fbd4f5d396ae9946b245390b5a3af023c36c5fe1b","id":127614959,"location_subtype":"","month":"2025-04"},{"category":"burglary","location_type":"Force","location":{"latitude":"51.508760","street":{"id":1668859,"name":"On or near Further/higher Educational Building"},"longitude":"-0.196854"},"context":"","outcome_status":{"category":"Investigation complete; no suspect identified","date":"2025-05"},"persistent_id":"630493208abca1ed253734d269fef7ec8ad27f85cda3206be31958898c598871","id":127621782,"location_subtype":"","month":"2025-04"},{"category":"burglary","location_type":"Force","location":{"latitude":"51.493117","street":{"id":1669450,"name":"On or near Hogarth Road"},"longitude":"-0.192458"},"context":"","outcome_status":{"category":"Unable to prosecute suspect","date":"2025-11"},"persistent_id":"615fb02f9966391ae67f8790df8786ab2335b7e8d904b41fb312828d36ccf8c4","id":127615848,"location_subtype":"","month":"2025-04"},{"category":"burglary","location_type":"Force","location":{"latitude":"51.494787","street":{"id":1667343,"name":"On or near Avonmore Road"},"longitude":"-0.206942"},"context":"","outcome_status":{"category":"Status update unavailable","date":"2025-08"},"persistent_id":"4f765e045c97dbdff917bc52f2031856000e7f2c45dc1fe8a88383fe8e014b4f","id":127619326,"location_subtype":"","month":"2025-04"},{"category":"burglary","location_type":"Force","location":{"latitude":"51.498803","street":{"id":1669318,"name":"On or near Cheniston Gardens"},"longitude":"-0.192608"},"context":"","outcome_status":{"category":"Unable to prosecute suspect","date":"2025-09"},"persistent_id":"c32b64a3be7d0f070cea0e819c0ebeca1e538f11a390c3c2ad1b13737d710b20","id":127621713,"location_subtype":"","month":"2025-04"},{"category":"burglary","location_type":"Force","location":{"latitude":"51.512326","street":{"id":1670033,"name":"On or near Bayswater"},"longitude":"-0.187879"},"context":"","outcome_status":{"category":"Status update unavailable","date":"2025-08"},"persistent_id":"676c8beed269a8bcfeec9d6d1a3f4747609b3b21724263346b9e5871c28652de","id":127621752,"location_subtype":"","month":"2025-04"},{"category":"burglary","location_type":"Force","location":{"latitude":"51.514792","street":{"id":1668122,"name":"On or near Lonsdale Road"},"longitude":"-0.201977"},"context":"","outcome_status":{"category":"Investigation complete; no suspect identified","date":"2025-04"},"persistent_id":"7c38cb90cfaad38dbf65a4e66b83363773b1ecf5f28b1abaa61cfb51c533204e","id":127618271,"location_subtype":"","month":"2025-04"},{"category":"burglary","location_type":"Force","location":{"latitude":"51.495753","street":{"id":1667578,"name":"On or near Radnor Terrace"},"longitude":"-0.205391"},"context":"","outcome_status":{"category":"Investigation complete; no suspect identified","date":"2025-11"},"persistent_id":"20d6483c364af79f06045565abeeb0998fa55284dff0a03fb5c3ee16e399be4a","id":127621714,"location_subtype":"","month":"2025-04"},{"category":"burglary","location_type":"Force","location":{"latitude":"51.512900","street":{"id":1667660,"name":"On or near Ladbroke Gardens"},"longitude":"-0.205280"},"context":"","outcome_status":{"category":"Investigation complete; no suspect identified","date":"2025-09"},"persistent_id":"e7df5ca0f2306ef2bf3406a9101fdef62714cdddc0734ebecb540f72b184079e","id":127614795,"location_subtype":"","month":"2025-04"},{"category":"burglary","location_type":"Force","location":{"latitude":"51.511585","street":{"id":1669991,"name":"On or near Caroline Place"},"longitude":"-0.188801"},"context":"","outcome_status":{"category":"Investigation complete; no suspect identified","date":"2025-09"},"persistent_id":"1746b2a0769daebe1d07746bbdc7458e6b22e139eead15f25a3be2d29753b247","id":127619142,"location_subtype":"","month":"2025-04"},{"category":"burglary","location_type":"Force","location":{"latitude":"51.498916","street":{"id":1666268,"name":"On or near Redan Street"},"longitude":"-0.217009"},"context":"","outcome_status":{"category":"Status update unavailable","date":"2025-08"},"persistent_id":"faececd1b723edf579c03c39b9f0cd910cb51d3acc34e48a1803c266cee7925f","id":127616036,"location_subtype":"","month":"2025-04"},{"category":"burglary","location_type":"Force","location":{"latitude":"51.512326","street":{"id":1670033,"name":"On or near Bayswater"},"longitude":"-0.187879"},