[{"category":"anti-social-behaviour","location_type":"Force","location":{"latitude":"51.521779","street":{"id":1680593,"name":"On or near Supermarket"},"longitude":"-0.113830"},"context":"","outcome_status":null,"persistent_id":"","id":129466553,"location_subtype":"","month":"2025-06"},{"category":"anti-social-behaviour","location_type":"Force","location":{"latitude":"51.517742","street":{"id":1678770,"name":"On or near Little Russell Street"},"longitude":"-0.125614"},"context":"","outcome_status":null,"persistent_id":"","id":129458706,"location_subtype":"","month":"2025-06"},{"category":"anti-social-behaviour","location_type":"Force","location":{"latitude":"51.514832","street":{"id":1678939,"name":"On or near Betterton Street"},"longitude":"-0.124162"},"context":"","outcome_status":null,"persistent_id":"","id":129451663,"location_subtype":"","month":"2025-06"},{"category":"anti-social-behaviour","location_type":"Force","location":{"latitude":"51.536066","street":{"id":1679698,"name":"On or near Treaty Street"},"longitude":"-0.119266"},"context":"","outcome_status":null,"persistent_id":"","id":129451667,"location_subtype":"","month":"2025-06"},{"category":"anti-social-behaviour","location_type":"Force","location":{"latitude":"51.527088","street":{"id":1683986,"name":"On or near Galway Street"},"longitude":"-0.093427"},"context":"","outcome_status":null,"persistent_id":"","id":129451726,"location_subtype":"","month":"2025-06"},{"category":"anti-social-behaviour","location_type":"Force","location":{"latitude":"51.520953","street":{"id":1680927,"name":"On or near Portpool Lane"},"longitude":"-0.111687"},"context":"","outcome_status":null,"persistent_id":"","id":129451727,"location_subtype":"","month":"2025-06"},{"category":"anti-social-behaviour","location_type":"Force","location":{"latitude":"51.527008","street":{"id":1683400,"name":"On or near Central Street"},"longitude":"-0.096819"},"context":"","outcome_status":null,"persistent_id":"","id":129451732,"location_subtype":"","month":"2025-06"},{"category":"anti-social-behaviour","location_type":"Force","location":{"latitude":"51.529356","street":{"id":1677861,"name":"On or near Doric Way"},"longitude":"-0.131033"},"context":"","outcome_status":null,"persistent_id":"","id":129451733,"location_subtype":"","month":"2025-06"},{"category":"anti-social-behaviour","location_type":"Force","location":{"latitude":"51.516037","street":{"id":1678369,"name":"On or near Earnshaw Street"},"longitude":"-0.128682"},"context":"","outcome_status":null,"persistent_id":"","id":129451755,"location_subtype":"","month":"2025-06"},{"category":"anti-social-behaviour","location_type":"Force","location":{"latitude":"51.522492","street":{"id":1681770,"name":"On or near Vine Street Bridge"},"longitude":"-0.106694"},"context":"","outcome_status":null,"persistent_id":"","id":129451768,"location_subtype":"","month":"2025-06"},{"category":"anti-social-behaviour","location_type":"Force","location":{"latitude":"51.526984","street":{"id":1679419,"name":"On or near Sidmouth Street"},"longitude":"-0.119857"},"context":"","outcome_status":null,"persistent_id":"","id":129451778,"location_subtype":"","month":"2025-06"},{"category":"anti-social-behaviour","location_type":"Force","location":{"latitude":"51.531421","street":{"id":1680331,"name":"On or near Nightclub"},"longitude":"-0.115594"},"context":"","outcome_status":null,"persistent_id":"","id":129452036,"location_subtype":"","month":"2025-06"},{"category":"anti-social-behaviour","location_type":"Force","location":{"latitude":"51.530372","street":{"id":1678144,"name":"On or near Ossulston Street"},"longitude":"-0.129291"},"context":"","outcome_status":null,"persistent_id":"","id":129452045,"location_subtype":"","month":"2025-06"},{"category":"anti-social-behaviour","location_type":"Force","location":{"latitude":"51.526163","street":{"id":1684235,"name":"On or near Lizard Street"},"longitude":"-0.092428"},"context":"","outcome_status":null,"persistent_id":"","id":129452090,"location_subtype":"","month":"2025-06"},{"category":"anti-social-behaviour","location_type":"Force","location":{"latitude":"51.520709","street":{"id":1682044,"name":"On or near Benjamin Street"},"longitude":"-0.104346"},"context":"","outcome_status":null,"persistent_id":"","id":129452146,"location_subtype":"","month":"2025-06"},{"category":"anti-social-behaviour","location_type":"Force","location":{"latitude":"51.524854","street":{"id":1683375,"name":"On or near Bastwick Street"},"longitude":"-0.097629"},"context":"","outcome_status":null,"persistent_id":"","id":129452239,"location_subtype":"","month":"2025-06"},{"category":"anti-social-behaviour","location_type":"Force","location":{"latitude":"51.525165","street":{"id":1681576,"name":"On or near Northampton Road"},"longitude":"-0.107981"},"context":"","outcome_status":null,"persistent_id":"","id":129450414,"location_subtype":"","month":"2025-06"},{"category":"anti-social-behaviour","location_type":"Force","location":{"latitude":"51.517265","street":{"id":1678861,"name":"On or near Museum Street"},"longitude":"-0.125071"},"context":"","outcome_status":null,"persistent_id":"","id":129452356,"location_subtype":"","month":"2025-06"},{"category":"anti-social-behaviour","location_type":"Force","location":{"latitude":"51.516275","street":{"id":1678661,"name":"On or near Theatre/concert Hall"},"longitude":"-0.126121"},"context":"","outcome_status":null,"persistent_id":"","id":129453039,"location_subtype":"","month":"2025-06"},{"category":"anti-social-behaviour","location_type":"Force","location":{"latitude":"51.526349","street":{"id":1678363,"name":"On or near Burton Street"},"longitude":"-0.127956"},"context":"","outcome_status":null,"persistent_id":"","id":129455190,"location_subtype":"","month":"2025-06"},{"category":"anti-social-behaviour","location_type":"Force","location":{"latitude":"51.518951","street":{"id":1680137,"name":"On or near Sandland Street"},"longitude":"-0.116354"},"context":"","outcome_status":null,"persistent_id":"","id":129455504,"location_subtype":"","month":"2025-06"},{"category":"anti-social-behaviour","location_type":"Force","location":{"latitude":"51.524181","street":{"id":1682426,"name":"On or near Supermarket"},"longitude":"-0.102731"},"context":"","outcome_status":null,"persistent_id":"","id":129455509,"location_subtype":"","month":"2025-06"},{"category":"anti-social-behaviour","location_type":"Force","location":{"latitude":"51.530372","street":{"id":1678144,"name":"On or near Ossulston Street"},"longitude":"-0.129291"},"context":"","outcome_status":null,"persistent_id":"","id":129455659,"location_subtype":"","month":"2025-06"},{"category":"anti-social-behaviour","location_type":"Force","location":{"latitude":"51.532933","street":{"id":1679199,"name":"On or near Railway Street"},"longitude":"-0.122452"},"context":"","outcome_status":null,"persistent_id":"","id":129455744,"location_subtype":"","month":"2025-06"},{"category":"anti-social-behaviour","location_type":"Force","location":{"latitude":"51.534273","street":{"id":1681595,"name":"On or near Supermarket"},"longitude":"-0.107315"},"context":"","outcome_status":null,"persistent_id":"","id":129455746,"location_subtype":"","month":"2025-06"},{"category":"anti-social-behaviour","location_type":"Force","location":{"latitude":"51.526984","street":{"id":1679419,"name":"On or near Sidmouth Street"},"longitude":"-0.119857"},"context":"","outcome_status":null,"persistent_id":"","id":129455794,"location_subtype":"","month":"2025-06"},{"category":"anti-social-behaviour","location_type":"Force","location":{"latitude":"51.526984","street":{"id":1679419,"name":"On or near Sidmouth Street"},"longitude":"-0.119857"},"context":"","outcome_status":null,"persistent_id":"","id":129455795,"location_subtype":"","month":"2025-06"},{"category":"anti-social-behaviour","location_type":"Force","location":{"latitude":"51.521779","street":{"id":1680593,"name":"On or near Supermarket"},"longitude":"-0.113830"},"context":"","outcome_status":null,"persistent_id":"","id":129455952,"location_subtype":"","month":"2025-06"},{"category":"anti-social-behaviour","location_type":"Force","location":{"latitude":"51.524181","street":{"id":1682426,"name":"On or near Supermarket"},"longitude":"-0.102731"},"context":"","outcome_status":null,"persistent_id":"","id":129456040,"location_subtype":"","month":"2025-06"},{"category":"anti-social-behaviour","location_type":"Force","location":{"latitude":"51.533434","street":{"id":1683473,"name":"On or near Baldwin Terrace"},"longitude":"-0.096060"},"context":"","outcome_status":null,"persistent_id":"","id":129456234,"location_subtype":"","month":"2025-06"},{"category":"anti-social-behaviour","location_type":"Force","location":{"latitude":"51.525787","street":{"id":1681911,"name":"On or near Skinner Street"},"longitude":"-0.105836"},"context":"","outcome_status":null,"persistent_id":"","id":129456346,"location_subtype":"","month":"2025-06"},{"category":"anti-social-behaviour","location_type":"Force","location":{"latitude":"51.514582","street":{"id":1678863,"name":"On or near Shorts Gardens"},"longitude":"-0.125441"},"context":"","outcome_status":null,"persistent_id":"","id":129456584,"location_subtype":"","month":"2025-06"},{"category":"anti-social-behaviour","location_type":"Force","location":{"latitude":"51.515449","street":{"id":1679081,"name":"On or near Drury Lane"},"longitude":"-0.123373"},"context":"","outcome_status":null,"persistent_id":"","id":129456590,"location_subtype":"","month":"2025-06"},{"category":"anti-social-behaviour","location_type":"Force","location":{"latitude":"51.517742","street":{"id":1678770,"name":"On or near Little Russell Street"},"longitude":"-0.125614"},"context":"","outcome_status":null,"persistent_id":"","id":129456603,"location_subtype":"","month":"2025-06"},{"category":"anti-social-behaviour","location_type":"Force","location":{"latitude":"51.530808","street":{"id":1682720,"name":"On or near City Road"},"longitude":"-0.101591"},"context":"","outcome_status":null,"persistent_id":"","id":129456693,"location_subtype":"","month":"2025-06"},{"category":"anti-social-behaviour","location_type":"Force","location":{"latitude":"51.523415","street":{"id":1678725,"name":"On or near Parking Area"},"longitude":"-0.126145"},"context":"","outcome_status":null,"persistent_id":"","id":129456865,"location_subtype":"","month":"2025-06"},{"category":"anti-social-behaviour","location_type":"Force","location":{"latitude":"51.525189","street":{"id":1677063,"name":"On or near Hospital"},"longitude":"-0.135889"},"context":"","outcome_status":null,"persistent_id":"","id":129457172,"location_subtype":"","month":"2025-06"},{"category":"anti-social-behaviour","location_type":"Force","location":{"latitude":"51.531428","street":{"id":1678653,"name":"On or near Shopping Area"},"longitude":"-0.126147"},"context":"","outcome_status":null,"persistent_id":"","id":129457237,"location_subtype":"","month":"2025-06"},{"category":"anti-social-behaviour","location_type":"Force","location":{"latitude":"51.514872","street":{"id":1678441,"name":"On or near New Compton Street"},"longitude":"-0.127793"},"context":"","outcome_status":null,"persistent_id":"","id":129457274,"location_subtype":"","month":"2025-06"},{"category":"anti-social-behaviour","location_type":"Force","location":{"latitude":"51.517114","street":{"id":1679776,"name":"On or near Gate Street"},"longitude":"-0.119009"},"context":"","outcome_status":null,"persistent_id":"","id":129457338,"location_subtype":"","month":"2025-06"},{"category":"anti-social-behaviour","location_type":"Force","location":{"latitude":"51.520709","street":{"id":1682044,"name":"On or near Benjamin Street"},"longitude":"-0.104346"},"context":"","outcome_status":null,"persistent_id":"","id":129457517,"location_subtype":"","month":"2025-06"},{"category":"anti-social-behaviour","location_type":"Force","location":{"latitude":"51.531668","street":{"id":1677602,"name":"On or near Polygon Road"},"longitude":"-0.132727"},"context":"","outcome_status":null,"persistent_id":"","id":129457553,"location_subtype":"","month":"2025-06"},{"category":"anti-social-behaviour","location_type":"Force","location":{"latitude":"51.534300","street":{"id":1682047,"name":"On or near Islington High Street"},"longitude":"-0.104574"},"context":"","outcome_status":null,"persistent_id":"","id":129457576,"location_subtype":"","month":"2025-06"},{"category":"anti-social-behaviour","location_type":"Force","location":{"latitude":"51.536734","street":{"id":1681542,"name":"On or near Cloudesley Street"},"longitude":"-0.108280"},"context":"","outcome_status":null,"persistent_id":"","id":129457634,"location_subtype":"","month":"2025-06"},{"category":"anti-social-behaviour","location_type":"Force","location":{"latitude":"51.531428","street":{"id":1678653,"name":"On or near Shopping Area"},"longitude":"-0.126147"},"context":"","outcome_status":null,"persistent_id":"","id":129457809,"location_subtype":"","month":"2025-06"},{"category":"anti-social-behaviour","location_type":"Force","location":{"latitude":"51.520524","street":{"id":1681325,"name":"On or near Leather Lane"},"longitude":"-0.109601"},"context":"","outcome_status":null,"persistent_id":"","id":129457974,"location_subtype":"","month":"2025-06"},{"category":"anti-social-behaviour","location_type":"Force","location":{"latitude":"51.528267","street":{"id":1678913,"name":"On or near Tonbridge Street"},"longitude":"-0.124216"},"context":"","outcome_status":null,"persistent_id":"","id":129457985,"location_subtype":"","month":"2025-06"},{"category":"anti-social-behaviour","location_type":"Force","location":{"latitude":"51.517845","street":{"id":1679284,"name":"On or near Further/higher Educational Building"},"longitude":"-0.121977"},"context":"","outcome_status":null,"persistent_id":"","id":129458074,"location_subtype":"","month":"2025-06"},{"category":"anti-social-behaviour","location_type":"Force","location":{"latitude":"51.527861","street":{"id":1677890,"name":"On or near Grafton Place"},"longitude":"-0.131412"},"context":"","outcome_status":null,"persistent_id":"","id":129458185,"location_subtype":"","month":"2025-06"},{"category":"anti-social-behaviour","location_type":"Force","location":{"latitude":"51.531715","street":{"id":1679378,"name":"On or near Caledonia Street"},"longitude":"-0.121637"},"context":"","outcome_status":null,"persistent_id":"","id":129459068,"location_subtype":"","month":"2025-06"},{"category":"anti-social-behaviour","location_type":"Force","location":{"latitude":"51.530665","street":{"id":1681300,"name":"On or near Mylne Street"},"longitude":"-0.109440"},"context":"","outcome_status":null,"persistent_id":"","id":129459078,"location_subtype":"","month":"2025-06"},{"category":"anti-social-behaviour","location_type":"Force","location":{"latitude":"51.521441","street":{"id":1679726,"name":"On or near Orde Hall Street"},"longitude":"-0.119062"},"context":"","outcome_status":null,"persistent_id":"","id":129459242,"location_subtype":"","month":"2025-06"},{"category":"anti-social-behaviour","location_type":"Force","location":{"latitude":"51.517845","street":{"id":1679284,"name":"On or near Further/higher Educational Building"},"longitude":"-0.121977"},"context":"","outcome_status":null,"persistent_id":"","id":129459253,"location_subtype":"","month":"2025-06"},{"category":"anti-social-behaviour","location_type":"Force","location":{"latitude":"51.526611","street":{"id":1676996,"name":"On or near North Gower Street"},"longitude":"-0.137100"},"context":"","outcome_status":null,"persistent_id":"","id":129459290,"location_subtype":"","month":"2025-06"},{"category":"anti-social-behaviour","location_type":"Force","location":{"latitude":"51.529143","street":{"id":1682858,"name":"On or near New Charles Street"},"longitude":"-0.100968"},"context":"","outcome_status":null,"persistent_id":"","id":129459302,"location_subtype":"","month":"2025-06"},{"category":"anti-social-behaviour","location_type":"Force","location":{"latitude":"51.515004","street":{"id":1678816,"name":"On or near B401"},"longitude":"-0.125352"},"context":"","outcome_status":null,"persistent_id":"","id":129459534,"location_subtype":"","month":"2025-06"},{"category":"anti-social-behaviour","location_type":"Force","location":{"latitude":"51.537959","street":{"id":1679733,"name":"On or near Bemerton Street"},"longitude":"-0.118987"},"context":"","outcome_status":null,"persistent_id":"","id":129459535,"location_subtype":"","month":"2025-06"},{"category":"anti-social-behaviour","location_type":"Force","location":{"latitude":"51.529222","street":{"id":1681500,"name":"On or near Myddelton Passage"},"longitude":"-0.108029"},"context":"","outcome_status":null,"persistent_id":"","id":129459583,"location_subtype":"","month":"2025-06"},{"category":"anti-social-behaviour","location_type":"Force","location":{"latitude":"51.533434","street":{"id":1683473,"name":"On or near Baldwin Terrace"},"longitude":"-0.096060"},"context":"","outcome_status":null,"persistent_id":"","id":129459586,"location_subtype":"","month":"2025-06"},{"category":"anti-social-behaviour","location_type":"Force","location":{"latitude":"51.516037","street":{"id":1678369,"name":"On or near Earnshaw Street"},"longitude":"-0.128682"},"context":"","outcome_status":null,"persistent_id":"","id":129459676,"location_subtype":"","month":"2025-06"},{"category":"anti-social-behaviour","location_type":"Force","location":{"latitude":"51.523116","street":{"id":1679064,"name":"On or near Colonnade"},"longitude":"-0.123173"},"context":"","outcome_status":null,"persistent_id":"","id":129459865,"location_subtype":"","month":"2025-06"},{"category":"anti-social-behaviour","location_type":"Force","location":{"latitude":"51.516341","street":{"id":1679597,"name":"On or near Nightclub"},"longitude":"-0.120151"},"context":"","outcome_status":null,"persistent_id":"","id":129459901,"location_subtype":"","month":"2025-06"},{"category":"anti-social-behaviour","location_type":"Force","location":{"latitude":"51.533040","street":{"id":1679908,"name":"On or near Calshot Street"},"longitude":"-0.117344"},"context":"","outcome_status":null,"persistent_id":"","id":129459934,"location_subtype":"","month":"2025-06"},{"category":"anti-social-behaviour","location_type":"Force","location":{"latitude":"51.527800","street":{"id":1678588,"name":"On or near Sandwich Street"},"longitude":"-0.126498"},"context":"","outcome_status":null,"persistent_id":"","id":129460636,"location_subtype":"","month":"2025-06"},{"category":"anti-social-behaviour","location_type":"Force","location":{"latitude":"51.527327","street":{"id":1679751,"name":"On or near Sidmouth Mews"},"longitude":"-0.119382"},"context":"","outcome_status":null,"persistent_id":"","id":129460929,"location_subtype":"","month":"2025-06"},{"category":"anti-social-behaviour","location_type":"Force","location":{"latitude":"51.536947","street":{"id":1679736,"name":"On or near B514"},"longitude":"-0.119273"},"context":"","outcome_status":null,"persistent_id":"","id":129460975,"location_subtype":"","month":"2025-06"},{"category":"anti-social-behaviour","location_type":"Force","location":{"latitude":"51.517846","street":{"id":1490741,"name":"On or near Holborn"},"longitude":"-0.109164"},"context":"","outcome_status":null,"persistent_id":"","id":129461117,"location_subtype":"","month":"2025-06"},{"category":"anti-social-behaviour","location_type":"Force","location":{"latitude":"51.529389","street":{"id":1680430,"name":"On or near Percy Circus"},"longitude":"-0.114524"},"context":"","outcome_status":null,"persistent_id":"","id":129460989,"location_subtype":"","month":"2025-06"},{"category":"anti-social-behaviour","location_type":"Force","location":{"latitude":"51.516001","street":{"id":1679229,"name":"On or near Macklin Street"},"longitude":"-0.122471"},"context":"","outcome_status":null,"persistent_id":"","id":129461120,"location_subtype":"","month":"2025-06"},{"category":"anti-social-behaviour","location_type":"Force","location":{"latitude":"51.529766","street":{"id":1679334,"name":"On or near St Chad's Street"},"longitude":"-0.121790"},"context":"","outcome_status":null,"persistent_id":"","id":129461122,"location_subtype":"","month":"2025-06"},{"category":"anti-social-behaviour","location_type":"Force","location":{"latitude":"51.529527","street":{"id":1682231,"name":"On or near Hermit Street"},"longitude":"-0.104095"},"context":"","outcome_status":null,"persistent_id":"","id":129461211,"location_subtype":"","month":"2025-06"},{"category":"anti-social-behaviour","location_type":"Force","location":{"latitude":"51.521779","street":{"id":1680593,"name":"On or near Supermarket"},"longitude":"-0.113830"},"context":"","outcome_status":null,"persistent_id":"","id":129461217,"location_subtype":"","month":"2025-06"},{"category":"anti-social-behaviour","location_type":"Force","location":{"latitude":"51.528633","street":{"id":1678576,"name":"On or near Bidborough Street"},"longitude":"-0.125729"},"context":"","outcome_status":null,"persistent_id":"","id":129465049,"location_subtype":"","month":"2025-06"},{"category":"anti-social-behaviour","location_type":"Force","location":{"latitude":"51.531735","street":{"id":1682306,"name":"On or near Sports/recreation Area"},"longitude":"-0.103467"},"context":"","outcome_status":null,"persistent_id":"","id":129465064,"location_subtype":"","month":"2025-06"},{"category":"anti-social-behaviour","location_type":"Force","location":{"latitude":"51.515598","street":{"id":1678536,"name":"On or near St Giles High Street"},"longitude":"-0.127633"},"context":"","outcome_status":null,"persistent_id":"","id":129465108,"location_subtype":"","month":"2025-06"},{"category":"anti-social-behaviour","location_type":"Force","location":{"latitude":"51.534025","street":{"id":1682365,"name":"On or near Colebrooke Row"},"longitude":"-0.102582"},"context":"","outcome_status":null,"persistent_id":"","id":129465131,"location_subtype":"","month":"2025-06"},{"category":"anti-social-behaviour","location_type":"Force","location":{"latitude":"51.527861","street":{"id":1677890,"name":"On or near Grafton Place"},"longitude":"-0.131412"},"context":"","outcome_status":null,"persistent_id":"","id":129465276,"location_subtype":"","month":"2025-06"},{"category":"anti-social-behaviour","location_type":"Force","location":{"latitude":"51.513477","street":{"id":1679579,"name":"On or near Theatre/concert Hall"},"longitude":"-0.119880"},"context":"","outcome_status":null,"persistent_id":"","id":129465406,"location_subtype":"","month":"2025-06"},{"category":"anti-social-behaviour","location_type":"Force","location":{"latitude":"51.534413","street":{"id":1677772,"name":"On or near Medburn Street"},"longitude":"-0.132340"},"context":"","outcome_status":null,"persistent_id":"","id":129465441,"location_subtype":"","month":"2025-06"},{"category":"anti-social-behaviour","location_type":"Force","location":{"latitude":"51.537525","street":{"id":1678837,"name":"On or near Further/higher Educational Building"},"longitude":"-0.125032"},"context":"","outcome_status":null,"persistent_id":"","id":129465932,"location_subtype":"","month":"2025-06"},{"category":"anti-social-behaviour","location_type":"Force","location":{"latitude":"51.529796","street":{"id":1679933,"name":"On or near Parking Area"},"longitude":"-0.118025"},"context":"","outcome_status":null,"persistent_id":"","id":129465996,"location_subtype":"","month":"2025-06"},{"category":"anti-social-behaviour","location_type":"Force","location":{"latitude":"51.530314","street":{"id":1680904,"name":"On or near Cruikshank Street"},"longitude":"-0.112237"},"context":"","outcome_status":null,"persistent_id":"","id":129465998,"location_subtype":"","month":"2025-06"},{"category":"anti-social-behaviour","location_type":"Force","location":{"latitude":"51.531132","street":{"id":1682013,"name":"On or near Owen Street"},"longitude":"-0.105470"},"context":"","outcome_status":null,"persistent_id":"","id":129466082,"location_subtype":"","month":"2025-06"},{"category":"anti-social-behaviour","location_type":"Force","location":{"latitude":"51.536947","street":{"id":1679736,"name":"On or near B514"},"longitude":"-0.119273"},"context":"","outcome_status":null,"persistent_id":"","id":129466222,"location_subtype":"","month":"2025-06"},{"category":"anti-social-behaviour","location_type":"Force","location":{"latitude":"51.526156","street":{"id":1682662,"name":"On or near Percival Street"},"longitude":"-0.101943"},"context":"","outcome_status":null,"persistent_id":"","id":129466236,"location_subtype":"","month":"2025-06"},{"category":"anti-social-behaviour","location_type":"Force","location":{"latitude":"51.531735","street":{"id":1682306,"name":"On or near Sports/recreation Area"},"longitude":"-0.103467"},"context":"","outcome_status":null,"persistent_id":"","id":129466248,"location_subtype":"","month":"2025-06"},{"category":"anti-social-behaviour","location_type":"Force","location":{"latitude":"51.526349","street":{"id":1678363,"name":"On or near Burton Street"},"longitude":"-0.127956"},"context":"","outcome_status":null,"persistent_id":"","id":129466367,"location_subtype":"","month":"2025-06"},{"category":"anti-social-behaviour","location_type":"Force","location":{"latitude":"51.515984","street":{"id":1679703,"name":"On or near Conference/exhibition Centre"},"longitude":"-0.118595"},"context":"","outcome_status":null,"persistent_id":"","id":129466371,"location_subtype":"","month":"2025-06"},{"category":"anti-social-behaviour","location_type":"Force","location":{"latitude":"51.525189","street":{"id":1677063,"name":"On or near Hospital"},"longitude":"-0.135889"},"context":"","outcome_status":null,"persistent_id":"","id":129466428,"location_subtype":"","month":"2025-06"},{"category":"anti-social-behaviour","location_type":"Force","location":{"latitude":"51.517265","street":{"id":1678861,"name":"On or near Museum Street"},"longitude":"-0.125071"},"context":"","outcome_status":null,"persistent_id":"","id":129466501,"location_subtype":"","month":"2025-06"},{"category":"anti-social-behaviour","location_type":"Force","location":{"latitude":"51.531715","street":{"id":1679378,"name":"On or near Caledonia Street"},"longitude":"-0.121637"},"context":"","outcome_status":null,"persistent_id":"","id":129449725,"location_subtype":"","month":"2025-06"},{"category":"anti-social-behaviour","location_type":"Force","location":{"latitude":"51.532933","street":{"id":1679199,"name":"On or near Railway Street"},"longitude":"-0.122452"},"context":"","outcome_status":null,"persistent_id":"","id":129466579,"location_subtype":"","month":"2025-06"},{"category":"anti-social-behaviour","location_type":"Force","location":{"latitude":"51.530372","street":{"id":1678144,"name":"On or near Ossulston Street"},"longitude":"-0.129291"},"context":"","outcome_status":null,"persistent_id":"","id":129466594,"location_subtype":"","month":"2025-06"},{"category":"anti-social-behaviour","location_type":"Force","location":{"latitude":"51.515004","street":{"id":1678816,"name":"On or near B401"},"longitude":"-0.125352"},"context":"","outcome_status":null,"persistent_id":"","id":129466746,"location_subtype":"","month":"2025-06"},{"category":"anti-social-behaviour","location_type":"Force","location":{"latitude":"51.528633","street":{"id":1678576,"name":"On or near Bidborough Street"},"longitude":"-0.125729"},"context":"","outcome_status":null,"persistent_id":"","id":129466849,"location_subtype":"","month":"2025-06"},{"category":"anti-social-behaviour","location_type":"Force","location":{"latitude":"51.533780","street":{"id":1679039,"name":"On or near London King's Cross"},"longitude":"-0.123095"},"context":"","outcome_status":null,"persistent_id":"","id":129446477,"location_subtype":"","month":"2025-06"},{"category":"anti-social-behaviour","location_type":"Force","location":{"latitude":"51.529211","street":{"id":1684093,"name":"On or near Wellesley Terrace"},"longitude":"-0.092964"},"context":"","outcome_status":null,"persistent_id":"","id":129446508,"location_subtype":"","month":"2025-06"},{"category":"anti-social-behaviour","location_type":"Force","location":{"latitude":"51.520524","street":{"id":1681325,"name":"On or near Leather Lane"},"longitude":"-0.109601"},"context":"","outcome_status":null,"persistent_id":"","id":129464914,"location_subtype":"","month":"2025-06"},{"category":"anti-social-behaviour","location_type":"Force","location":{"latitude":"51.521877","street":{"id":1677229,"name":"On or near Howland Mews East"},"longitude":"-0.136241"},"context":"","outcome_status":null,"persistent_id":"","id":129453668,"location_subtype":"","month":"2025-06"},{"category":"anti-social-behaviour","location_type":"Force","location":{"latitude":"51.516037","street":{"id":1678369,"name":"On or near Earnshaw Street"},"longitude":"-0.128682"},"context":"","outcome_status":null,"persistent_id":"","id":129453671,"location_subtype":"","month":"2025-06"},{"category":"anti-social-behaviour","location_type":"Force","location":{"latitude":"51.531190","street":{"id":1679626,"name":"On or near Theatre/concert Hall"},"longitude":"-0.119727"},"context":"","outcome_status":null,"persistent_id":"","id":129446553,"location_subtype":"","month":"2025-06"},{"category":"anti-social-behaviour","location_type":"Force","location":{"latitude":"51.527088","street":{"id":1683986,"name":"On or near Galway Street"},"longitude":"-0.093427"},"context":"","outcome_status":null,"persistent_id":"","id":129446576,"location_subtype":"","month":"2025-06"},{"category":"anti-social-behaviour","location_type":"Force","location":{"latitude":"51.526069","street":{"id":1681362,"name":"On or near Exmouth Market"},"longitude":"-0.108809"},"context":"","outcome_status":null,"persistent_id":"","id":129446605,"location_subtype":"","month":"2025-06"},{"category":"anti-social-behaviour","location_type":"Force","location":{"latitude":"51.536729","street":{"id":1681243,"name":"On or near Doves Yard"},"longitude":"-0.109045"},"context":"","outcome_status":null,"persistent_id":"","id":129446624,"location_subtype":"","month":"2025-06"},{"category":"anti-social-behaviour","location_type":"Force","location":{"latitude":"51.528267","street":{"id":1678913,"name":"On or near Tonbridge Street"},"longitude":"-0.124216"},"context":"","outcome_status":null,"persistent_id":"","id":129446628,"location_subtype":"","month":"2025-06"},{"category":"anti-social-behaviour","location_type":"Force","location":{"latitude":"51.518281","street":{"id":1680923,"name":"On or near Chancery Lane"},"longitude":"-0.111596"},"context":"","outcome_status":null,"persistent_id":"","id":129446675,"location_subtype":"","month":"2025-06"},{"category":"anti-social-behaviour","location_type":"Force","location":{"latitude":"51.532396","street":{"id":1678420,"name":"On or near Neville Close"},"longitude":"-0.128227"},"context":"","outcome_status":null,"persistent_id":"","id":129446686,"location_subtype":"","month":"2025-06"},{"category":"anti-social-behaviour","location_type":"Force","location":{"latitude":"51.531668","street":{"id":1677602,"name":"On or near Polygon Road"},"longitude":"-0.132727"},"context":"","outcome_status":null,"persistent_id":"","id":129446694,"location_subtype":"","month":"2025-06"},{"category":"anti-social-behaviour","location_type":"Force","location":{"latitude":"51.525943","street":{"id":1682825,"name":"On or near Cyrus Street"},"longitude":"-0.101000"},"context":"","outcome_status":null,"persistent_id":"","id":129446833,"location_subtype":"","month":"2025-06"},{"category":"anti-social-behaviour","location_type":"Force","location":{"latitude":"51.534145","street":{"id":1680373,"name":"On or near Wynford Road"},"longitude":"-0.115034"},"context":"","outcome_status":null,"persistent_id":"","id":129446847,"location_subtype":"","month":"2025-06"},{"category":"anti-social-behaviour","location_type":"Force","location":{"latitude":"51.517701","street":{"id":1678590,"name":"On or near Willoughby Street"},"longitude":"-0.127014"},"context":"","outcome_status":null,"persistent_id":"","id":129446888,"location_subtype":"","month":"2025-06"},{"category":"anti-social-behaviour","location_type":"Force","location":{"latitude":"51.527008","street":{"id":1683400,"name":"On or near Central Street"},"longitude":"-0.096819"},"context":"","outcome_status":null,"persistent_id":"","id":129446964,"location_subtype":"","month":"2025-06"},{"category":"anti-social-behaviour","location_type":"Force","location":{"latitude":"51.529389","street":{"id":1680430,"name":"On or near Percy Circus"},"longitude":"-0.114524"},"context":"","outcome_status":null,"persistent_id":"","id":129447152,"location_subtype":"","month":"2025-06"},{"category":"anti-social-behaviour","location_type":"Force","location":{"latitude":"51.529356","street":{"id":1677861,"name":"On or near Doric Way"},"longitude":"-0.131033"},"context":"","outcome_status":null,"persistent_id":"","id":129447274,"location_subtype":"","month":"2025-06"},{"category":"anti-social-behaviour","location_type":"Force","location":{"latitude":"51.531421","street":{"id":1680331,"name":"On or near Nightclub"},"longitude":"-0.115594"},"context":"","outcome_status":null,"persistent_id":"","id":129447278,"location_subtype":"","month":"2025-06"},{"category":"anti-social-behaviour","location_type":"Force","location":{"latitude":"51.528345","street":{"id":1683510,"name":"On or near President Street"},"longitude":"-0.096633"},"context":"","outcome_status":null,"persistent_id":"","id":129447303,"location_subtype":"","month":"2025-06"},{"category":"anti-social-behaviour","location_type":"Force","location":{"latitude":"51.540219","street":{"id":1680076,"name":"On or near Thornhill Square"},"longitude":"-0.115836"},"context":"","outcome_status":null,"persistent_id":"","id":129447337,"location_subtype":"","month":"2025-06"},{"category":"anti-social-behaviour","location_type":"Force","location":{"latitude":"51.526531","street":{"id":1677395,"name":"On or near Euston Square"},"longitude":"-0.133773"},"context":"","outcome_status":null,"persistent_id":"","id":129463987,"location_subtype":"","month":"2025-06"},{"category":"anti-social-behaviour","location_type":"Force","location":{"latitude":"51.522943","street":{"id":1679825,"name":"On or near Long Yard"},"longitude":"-0.118567"},"context":"","outcome_status":null,"persistent_id":"","id":129447355,"location_subtype":"","month":"2025-06"},{"category":"anti-social-behaviour","location_type":"Force","location":{"latitude":"51.533930","street":{"id":1678074,"name":"On or near Chenies Place"},"longitude":"-0.130212"},"context":"","outcome_status":null,"persistent_id":"","id":129444635,"location_subtype":"","month":"2025-06"},{"category":"anti-social-behaviour","location_type":"Force","location":{"latitude":"51.531464","street":{"id":1678481,"name":"On or near Midland Road"},"longitude":"-0.127314"},"context":"","outcome_status":null,"persistent_id":"","id":129458279,"location_subtype":"","month":"2025-06"},{"category":"anti-social-behaviour","location_type":"Force","location":{"latitude":"51.534025","street":{"id":1682365,"name":"On or near Colebrooke Row"},"longitude":"-0.102582"},"context":"","outcome_status":null,"persistent_id":"","id":129458314,"location_subtype":"","month":"2025-06"},{"category":"anti-social-behaviour","location_type":"Force","location":{"latitude":"51.532843","street":{"id":1677179,"name":"On or near Cranleigh Street"},"longitude":"-0.135389"},"context":"","outcome_status":null,"persistent_id":"","id":129458396,"location_subtype":"","month":"2025-06"},{"category":"anti-social-behaviour","location_type":"Force","location":{"latitude":"51.523129","street":{"id":1676985,"name":"On or near Midford Place"},"longitude":"-0.137530"},"context":"","outcome_status":null,"persistent_id":"","id":129458403,"location_subtype":"","month":"2025-06"},{"category":"anti-social-behaviour","location_type":"Force","location":{"latitude":"51.529802","street":{"id":1683829,"name":"On or near Petrol Station"},"longitude":"-0.094810"},"context":"","outcome_status":null,"persistent_id":"","id":129452807,"location_subtype":"","month":"2025-06"},{"category":"anti-social-behaviour","location_type":"Force","location":{"latitude":"51.514408","street":{"id":1678779,"name":"On or near Neal Street"},"longitude":"-0.125780"},"context":"","outcome_status":null,"persistent_id":"","id":129444766,"location_subtype":"","month":"2025-06"},{"category":"anti-social-behaviour","location_type":"Force","location":{"latitude":"51.520779","street":{"id":1681637,"name":"On or near St Cross Street"},"longitude":"-0.107586"},"context":"","outcome_status":null,"persistent_id":"","id":129444794,"location_subtype":"","month":"2025-06"},{"category":"anti-social-behaviour","location_type":"Force","location":{"latitude":"51.534146","street":{"id":1677574,"name":"On or near Charrington Street"},"longitude":"-0.133043"},"context":"","outcome_status":null,"persistent_id":"","id":129444838,"location_subtype":"","month":"2025-06"},{"category":"anti-social-behaviour","location_type":"Force","location":{"latitude":"51.527800","street":{"id":1678588,"name":"On or near Sandwich Street"},"longitude":"-0.126498"},"context":"","outcome_status":null,"persistent_id":"","id":129444889,"location_subtype":"","month":"2025-06"},{"category":"anti-social-behaviour","location_type":"Force","location":{"latitude":"51.527214","street":{"id":1681039,"name":"On or near Margery Street"},"longitude":"-0.111241"},"context":"","outcome_status":null,"persistent_id":"","id":129452973,"location_subtype":"","month":"2025-06"},{"category":"anti-social-behaviour","location_type":"Force","location":{"latitude":"51.538301","street":{"id":1682345,"name":"On or near Theatre/concert Hall"},"longitude":"-0.102836"},"context":"","outcome_status":null,"persistent_id":"","id":129452979,"location_subtype":"","month":"2025-06"},{"category":"anti-social-behaviour","location_type":"Force","location":{"latitude":"51.532933","street":{"id":1679199,"name":"On or near Railway Street"},"longitude":"-0.122452"},"context":"","outcome_status":null,"persistent_id":"","id":129458886,"location_subtype":"","month":"2025-06"},{"category":"anti-social-behaviour","location_type":"Force","location":{"latitude":"51.528633","street":{"id":1678576,"name":"On or near Bidborough Street"},"longitude":"-0.125729"},"context":"","outcome_status":null,"persistent_id":"","id":129458964,"location_subtype":"","month":"2025-06"},{"category":"anti-social-behaviour","location_type":"Force","location":{"latitude":"51.523129","street":{"id":1676985,"name":"On or near Midford Place"},"longitude":"-0.137530"},"context":"","outcome_status":null,"persistent_id":"","id":129458984,"location_subtype":"","month":"2025-06"},{"category":"anti-social-behaviour","location_type":"Force","location":{"latitude":"51.535014","street":{"id":1682868,"name":"On or near Devonia Road"},"longitude":"-0.100320"},"context":"","outcome_status":null,"persistent_id":"","id":129460785,"location_subtype":"","month":"2025-06"},{"category":"anti-social-behaviour","location_type":"Force","location":{"latitude":"51.526531","street":{"id":1677395,"name":"On or near Euston Square"},"longitude":"-0.133773"},"context":"","outcome_status":null,"persistent_id":"","id":129460883,"location_subtype":"","month":"2025-06"},{"category":"anti-social-behaviour","location_type":"Force","location":{"latitude":"51.536450","street":{"id":1682380,"name":"On or near Islington Green"},"longitude":"-0.102913"},"context":"","outcome_status":null,"persistent_id":"","id":129453009,"location_subtype":"","month":"2025-06"},{"category":"anti-social-behaviour","location_type":"Force","location":{"latitude":"51.516001","street":{"id":1679229,"name":"On or near Macklin Street"},"longitude":"-0.122471"},"context":"","outcome_status":null,"persistent_id":"","id":129461063,"location_subtype":"","month":"2025-06"},{"category":"anti-social-behaviour","location_type":"Force","location":{"latitude":"51.522492","street":{"id":1681770,"name":"On or near Vine Street Bridge"},"longitude":"-0.106694"},"context":"","outcome_status":null,"persistent_id":"","id":129461107,"location_subtype":"","month":"2025-06"},{"category":"anti-social-behaviour","location_type":"Force","location":{"latitude":"51.529796","street":{"id":1679933,"name":"On or near Parking Area"},"longitude":"-0.118025"},"context":"","outcome_status":null,"persistent_id":"","id":129461116,"location_subtype":"","month":"2025-06"},{"category":"anti-social-behaviour","location_type":"Force","location":{"latitude":"51.533780","street":{"id":1679039,"name":"On or near London King's Cross"},"longitude":"-0.123095"},"context":"","outcome_status":null,"persistent_id":"","id":129462674,"location_subtype":"","month":"2025-06"},{"category":"anti-social-behaviour","location_type":"Force","location":{"latitude":"51.535479","street":{"id":1680270,"name":"On or near Carnegie Street"},"longitude":"-0.115758"},"context":"","outcome_status":null,"persistent_id":"","id":129453177,"location_subtype":"","month":"2025-06"},{"category":"anti-social-behaviour","location_type":"Force","location":{"latitude":"51.526623","street":{"id":1682431,"name":"On or near Tompion Street"},"longitude":"-0.102500"},"context":"","outcome_status":null,"persistent_id":"","id":129453234,"location_subtype":"","month":"2025-06"},{"category":"anti-social-behaviour","location_type":"Force","location":{"latitude":"51.527955","street":{"id":1679945,"name":"On or near Frederick Street"},"longitude":"-0.117597"},"context":"","outcome_status":null,"persistent_id":"","id":129453246,"location_subtype":"","month":"2025-06"},{"category":"anti-social-behaviour","location_type":"Force","location":{"latitude":"51.534025","street":{"id":1682365,"name":"On or near Colebrooke Row"},"longitude":"-0.102582"},"context":"","outcome_status":null,"persistent_id":"","id":129462933,"location_subtype":"","month":"2025-06"},{"category":"anti-social-behaviour","location_type":"Force","location":{"latitude":"51.518951","street":{"id":1680137,"name":"On or near Sandland Street"},"longitude":"-0.116354"},"context":"","outcome_status":null,"persistent_id":"","id":129462998,"location_subtype":"","month":"2025-06"},{"category":"anti-social-behaviour","location_type":"Force","location":{"latitude":"51.516820","street":{"id":1678501,"name":"On or near Dyott Street"},"longitude":"-0.127583"},"context":"","outcome_status":null,"persistent_id":"","id":129453315,"location_subtype":"","month":"2025-06"},{"category":"anti-social-behaviour","location_type":"Force","location":{"latitude":"51.523116","street":{"id":1679064,"name":"On or near Colonnade"},"longitude":"-0.123173"},"context":"","outcome_status":null,"persistent_id":"","id":129463170,"location_subtype":"","month":"2025-06"},{"category":"anti-social-behaviour","location_type":"Force","location":{"latitude":"51.528971","street":{"id":1682320,"name":"On or near Rawstorne Street"},"longitude":"-0.103628"},"context":"","outcome_status":null,"persistent_id":"","id":129463304,"location_subtype":"","month":"2025-06"},{"category":"anti-social-behaviour","location_type":"Force","location":{"latitude":"51.526069","street":{"id":1681362,"name":"On or near Exmouth Market"},"longitude":"-0.108809"},"context":"","outcome_status":null,"persistent_id":"","id":129445057,"location_subtype":"","month":"2025-06"},{"category":"anti-social-behaviour","location_type":"Force","location":{"latitude":"51.538301","street":{"id":1682345,"name":"On or near Theatre/concert Hall"},"longitude":"-0.102836"},"context":"","outcome_status":null,"persistent_id":"","id":129445087,"location_subtype":"","month":"2025-06"},{"category":"anti-social-behaviour","location_type":"Force","location":{"latitude":"51.529143","street":{"id":1682858,"name":"On or near New Charles Street"},"longitude":"-0.100968"},"context":"","outcome_status":null,"persistent_id":"","id":129445156,"location_subtype":"","month":"2025-06"},{"category":"anti-social-behaviour","location_type":"Force","location":{"latitude":"51.527653","street":{"id":1679440,"name":"On or near Harrison Street"},"longitude":"-0.120651"},"context":"","outcome_status":null,"persistent_id":"","id":129463342,"location_subtype":"","month":"2025-06"},{"category":"anti-social-behaviour","location_type":"Force","location":{"latitude":"51.519092","street":{"id":1679240,"name":"On or near Bloomsbury Square"},"longitude":"-0.122330"},"context":"","outcome_status":null,"persistent_id":"","id":129463507,"location_subtype":"","month":"2025-06"},{"category":"anti-social-behaviour","location_type":"Force","location":{"latitude":"51.537811","street":{"id":1679133,"name":"On or near A5200"},"longitude":"-0.122670"},"context":"","outcome_status":null,"persistent_id":"","id":129463534,"location_subtype":"","month":"2025-06"},{"category":"anti-social-behaviour","location_type":"Force","location":{"latitude":"51.532933","street":{"id":1679199,"name":"On or near Railway Street"},"longitude":"-0.122452"},"context":"","outcome_status":null,"persistent_id":"","id":129463538,"location_subtype":"","month":"2025-06"},{"category":"anti-social-behaviour","location_type":"Force","location":{"latitude":"51.529627","street":{"id":1683204,"name":"On or near Pickard Street"},"longitude":"-0.098612"},"context":"","outcome_status":null,"persistent_id":"","id":129445255,"location_subtype":"","month":"2025-06"},{"category":"anti-social-behaviour","location_type":"Force","location":{"latitude":"51.529766","street":{"id":1679334,"name":"On or near St Chad's Street"},"longitude":"-0.121790"},"context":"","outcome_status":null,"persistent_id":"","id":129463729,"location_subtype":"","month":"2025-06"},{"category":"anti-social-behaviour","location_type":"Force","location":{"latitude":"51.513777","street":{"id":1679100,"name":"On or near B402"},"longitude":"-0.123456"},"context":"","outcome_status":null,"persistent_id":"","id":129445326,"location_subtype":"","month":"2025-06"},{"category":"anti-social-behaviour","location_type":"Force","location":{"latitude":"51.531735","street":{"id":1682306,"name":"On or near Sports/recreation Area"},"longitude":"-0.103467"},"context":"","outcome_status":null,"persistent_id":"","id":129445451,"location_subtype":"","month":"2025-06"},{"category":"anti-social-behaviour","location_type":"Force","location":{"latitude":"51.518405","street":{"id":1679695,"name":"On or near Procter Street"},"longitude":"-0.119302"},"context":"","outcome_status":null,"persistent_id":"","id":129458496,"location_subtype":"","month":"2025-06"},{"category":"anti-social-behaviour","location_type":"Force","location":{"latitude":"51.520716","street":{"id":1680278,"name":"On or near Further/higher Educational Building"},"longitude":"-0.115921"},"context":"","outcome_status":null,"persistent_id":"","id":129458734,"location_subtype":"","month":"2025-06"},{"category":"anti-social-behaviour","location_type":"Force","location":{"latitude":"51.513477","street":{"id":1679579,"name":"On or near Theatre/concert Hall"},"longitude":"-0.119880"},"context":"","outcome_status":null,"persistent_id":"","id":129453891,"location_subtype":"","month":"2025-06"},{"category":"anti-social-behaviour","location_type":"Force","location":{"latitude":"51.529389","street":{"id":1680430,"name":"On or near Percy Circus"},"longitude":"-0.114524"},"context":"","outcome_status":null,"persistent_id":"","id":129453903,"location_subtype":"","month":"2025-06"},{"category":"anti-social-behaviour","location_type":"Force","location":{"latitude":"51.518106","street":{"id":1680014,"name":"On or near Race Track"},"longitude":"-0.116951"},"context":"","outcome_status":null,"persistent_id":"","id":129453993,"location_subtype":"","month":"2025-06"},{"category":"anti-social-behaviour","location_type":"Force","location":{"latitude":"51.534817","street":{"id":1677600,"name":"On or near Unity Mews"},"longitude":"-0.132843"},"context":"","outcome_status":null,"persistent_id":"","id":129447650,"location_subtype":"","month":"2025-06"},{"category":"anti-social-behaviour","location_type":"Force","location":{"latitude":"51.523762","street":{"id":1679070,"name":"On or near Parking Area"},"longitude":"-0.123651"},"context":"","outcome_status":null,"persistent_id":"","id":129447666,"location_subtype":"","month":"2025-06"},{"category":"anti-social-behaviour","location_type":"Force","location":{"latitude":"51.516001","street":{"id":1679229,"name":"On or near Macklin Street"},"longitude":"-0.122471"},"context":"","outcome_status":null,"persistent_id":"","id":129447687,"location_subtype":"","month":"2025-06"},{"category":"anti-social-behaviour","location_type":"Force","location":{"latitude":"51.523116","street":{"id":1679064,"name":"On or near Colonnade"},"longitude":"-0.123173"},"context":"","outcome_status":null,"persistent_id":"","id":129454026,"location_subtype":"","month":"2025-06"},{"category":"anti-social-behaviour","location_type":"Force","location":{"latitude":"51.530372","street":{"id":1678144,"name":"On or near Ossulston Street"},"longitude":"-0.129291"},"context":"","outcome_status":null,"persistent_id":"","id":129454046,"location_subtype":"","month":"2025-06"},{"category":"anti-social-behaviour","location_type":"Force","location":{"latitude":"51.531691","street":{"id":1677501,"name":"On or near Werrington Street"},"longitude":"-0.134182"},"context":"","outcome_status":null,"persistent_id":"","id":129454052,"location_subtype":"","month":"2025-06"},{"category":"anti-social-behaviour","location_type":"Force","location":{"latitude":"51.518456","street":{"id":1677599,"name":"On or near Percy Street"},"longitude":"-0.133209"},"context":"","outcome_status":null,"persistent_id":"","id":129454062,"location_subtype":"","month":"2025-06"},{"category":"anti-social-behaviour","location_type":"Force","location":{"latitude":"51.523129","street":{"id":1676985,"name":"On or near Midford Place"},"longitude":"-0.137530"},"context":"","outcome_status":null,"persistent_id":"","id":129454079,"location_subtype":"","month":"2025-06"},{"category":"anti-social-behaviour","location_type":"Force","location":{"latitude":"51.520463","street":{"id":1681898,"name":"On or near Further/higher Educational Building"},"longitude":"-0.106345"},"context":"","outcome_status":null,"persistent_id":"","id":129454083,"location_subtype":"","month":"2025-06"},{"category":"anti-social-behaviour","location_type":"Force","location":{"latitude":"51.517727","street":{"id":1678383,"name":"On or near Further/higher Educational Building"},"longitude":"-0.128612"},"context":"","outcome_status":null,"persistent_id":"","id":129454142,"location_subtype":"","month":"2025-06"},{"category":"anti-social-behaviour","location_type":"Force","location":{"latitude":"51.516568","street":{"id":1679291,"name":"On or near Newton Street"},"longitude":"-0.121381"},"context":"","outcome_status":null,"persistent_id":"","id":129454178,"location_subtype":"","month":"2025-06"},{"category":"anti-social-behaviour","location_type":"Force","location":{"latitude":"51.528633","street":{"id":1678576,"name":"On or near Bidborough Street"},"longitude":"-0.125729"},"context":"","outcome_status":null,"persistent_id":"","id":129454247,"location_subtype":"","month":"2025-06"},{"category":"anti-social-behaviour","location_type":"Force","location":{"latitude":"51.516001","street":{"id":1679229,"name":"On or near Macklin Street"},"longitude":"-0.122471"},"context":"","outcome_status":null,"persistent_id":"","id":129454254,"location_subtype":"","month":"2025-06"},{"category":"anti-social-behaviour","location_type":"Force","location":{"latitude":"51.529798","street":{"id":1677707,"name":"On or near Drummond Crescent"},"longitude":"-0.132212"},"context":"","outcome_status":null,"persistent_id":"","id":129454317,"location_subtype":"","month":"2025-06"},{"category":"anti-social-behaviour","location_type":"Force","location":{"latitude":"51.532265","street":{"id":1681581,"name":"On or near Angel Mews"},"longitude":"-0.107153"},"context":"","outcome_status":null,"persistent_id":"","id":129454332,"location_subtype":"","month":"2025-06"},{"category":"anti-social-behaviour","location_type":"Force","location":{"latitude":"51.530665","street":{"id":1681300,"name":"On or near Mylne Street"},"longitude":"-0.109440"},"context":"","outcome_status":null,"persistent_id":"","id":129454372,"location_subtype":"","month":"2025-06"},{"category":"anti-social-behaviour","location_type":"Force","location":{"latitude":"51.519933","street":{"id":1677494,"name":"On or near Shopping Area"},"longitude":"-0.133899"},"context":"","outcome_status":null,"persistent_id":"","id":129454376,"location_subtype":"","month":"2025-06"},{"category":"anti-social-behaviour","location_type":"Force","location":{"latitude":"51.526349","street":{"id":1678363,"name":"On or near Burton Street"},"longitude":"-0.127956"},"context":"","outcome_status":null,"persistent_id":"","id":129447858,"location_subtype":"","month":"2025-06"},{"category":"anti-social-behaviour","location_type":"Force","location":{"latitude":"51.534300","street":{"id":1682047,"name":"On or near Islington High Street"},"longitude":"-0.104574"},"context":"","outcome_status":null,"persistent_id":"","id":129454425,"location_subtype":"","month":"2025-06"},{"category":"anti-social-behaviour","location_type":"Force","location":{"latitude":"51.528614","street":{"id":1683377,"name":"On or near Macclesfield Road"},"longitude":"-0.096622"},"context":"","outcome_status":null,"persistent_id":"","id":129454430,"location_subtype":"","month":"2025-06"},{"category":"anti-social-behaviour","location_type":"Force","location":{"latitude":"51.527298","street":{"id":1678231,"name":"On or near Theatre/concert Hall"},"longitude":"-0.128988"},"context":"","outcome_status":null,"persistent_id":"","id":129448104,"location_subtype":"","month":"2025-06"},{"category":"anti-social-behaviour","location_type":"Force","location":{"latitude":"51.521138","street":{"id":1679848,"name":"On or near Dombey Street"},"longitude":"-0.118671"},"context":"","outcome_status":null,"persistent_id":"","id":129454459,"location_subtype":"","month":"2025-06"},{"category":"anti-social-behaviour","location_type":"Force","location":{"latitude":"51.526069","street":{"id":1681362,"name":"On or near Exmouth Market"},"longitude":"-0.108809"},"context":"","outcome_status":null,"persistent_id":"","id":129448186,"location_subtype":"","month":"2025-06"},{"category":"anti-social-behaviour","location_type":"Force","location":{"latitude":"51.531715","street":{"id":1679378,"name":"On or near Caledonia Street"},"longitude":"-0.121637"},"context":"","outcome_status":null,"persistent_id":"","id":129448245,"location_subtype":"","month":"2025-06"},{"category":"anti-social-behaviour","location_type":"Force","location":{"latitude":"51.524069","street":{"id":1683687,"name":"On or near Nightclub"},"longitude":"-0.095845"},"context":"","outcome_status":null,"persistent_id":"","id":129448293,"location_subtype":"","month":"2025-06"},{"category":"anti-social-behaviour","location_type":"Force","location":{"latitude":"51.527044","street":{"id":1681559,"name":"On or near Theatre/concert Hall"},"longitude":"-0.107975"},"context":"","outcome_status":null,"persistent_id":"","id":129448301,"location_subtype":"","month":"2025-06"},{"category":"anti-social-behaviour","location_type":"Force","location":{"latitude":"51.534300","street":{"id":1682047,"name":"On or near Islington High Street"},"longitude":"-0.104574"},"context":"","outcome_status":null,"persistent_id":"","id":129448314,"location_subtype":"","month":"2025-06"},{"category":"anti-social-behaviour","location_type":"Force","location":{"latitude":"51.529389","street":{"id":1680430,"name":"On or near Percy Circus"},"longitude":"-0.114524"},"context":"","outcome_status":null,"persistent_id":"","id":129448367,"location_subtype":"","month":"2025-06"},{"category":"anti-social-behaviour","location_type":"Force","location":{"latitude":"51.534817","street":{"id":1677600,"name":"On or near Unity Mews"},"longitude":"-0.132843"},"context":"","outcome_status":null,"persistent_id":"","id":129448373,"location_subtype":"","month":"2025-06"},{"category":"anti-social-behaviour","location_type":"Force","location":{"latitude":"51.519432","street":{"id":1681249,"name":"On or near Beauchamp Street"},"longitude":"-0.109905"},"context":"","outcome_status":null,"persistent_id":"","id":129448385,"location_subtype":"","month":"2025-06"},{"category":"anti-social-behaviour","location_type":"Force","location":{"latitude":"51.517287","street":{"id":1678024,"name":"On or near Parking Area"},"longitude":"-0.130403"},"context":"","outcome_status":null,"persistent_id":"","id":129448481,"location_subtype":"","month":"2025-06"},{"category":"anti-social-behaviour","location_type":"Force","location":{"latitude":"51.516785","street":{"id":1678562,"name":"On or near Theatre/concert Hall"},"longitude":"-0.126532"},"context":"","outcome_status":null,"persistent_id":"","id":129448533,"location_subtype":"","month":"2025-06"},{"category":"anti-social-behaviour","location_type":"Force","location":{"latitude":"51.523334","street":{"id":1679676,"name":"On or near Guilford Place"},"longitude":"-0.119344"},"context":"","outcome_status":null,"persistent_id":"","id":129448546,"location_subtype":"","month":"2025-06"},{"category":"anti-social-behaviour","location_type":"Force","location":{"latitude":"51.525943","street":{"id":1682825,"name":"On or near Cyrus Street"},"longitude":"-0.101000"},"context":"","outcome_status":null,"persistent_id":"","id":129448565,"location_subtype":"","month":"2025-06"},{"category":"anti-social-behaviour","location_type":"Force","location":{"latitude":"51.531132","street":{"id":1682013,"name":"On or near Owen Street"},"longitude":"-0.105470"},"context":"","outcome_status":null,"persistent_id":"","id":129458809,"location_subtype":"","month":"2025-06"},{"category":"anti-social-behaviour","location_type":"Force","location":{"latitude":"51.527861","street":{"id":1677890,"name":"On or near Grafton Place"},"longitude":"-0.131412"},"context":"","outcome_status":null,"persistent_id":"","id":129458816,"location_subtype":"","month":"2025-06"},{"category":"anti-social-behaviour","location_type":"Force","location":{"latitude":"51.531945","street":{"id":1681908,"name":"On or near Pentonville Road"},"longitude":"-0.106273"},"context":"","outcome_status":null,"persistent_id":"","id":129458818,"location_subtype":"","month":"2025-06"},{"category":"anti-social-behaviour","location_type":"Force","location":{"latitude":"51.529766","street":{"id":1679334,"name":"On or near St Chad's Street"},"longitude":"-0.121790"},"context":"","outcome_status":null,"persistent_id":"","id":129448781,"location_subtype":"","month":"2025-06"},{"category":"anti-social-behaviour","location_type":"Force","location":{"latitude":"51.531428","street":{"id":1678653,"name":"On or near Shopping Area"},"longitude":"-0.126147"},"context":"","outcome_status":null,"persistent_id":"","id":129448786,"location_subtype":"","month":"2025-06"},{"category":"anti-social-behaviour","location_type":"Force","location":{"latitude":"51.523116","street":{"id":1679064,"name":"On or near Colonnade"},"longitude":"-0.123173"},"context":"","outcome_status":null,"persistent_id":"","id":129448835,"location_subtype":"","month":"2025-06"},{"category":"anti-social-behaviour","location_type":"Force","location":{"latitude":"51.520559","street":{"id":1677856,"name":"On or near Ridgmount Street"},"longitude":"-0.131451"},"context":"","outcome_status":null,"persistent_id":"","id":129448922,"location_subtype":"","month":"2025-06"},{"category":"anti-social-behaviour","location_type":"Force","location":{"latitude":"51.517742","street":{"id":1678770,"name":"On or near Little Russell Street"},"longitude":"-0.125614"},"context":"","outcome_status":null,"persistent_id":"","id":129448988,"location_subtype":"","month":"2025-06"},{"category":"anti-social-behaviour","location_type":"Force","location":{"latitude":"51.517265","street":{"id":1678861,"name":"On or near Museum Street"},"longitude":"-0.125071"},"context":"","outcome_status":null,"persistent_id":"","id":129449070,"location_subtype":"","month":"2025-06"},{"category":"anti-social-behaviour","location_type":"Force","location":{"latitude":"51.536967","street":{"id":1682534,"name":"On or near Collins Yard"},"longitude":"-0.102661"},"context":"","outcome_status":null,"persistent_id":"","id":129454497,"location_subtype":"","month":"2025-06"},{"category":"anti-social-behaviour","location_type":"Force","location":{"latitude":"51.528620","street":{"id":1679407,"name":"On or near Argyle Street"},"longitude":"-0.121548"},"context":"","outcome_status":null,"persistent_id":"","id":129449132,"location_subtype":"","month":"2025-06"},{"category":"anti-social-behaviour","location_type":"Force","location":{"latitude":"51.518281","street":{"id":1680923,"name":"On or near Chancery Lane"},"longitude":"-0.111596"},"context":"","outcome_status":null,"persistent_id":"","id":129449265,"location_subtype":"","month":"2025-06"},{"category":"anti-social-behaviour","location_type":"Force","location":{"latitude":"51.536819","street":{"id":1681791,"name":"On or near Old Royal Free Place"},"longitude":"-0.106863"},"context":"","outcome_status":null,"persistent_id":"","id":129449354,"location_subtype":"","month":"2025-06"},{"category":"anti-social-behaviour","location_type":"Force","location":{"latitude":"51.523252","street":{"id":1678272,"name":"On or near Parking Area"},"longitude":"-0.127189"},"context":"","outcome_status":null,"persistent_id":"","id":129449472,"location_subtype":"","month":"2025-06"},{"category":"anti-social-behaviour","location_type":"Force","location":{"latitude":"51.525189","street":{"id":1677063,"name":"On or near Hospital"},"longitude":"-0.135889"},"context":"","outcome_status":null,"persistent_id":"","id":129449638,"location_subtype":"","month":"2025-06"},{"category":"anti-social-behaviour","location_type":"Force","location":{"latitude":"51.529796","street":{"id":1679933,"name":"On or near Parking Area"},"longitude":"-0.118025"},"context":"","outcome_status":null,"persistent_id":"","id":129449676,"location_subtype":"","month":"2025-06"},{"category":"anti-social-behaviour","location_type":"Force","location":{"latitude":"51.531945","street":{"id":1681908,"name":"On or near Pentonville Road"},"longitude":"-0.106273"},"context":"","outcome_status":null,"persistent_id":"","id":129462240,"location_subtype":"","month":"2025-06"},{"category":"anti-social-behaviour","location_type":"Force","location":{"latitude":"51.529627","street":{"id":1683204,"name":"On or near Pickard Street"},"longitude":"-0.098612"},"context":"","outcome_status":null,"persistent_id":"","id":129466515,"location_subtype":"","month":"2025-06"},{"category":"anti-social-behaviour","location_type":"Force","location":{"latitude":"51.533040","street":{"id":1679908,"name":"On or near Calshot Street"},"longitude":"-0.117344"},"context":"","outcome_status":null,"persistent_id":"","id":129461985,"location_subtype":"","month":"2025-06"},{"category":"anti-social-behaviour","location_type":"Force","location":{"latitude":"51.527088","street":{"id":1683986,"name":"On or near Galway Street"},"longitude":"-0.093427"},"context":"","outcome_status":null,"persistent_id":"","id":129457041,"location_subtype":"","month":"2025-06"},{"category":"anti-social-behaviour","location_type":"Force","location":{"latitude":"51.514832","street":{"id":1678939,"name":"On or near Betterton Street"},"longitude":"-0.124162"},"context":"","outcome_status":null,"persistent_id":"","id":129457116,"location_subtype":"","month":"2025-06"},{"category":"anti-social-behaviour","location_type":"Force","location":{"latitude":"51.531428","street":{"id":1678653,"name":"On or near Shopping Area"},"longitude":"-0.126147"},"context":"","outcome_status":null,"persistent_id":"","id":129457125,"location_subtype":"","month":"2025-06"},{"category":"anti-social-behaviour","location_type":"Force","location":{"latitude":"51.518456","street":{"id":1677599,"name":"On or near Percy Street"},"longitude":"-0.133209"},"context":"","outcome_status":null,"persistent_id":"","id":129445510,"location_subtype":"","month":"2025-06"},{"category":"anti-social-behaviour","location_type":"Force","location":{"latitude":"51.522297","street":{"id":1677456,"name":"On or near Hospital"},"longitude":"-0.134422"},"context":"","outcome_status":null,"persistent_id":"","id":129445950,"location_subtype":"","month":"2025-06"},{"category":"anti-social-behaviour","location_type":"Force","location":{"latitude":"51.526156","street":{"id":1682662,"name":"On or near Percival Street"},"longitude":"-0.101943"},"context":"","outcome_status":null,"persistent_id":"","id":129445954,"location_subtype":"","month":"2025-06"},{"category":"anti-social-behaviour","location_type":"Force","location":{"latitude":"51.531147","street":{"id":1684071,"name":"On or near Prestwood Street"},"longitude":"-0.093633"},"context":"","outcome_status":null,"persistent_id":"","id":129445573,"location_subtype":"","month":"2025-06"},{"category":"anti-social-behaviour","location_type":"Force","location":{"latitude":"51.514832","street":{"id":1678939,"name":"On or near Betterton Street"},"longitude":"-0.124162"},"context":"","outcome_status":null,"persistent_id":"","id":129446082,"location_subtype":"","month":"2025-06"},{"category":"anti-social-behaviour","location_type":"Force","location":{"latitude":"51.526338","street":{"id":1680599,"name":"On or near Attneave Street"},"longitude":"-0.111594"},"context":"","outcome_status":null,"persistent_id":"","id":129453476,"location_subtype":"","month":"2025-06"},{"category":"anti-social-behaviour","location_type":"Force","location":{"latitude":"51.529627","street":{"id":1683204,"name":"On or near Pickard Street"},"longitude":"-0.098612"},"context":"","outcome_status":null,"persistent_id":"","id":129446118,"location_subtype":"","month":"2025-06"},{"category":"anti-social-behaviour","location_type":"Force","location":{"latitude":"51.526223","street":{"id":1679885,"name":"On or near Mecklenburgh Street"},"longitude":"-0.118403"},"context":"","outcome_status":null,"persistent_id":"","id":129446235,"location_subtype":"","month":"2025-06"},{"category":"anti-social-behaviour","location_type":"Force","location":{"latitude":"51.534273","street":{"id":1681595,"name":"On or near Supermarket"},"longitude":"-0.107315"},"context":"","outcome_status":null,"persistent_id":"","id":129464732,"location_subtype":"","month":"2025-06"},{"category":"anti-social-behaviour","location_type":"Force","location":{"latitude":"51.531428","street":{"id":1678653,"name":"On or near Shopping Area"},"longitude":"-0.126147"},"context":"","outcome_status":null,"persistent_id":"","id":129453504,"location_subtype":"","month":"2025-06"},{"category":"anti-social-behaviour","location_type":"Force","location":{"latitude":"51.534996","street":{"id":1683073,"name":"On or near St Peter's Street"},"longitude":"-0.099225"},"context":"","outcome_status":null,"persistent_id":"","id":129453516,"location_subtype":"","month":"2025-06"},{"category":"anti-social-behaviour","location_type":"Force","location":{"latitude":"51.519379","street":{"id":1682411,"name":"On or near Charterhouse Street"},"longitude":"-0.102729"},"context":"","outcome_status":null,"persistent_id":"","id":129446274,"location_subtype":"","month":"2025-06"},{"category":"anti-social-behaviour","location_type":"Force","location":{"latitude":"51.519379","street":{"id":1682411,"name":"On or near Charterhouse Street"},"longitude":"-0.102729"},"context":"","outcome_status":null,"persistent_id":"","id":129446275,"location_subtype":"","month":"2025-06"},{"category":"anti-social-behaviour","location_type":"Force","location":{"latitude":"51.532889","street":{"id":1679429,"name":"On or near Balfe Street"},"longitude":"-0.120825"},"context":"","outcome_status":null,"persistent_id":"","id":129446278,"location_subtype":"","month":"2025-06"},{"category":"anti-social-behaviour","location_type":"Force","location":{"latitude":"51.525787","street":{"id":1681911,"name":"On or near Skinner Street"},"longitude":"-0.105836"},"context":"","outcome_status":null,"persistent_id":"","id":129446279,"location_subtype":"","month":"2025-06"},{"category":"anti-social-behaviour","location_type":"Force","location":{"latitude":"51.531428","street":{"id":1678653,"name":"On or near Shopping Area"},"longitude":"-0.126147"},"context":"","outcome_status":null,"persistent_id":"","id":129446330,"location_subtype":"","month":"2025-06"},{"category":"anti-social-behaviour","location_type":"Force","location":{"latitude":"51.528345","street":{"id":1683510,"name":"On or near President Street"},"longitude":"-0.096633"},"context":"","outcome_status":null,"persistent_id":"","id":129446354,"location_subtype":"","month":"2025-06"},{"category":"anti-social-behaviour","location_type":"Force","location":{"latitude":"51.530455","street":{"id":1681767,"name":"On or near Chadwell Street"},"longitude":"-0.106464"},"context":"","outcome_status":null,"persistent_id":"","id":129446398,"location_subtype":"","month":"2025-06"},{"category":"anti-social-behaviour","location_type":"Force","location":{"latitude":"51.522362","street":{"id":1683921,"name":"On or near Fortune Street"},"longitude":"-0.093711"},"context":"","outcome_status":null,"persistent_id":"","id":129446427,"location_subtype":"","month":"2025-06"},{"category":"anti-social-behaviour","location_type":"Force","location":{"latitude":"51.522284","street":{"id":1678831,"name":"On or near Russell Square"},"longitude":"-0.125153"},"context":"","outcome_status":null,"persistent_id":"","id":129446451,"location_subtype":"","month":"2025-06"},{"category":"anti-social-behaviour","location_type":"Force","location":{"latitude":"51.533040","street":{"id":1679908,"name":"On or near Calshot Street"},"longitude":"-0.117344"},"context":"","outcome_status":null,"persistent_id":"","id":129459701,"location_subtype":"","month":"2025-06"},{"category":"anti-social-behaviour","location_type":"Force","location":{"latitude":"51.527713","street":{"id":1679016,"name":"On or near Speedy Place"},"longitude":"-0.124397"},"context":"","outcome_status":null,"persistent_id":"","id":129460842,"location_subtype":"","month":"2025-06"},{"category":"anti-social-behaviour","location_type":"Force","location":{"latitude":"51.523116","street":{"id":1679064,"name":"On or near Colonnade"},"longitude":"-0.123173"},"context":"","outcome_status":null,"persistent_id":"","id":129461026,"location_subtype":"","month":"2025-06"},{"category":"anti-social-behaviour","location_type":"Force","location":{"latitude":"51.527955","street":{"id":1679945,"name":"On or near Frederick Street"},"longitude":"-0.117597"},"context":"","outcome_status":null,"persistent_id":"","id":129461175,"location_subtype":"","month":"2025-06"},{"category":"anti-social-behaviour","location_type":"Force","location":{"latitude":"51.527094","street":{"id":1679346,"name":"On or near Regent Square"},"longitude":"-0.121683"},"context":"","outcome_status":null,"persistent_id":"","id":129461234,"location_subtype":"","month":"2025-06"},{"category":"anti-social-behaviour","location_type":"Force","location":{"latitude":"51.529527","street":{"id":1682231,"name":"On or near Hermit Street"},"longitude":"-0.104095"},"context":"","outcome_status":null,"persistent_id":"","id":129461386,"location_subtype":"","month":"2025-06"},{"category":"anti-social-behaviour","location_type":"Force","location":{"latitude":"51.521006","street":{"id":1677513,"name":"On or near Alfred Mews"},"longitude":"-0.134100"},"context":"","outcome_status":null,"persistent_id":"","id":129461402,"location_subtype":"","month":"2025-06"},{"category":"anti-social-behaviour","location_type":"Force","location":{"latitude":"51.520524","street":{"id":1681325,"name":"On or near Leather Lane"},"longitude":"-0.109601"},"context":"","outcome_status":null,"persistent_id":"","id":129461616,"location_subtype":"","month":"2025-06"},{"category":"anti-social-behaviour","location_type":"Force","location":{"latitude":"51.531428","street":{"id":1678653,"name":"On or near Shopping Area"},"longitude":"-0.126147"},"context":"","outcome_status":null,"persistent_id":"","id":129461624,"location_subtype":"","month":"2025-06"},{"category":"anti-social-behaviour","location_type":"Force","location":{"latitude":"51.538136","street":{"id":1681826,"name":"On or near Gibson Square"},"longitude":"-0.105958"},"context":"","outcome_status":null,"persistent_id":"","id":129461635,"location_subtype":"","month":"2025-06"},{"category":"anti-social-behaviour","location_type":"Force","location":{"latitude":"51.517701","street":{"id":1678590,"name":"On or near Willoughby Street"},"longitude":"-0.127014"},"context":"","outcome_status":null,"persistent_id":"","id":129461703,"location_subtype":"","month":"2025-06"},{"category":"anti-social-behaviour","location_type":"Force","location":{"latitude":"51.524468","street":{"id":1682824,"name":"On or near Dallington Street"},"longitude":"-0.100485"},"context":"","outcome_status":null,"persistent_id":"","id":129461704,"location_subtype":"","month":"2025-06"},{"category":"anti-social-behaviour","location_type":"Force","location":{"latitude":"51.529796","street":{"id":1679933,"name":"On or near Parking Area"},"longitude":"-0.118025"},"context":"","outcome_status":null,"persistent_id":"","id":129461712,"location_subtype":"","month":"2025-06"},{"category":"anti-social-behaviour","location_type":"Force","location":{"latitude":"51.533201","street":{"id":1683009,"name":"On or near Noel Road"},"longitude":"-0.099977"},"context":"","outcome_status":null,"persistent_id":"","id":129461821,"location_subtype":"","month":"2025-06"},{"category":"anti-social-behaviour","location_type":"Force","location":{"latitude":"51.518106","street":{"id":1680014,"name":"On or near Race Track"},"longitude":"-0.116951"},"context":"","outcome_status":null,"persistent_id":"","id":129461885,"location_subtype":"","month":"2025-06"},{"category":"anti-social-behaviour","location_type":"Force","location":{"latitude":"51.521060","street":{"id":1679230,"name":"On or near Cosmo Place"},"longitude":"-0.122797"},"context":"","outcome_status":null,"persistent_id":"","id":129461907,"location_subtype":"","month":"2025-06"},{"category":"anti-social-behaviour","location_type":"Force","location":{"latitude":"51.528267","street":{"id":1678913,"name":"On or near Tonbridge Street"},"longitude":"-0.124216"},"context":"","outcome_status":null,"persistent_id":"","id":129462091,"location_subtype":"","month":"2025-06"},{"category":"anti-social-behaviour","location_type":"Force","location":{"latitude":"51.531773","street":{"id":1677389,"name":"On or near Aldenham Street"},"longitude":"-0.134279"},"context":"","outcome_status":null,"persistent_id":"","id":129462189,"location_subtype":"","month":"2025-06"},{"category":"anti-social-behaviour","location_type":"Force","location":{"latitude":"51.527008","street":{"id":1683400,"name":"On or near Central Street"},"longitude":"-0.096819"},"context":"","outcome_status":null,"persistent_id":"","id":129462242,"location_subtype":"","month":"2025-06"},{"category":"anti-social-behaviour","location_type":"Force","location":{"latitude":"51.527023","street":{"id":1681661,"name":"On or near Garnault Place"},"longitude":"-0.107760"},"context":"","outcome_status":null,"persistent_id":"","id":129462337,"location_subtype":"","month":"2025-06"},{"category":"anti-social-behaviour","location_type":"Force","location":{"latitude":"51.519933","street":{"id":1677494,"name":"On or near Shopping Area"},"longitude":"-0.133899"},"context":"","outcome_status":null,"persistent_id":"","id":129462338,"location_subtype":"","month":"2025-06"},{"category":"anti-social-behaviour","location_type":"Force","location":{"latitude":"51.515598","street":{"id":1678536,"name":"On or near St Giles High Street"},"longitude":"-0.127633"},"context":"","outcome_status":null,"persistent_id":"","id":129462525,"location_subtype":"","month":"2025-06"},{"category":"anti-social-behaviour","location_type":"Force","location":{"latitude":"51.530141","street":{"id":1684008,"name":"On or near Micawber Street"},"longitude":"-0.093732"},"context":"","outcome_status":null,"persistent_id":"","id":129462556,"location_subtype":"","month":"2025-06"},{"category":"anti-social-behaviour","location_type":"Force","location":{"latitude":"51.529995","street":{"id":1680810,"name":"On or near Holford Street"},"longitude":"-0.112510"},"context":"","outcome_status":null,"persistent_id":"","id":129462561,"location_subtype":"","month":"2025-06"},{"category":"anti-social-behaviour","location_type":"Force","location":{"latitude":"51.521779","street":{"id":1680593,"name":"On or near Supermarket"},"longitude":"-0.113830"},"context":"","outcome_status":null,"persistent_id":"","id":129463359,"location_subtype":"","month":"2025-06"},{"category":"anti-social-behaviour","location_type":"Force","location":{"latitude":"51.527177","street":{"id":1676930,"name":"On or near George Mews"},"longitude":"-0.138187"},"context":"","outcome_status":null,"persistent_id":"","id":129463366,"location_subtype":"","month":"2025-06"},{"category":"anti-social-behaviour","location_type":"Force","location":{"latitude":"51.525068","street":{"id":1677550,"name":"On or near Theatre/concert Hall"},"longitude":"-0.132780"},"context":"","outcome_status":null,"persistent_id":"","id":129463455,"location_subtype":"","month":"2025-06"},{"category":"anti-social-behaviour","location_type":"Force","location":{"latitude":"51.529802","street":{"id":1683829,"name":"On or near Petrol Station"},"longitude":"-0.094810"},"context":"","outcome_status":null,"persistent_id":"","id":129463701,"location_subtype":"","month":"2025-06"},{"category":"anti-social-behaviour","location_type":"Force","location":{"latitude":"51.520953","street":{"id":1680927,"name":"On or near Portpool Lane"},"longitude":"-0.111687"},"context":"","outcome_status":null,"persistent_id":"","id":129463810,"location_subtype":"","month":"2025-06"},{"category":"anti-social-behaviour","location_type":"Force","location":{"latitude":"51.529629","street":{"id":1679374,"name":"On or near Birkenhead Street"},"longitude":"-0.121665"},"context":"","outcome_status":null,"persistent_id":"","id":129463877,"location_subtype":"","month":"2025-06"},{"category":"anti-social-behaviour","location_type":"Force","location":{"latitude":"51.539391","street":{"id":1680077,"name":"On or near Bingfield Street"},"longitude":"-0.116894"},"context":"","outcome_status":null,"persistent_id":"","id":129463950,"location_subtype":"","month":"2025-06"},{"category":"anti-social-behaviour","location_type":"Force","location":{"latitude":"51.526348","street":{"id":1679792,"name":"On or near Heathcote Street"},"longitude":"-0.118932"},"context":"","outcome_status":null,"persistent_id":"","id":129464105,"location_subtype":"","month":"2025-06"},{"category":"anti-social-behaviour","location_type":"Force","location":{"latitude":"51.536667","street":{"id":1679832,"name":"On or near Boadicea Street"},"longitude":"-0.118650"},"context":"","outcome_status":null,"persistent_id":"","id":129464204,"location_subtype":"","month":"2025-06"},{"category":"anti-social-behaviour","location_type":"Force","location":{"latitude":"51.530314","street":{"id":1680904,"name":"On or near Cruikshank Street"},"longitude":"-0.112237"},"context":"","outcome_status":null,"persistent_id":"","id":129464280,"location_subtype":"","month":"2025-06"},{"category":"anti-social-behaviour","location_type":"Force","location":{"latitude":"51.527044","street":{"id":1681559,"name":"On or near Theatre/concert Hall"},"longitude":"-0.107975"},"context":"","outcome_status":null,"persistent_id":"","id":129464771,"location_subtype":"","month":"2025-06"},{"category":"anti-social-behaviour","location_type":"Force","location":{"latitude":"51.530372","street":{"id":1678144,"name":"On or near Ossulston Street"},"longitude":"-0.129291"},"context":"","outcome_status":null,"persistent_id":"","id":129465076,"location_subtype":"","month":"2025-06"},{"category":"anti-social-behaviour","location_type":"Force","location":{"latitude":"51.524854","street":{"id":1683375,"name":"On or near Bastwick Street"},"longitude":"-0.097629"},"context":"","outcome_status":null,"persistent_id":"","id":129465081,"location_subtype":"","month":"2025-06"},{"category":"anti-social-behaviour","location_type":"Force","location":{"latitude":"51.523414","street":{"id":1680780,"name":"On or near Mount Pleasant"},"longitude":"-0.112580"},"context":"","outcome_status":null,"persistent_id":"","id":129465093,"location_subtype":"","month":"2025-06"},{"category":"anti-social-behaviour","location_type":"Force","location":{"latitude":"51.533541","street":{"id":1679449,"name":"On or near Wharfdale Road"},"longitude":"-0.120553"},"context":"","outcome_status":null,"persistent_id":"","id":129465143,"location_subtype":"","month":"2025-06"},{"category":"anti-social-behaviour","location_type":"Force","location":{"latitude":"51.514408","street":{"id":1678779,"name":"On or near Neal Street"},"longitude":"-0.125780"},"context":"","outcome_status":null,"persistent_id":"","id":129465368,"location_subtype":"","month":"2025-06"},{"category":"anti-social-behaviour","location_type":"Force","location":{"latitude":"51.515984","street":{"id":1679703,"name":"On or near Conference/exhibition Centre"},"longitude":"-0.118595"},"context":"","outcome_status":null,"persistent_id":"","id":129465374,"location_subtype":"","month":"2025-06"},{"category":"anti-social-behaviour","location_type":"Force","location":{"latitude":"51.512449","street":{"id":1680063,"name":"On or near Surrey Street"},"longitude":"-0.115772"},"context":"","outcome_status":null,"persistent_id":"","id":129465528,"location_subtype":"","month":"2025-06"},{"category":"anti-social-behaviour","location_type":"Force","location":{"latitude":"51.528620","street":{"id":1679407,"name":"On or near Argyle Street"},"longitude":"-0.121548"},"context":"","outcome_status":null,"persistent_id":"","id":129465556,"location_subtype":"","month":"2025-06"},{"category":"anti-social-behaviour","location_type":"Force","location":{"latitude":"51.517114","street":{"id":1679776,"name":"On or near Gate Street"},"longitude":"-0.119009"},"context":"","outcome_status":null,"persistent_id":"","id":129465655,"location_subtype":"","month":"2025-06"},{"category":"anti-social-behaviour","location_type":"Force","location":{"latitude":"51.537343","street":{"id":1679592,"name":"On or near Clayton Crescent"},"longitude":"-0.119315"},"context":"","outcome_status":null,"persistent_id":"","id":129466087,"location_subtype":"","month":"2025-06"},{"category":"anti-social-behaviour","location_type":"Force","location":{"latitude":"51.518456","street":{"id":1677599,"name":"On or near Percy Street"},"longitude":"-0.133209"},"context":"","outcome_status":null,"persistent_id":"","id":129466088,"location_subtype":"","month":"2025-06"},{"category":"anti-social-behaviour","location_type":"Force","location":{"latitude":"51.536107","street":{"id":1680427,"name":"On or near Leirum Street"},"longitude":"-0.114550"},"context":"","outcome_status":null,"persistent_id":"","id":129466167,"location_subtype":"","month":"2025-06"},{"category":"anti-social-behaviour","location_type":"Force","location":{"latitude":"51.538012","street":{"id":1682239,"name":"On or near Moon Street"},"longitude":"-0.103887"},"context":"","outcome_status":null,"persistent_id":"","id":129466182,"location_subtype":"","month":"2025-06"},{"category":"anti-social-behaviour","location_type":"Force","location":{"latitude":"51.532666","street":{"id":1680892,"name":"On or near Penton Street"},"longitude":"-0.111419"},"context":"","outcome_status":null,"persistent_id":"","id":129466183,"location_subtype":"","month":"2025-06"},{"category":"anti-social-behaviour","location_type":"Force","location":{"latitude":"51.514064","street":{"id":1679774,"name":"On or near Kean Street"},"longitude":"-0.118890"},"context":"","outcome_status":null,"persistent_id":"","id":129466312,"location_subtype":"","month":"2025-06"},{"category":"anti-social-behaviour","location_type":"Force","location":{"latitude":"51.526349","street":{"id":1678363,"name":"On or near Burton Street"},"longitude":"-0.127956"},"context":"","outcome_status":null,"persistent_id":"","id":129466522,"location_subtype":"","month":"2025-06"},{"category":"anti-social-behaviour","location_type":"Force","location":{"latitude":"51.522362","street":{"id":1683921,"name":"On or near Fortune Street"},"longitude":"-0.093711"},"context":"","outcome_status":null,"persistent_id":"","id":129466547,"location_subtype":"","month":"2025-06"},{"category":"anti-social-behaviour","location_type":"Force","location":{"latitude":"51.529356","street":{"id":1677861,"name":"On or near Doric Way"},"longitude":"-0.131033"},"context":"","outcome_status":null,"persistent_id":"","id":129466643,"location_subtype":"","month":"2025-06"},{"category":"anti-social-behaviour","location_type":"Force","location":{"latitude":"51.527094","street":{"id":1679346,"name":"On or near Regent Square"},"longitude":"-0.121683"},"context":"","outcome_status":null,"persistent_id":"","id":129466654,"location_subtype":"","month":"2025-06"},{"category":"anti-social-behaviour","location_type":"Force","location":{"latitude":"51.529356","street":{"id":1677861,"name":"On or near Doric Way"},"longitude":"-0.131033"},"context":"","outcome_status":null,"persistent_id":"","id":129466792,"location_subtype":"","month":"2025-06"},{"category":"anti-social-behaviour","location_type":"Force","location":{"latitude":"51.529627","street":{"id":1683204,"name":"On or near Pickard Street"},"longitude":"-0.098612"},"context":"","outcome_status":null,"persistent_id":"","id":129457834,"location_subtype":"","month":"2025-06"},{"category":"anti-social-behaviour","location_type":"Force","location":{"latitude":"51.523441","street":{"id":1682973,"name":"On or near Great Sutton Street"},"longitude":"-0.100355"},"context":"","outcome_status":null,"persistent_id":"","id":129457482,"location_subtype":"","month":"2025-06"},{"category":"anti-social-behaviour","location_type":"Force","location":{"latitude":"51.527254","street":{"id":1680196,"name":"On or near Cubitt Street"},"longitude":"-0.115997"},"context":"","outcome_status":null,"persistent_id":"","id":129449902,"location_subtype":"","month":"2025-06"},{"category":"anti-social-behaviour","location_type":"Force","location":{"latitude":"51.526531","street":{"id":1677395,"name":"On or near Euston Square"},"longitude":"-0.133773"},"context":"","outcome_status":null,"persistent_id":"","id":129457433,"location_subtype":"","month":"2025-06"},{"category":"anti-social-behaviour","location_type":"Force","location":{"latitude":"51.527175","street":{"id":1683603,"name":"On or near Lever Street"},"longitude":"-0.096033"},"context":"","outcome_status":null,"persistent_id":"","id":129456067,"location_subtype":"","month":"2025-06"},{"category":"anti-social-behaviour","location_type":"Force","location":{"latitude":"51.529356","street":{"id":1677861,"name":"On or near Doric Way"},"longitude":"-0.131033"},"context":"","outcome_status":null,"persistent_id":"","id":129453566,"location_subtype":"","month":"2025-06"},{"category":"anti-social-behaviour","location_type":"Force","location":{"latitude":"51.536729","street":{"id":1681243,"name":"On or near Doves Yard"},"longitude":"-0.109045"},"context":"","outcome_status":null,"persistent_id":"","id":129452204,"location_subtype":"","month":"2025-06"},{"category":"anti-social-behaviour","location_type":"Force","location":{"latitude":"51.531735","street":{"id":1682306,"name":"On or near Sports/recreation Area"},"longitude":"-0.103467"},"context":"","outcome_status":null,"persistent_id":"","id":129452202,"location_subtype":"","month":"2025-06"},{"category":"anti-social-behaviour","location_type":"Force","location":{"latitude":"51.530372","street":{"id":1678144,"name":"On or near Ossulston Street"},"longitude":"-0.129291"},"context":"","outcome_status":null,"persistent_id":"","id":129452139,"location_subtype":"","month":"2025-06"},{"category":"anti-social-behaviour","location_type":"Force","location":{"latitude":"51.516295","street":{"id":1678131,"name":"On or near Conference/exhibition Centre"},"longitude":"-0.129487"},"context":"","outcome_status":null,"persistent_id":"","id":129450048,"location_subtype":"","month":"2025-06"},{"category":"anti-social-behaviour","location_type":"Force","location":{"latitude":"51.520716","street":{"id":1680278,"name":"On or near Further/higher Educational Building"},"longitude":"-0.115921"},"context":"","outcome_status":null,"persistent_id":"","id":129450097,"location_subtype":"","month":"2025-06"},{"category":"anti-social-behaviour","location_type":"Force","location":{"latitude":"51.530372","street":{"id":1678144,"name":"On or near Ossulston Street"},"longitude":"-0.129291"},"context":"","outcome_status":null,"persistent_id":"","id":129452138,"location_subtype":"","month":"2025-06"},{"category":"anti-social-behaviour","location_type":"Force","location":{"latitude":"51.519680","street":{"id":1678626,"name":"On or near Montague Street"},"longitude":"-0.125347"},"context":"","outcome_status":null,"persistent_id":"","id":129452406,"location_subtype":"","month":"2025-06"},{"category":"anti-social-behaviour","location_type":"Force","location":{"latitude":"51.527713","street":{"id":1679016,"name":"On or near Speedy Place"},"longitude":"-0.124397"},"context":"","outcome_status":null,"persistent_id":"","id":129450189,"location_subtype":"","month":"2025-06"},{"category":"anti-social-behaviour","location_type":"Force","location":{"latitude":"51.516001","street":{"id":1679229,"name":"On or near Macklin Street"},"longitude":"-0.122471"},"context":"","outcome_status":null,"persistent_id":"","id":129450234,"location_subtype":"","month":"2025-06"},{"category":"anti-social-behaviour","location_type":"Force","location":{"latitude":"51.523554","street":{"id":1684085,"name":"On or near Roscoe Street"},"longitude":"-0.092926"},"context":"","outcome_status":null,"persistent_id":"","id":129451949,"location_subtype":"","month":"2025-06"},{"category":"anti-social-behaviour","location_type":"Force","location":{"latitude":"51.528060","street":{"id":1678772,"name":"On or near Hastings Street"},"longitude":"-0.125853"},"context":"","outcome_status":null,"persistent_id":"","id":129452527,"location_subtype":"","month":"2025-06"},{"category":"anti-social-behaviour","location_type":"Force","location":{"latitude":"51.536667","street":{"id":1679832,"name":"On or near Boadicea Street"},"longitude":"-0.118650"},"context":"","outcome_status":null,"persistent_id":"","id":129451470,"location_subtype":"","month":"2025-06"},{"category":"anti-social-behaviour","location_type":"Force","location":{"latitude":"51.533564","street":{"id":1682284,"name":"On or near Duncan Street"},"longitude":"-0.104072"},"context":"","outcome_status":null,"persistent_id":"","id":129454758,"location_subtype":"","month":"2025-06"},{"category":"anti-social-behaviour","location_type":"Force","location":{"latitude":"51.528630","street":{"id":1682385,"name":"On or near Earlstoke Street"},"longitude":"-0.103138"},"context":"","outcome_status":null,"persistent_id":"","id":129451453,"location_subtype":"","month":"2025-06"},{"category":"anti-social-behaviour","location_type":"Force","location":{"latitude":"51.523932","street":{"id":1683869,"name":"On or near Garrett Street"},"longitude":"-0.094554"},"context":"","outcome_status":null,"persistent_id":"","id":129456906,"location_subtype":"","month":"2025-06"},{"category":"anti-social-behaviour","location_type":"Force","location":{"latitude":"51.520121","street":{"id":1490795,"name":"On or near Lindsey Street"},"longitude":"-0.100248"},"context":"","outcome_status":null,"persistent_id":"","id":129457000,"location_subtype":"","month":"2025-06"},{"category":"anti-social-behaviour","location_type":"Force","location":{"latitude":"51.527509","street":{"id":1683702,"name":"On or near Hull Street"},"longitude":"-0.095543"},"context":"","outcome_status":null,"persistent_id":"","id":129457012,"location_subtype":"","month":"2025-06"},{"category":"anti-social-behaviour","location_type":"Force","location":{"latitude":"51.512449","street":{"id":1680063,"name":"On or near Surrey Street"},"longitude":"-0.115772"},"context":"","outcome_status":null,"persistent_id":"","id":129457013,"location_subtype":"","month":"2025-06"},{"category":"anti-social-behaviour","location_type":"Force","location":{"latitude":"51.534146","street":{"id":1677574,"name":"On or near Charrington Street"},"longitude":"-0.133043"},"context":"","outcome_status":null,"persistent_id":"","id":129444837,"location_subtype":"","month":"2025-06"},{"category":"anti-social-behaviour","location_type":"Force","location":{"latitude":"51.514600","street":{"id":1679615,"name":"On or near Keeley Street"},"longitude":"-0.120338"},"context":"","outcome_status":null,"persistent_id":"","id":129450325,"location_subtype":"","month":"2025-06"},{"category":"anti-social-behaviour","location_type":"Force","location":{"latitude":"51.537959","street":{"id":1679733,"name":"On or near Bemerton Street"},"longitude":"-0.118987"},"context":"","outcome_status":null,"persistent_id":"","id":129445363,"location_subtype":"","month":"2025-06"},{"category":"anti-social-behaviour","location_type":"Force","location":{"latitude":"51.533168","street":{"id":1678300,"name":"On or near Coopers Lane"},"longitude":"-0.129277"},"context":"","outcome_status":null,"persistent_id":"","id":129454335,"location_subtype":"","month":"2025-06"},{"category":"anti-social-behaviour","location_type":"Force","location":{"latitude":"51.518456","street":{"id":1677599,"name":"On or near Percy Street"},"longitude":"-0.133209"},"context":"","outcome_status":null,"persistent_id":"","id":129448780,"location_subtype":"","month":"2025-06"},{"category":"anti-social-behaviour","location_type":"Force","location":{"latitude":"51.536947","street":{"id":1679736,"name":"On or near B514"},"longitude":"-0.119273"},"context":"","outcome_status":null,"persistent_id":"","id":129451848,"location_subtype":"","month":"2025-06"},{"category":"anti-social-behaviour","location_type":"Force","location":{"latitude":"51.527044","street":{"id":1681559,"name":"On or near Theatre/concert Hall"},"longitude":"-0.107975"},"context":"","outcome_status":null,"persistent_id":"","id":129452398,"location_subtype":"","month":"2025-06"},{"category":"anti-social-behaviour","location_type":"Force","location":{"latitude":"51.524995","street":{"id":1678053,"name":"On or near Endsleigh Place"},"longitude":"-0.131010"},"context":"","outcome_status":null,"persistent_id":"","id":129451316,"location_subtype":"","month":"2025-06"},{"category":"anti-social-behaviour","location_type":"Force","location":{"latitude":"51.527177","street":{"id":1676930,"name":"On or near George Mews"},"longitude":"-0.138187"},"context":"","outcome_status":null,"persistent_id":"","id":129451209,"location_subtype":"","month":"2025-06"},{"category":"anti-social-behaviour","location_type":"Force","location":{"latitude":"51.526069","street":{"id":1681362,"name":"On or near Exmouth Market"},"longitude":"-0.108809"},"context":"","outcome_status":null,"persistent_id":"","id":129450449,"location_subtype":"","month":"2025-06"},{"category":"anti-social-behaviour","location_type":"Force","location":{"latitude":"51.530372","street":{"id":1678144,"name":"On or near Ossulston Street"},"longitude":"-0.129291"},"context":"","outcome_status":null,"persistent_id":"","id":129451208,"location_subtype":"","month":"2025-06"},{"category":"anti-social-behaviour","location_type":"Force","location":{"latitude":"51.513046","street":{"id":1679162,"name":"On or near Theatre/concert Hall"},"longitude":"-0.122679"},"context":"","outcome_status":null,"persistent_id":"","id":129450558,"location_subtype":"","month":"2025-06"},{"category":"anti-social-behaviour","location_type":"Force","location":{"latitude":"51.531428","street":{"id":1678653,"name":"On or near Shopping Area"},"longitude":"-0.126147"},"context":"","outcome_status":null,"persistent_id":"","id":129454627,"location_subtype":"","month":"2025-06"},{"category":"anti-social-behaviour","location_type":"Force","location":{"latitude":"51.531795","street":{"id":1683573,"name":"On or near Park/open Space"},"longitude":"-0.095350"},"context":"","outcome_status":null,"persistent_id":"","id":129454911,"location_subtype":"","month":"2025-06"},{"category":"anti-social-behaviour","location_type":"Force","location":{"latitude":"51.531273","street":{"id":1679456,"name":"On or near Omega Place"},"longitude":"-0.120992"},"context":"","outcome_status":null,"persistent_id":"","id":129454632,"location_subtype":"","month":"2025-06"},{"category":"anti-social-behaviour","location_type":"Force","location":{"latitude":"51.534300","street":{"id":1682047,"name":"On or near Islington High Street"},"longitude":"-0.104574"},"context":"","outcome_status":null,"persistent_id":"","id":129454783,"location_subtype":"","month":"2025-06"},{"category":"anti-social-behaviour","location_type":"Force","location":{"latitude":"51.538136","street":{"id":1681826,"name":"On or near Gibson Square"},"longitude":"-0.105958"},"context":"","outcome_status":null,"persistent_id":"","id":129450936,"location_subtype":"","month":"2025-06"},{"category":"anti-social-behaviour","location_type":"Force","location":{"latitude":"51.520953","street":{"id":1680927,"name":"On or near Portpool Lane"},"longitude":"-0.111687"},"context":"","outcome_status":null,"persistent_id":"","id":129454785,"location_subtype":"","month":"2025-06"},{"category":"anti-social-behaviour","location_type":"Force","location":{"latitude":"51.538050","street":{"id":1679448,"name":"On or near Outram Place"},"longitude":"-0.120771"},"context":"","outcome_status":null,"persistent_id":"","id":129455146,"location_subtype":"","month":"2025-06"},{"category":"anti-social-behaviour","location_type":"Force","location":{"latitude":"51.538136","street":{"id":1681826,"name":"On or near Gibson Square"},"longitude":"-0.105958"},"context":"","outcome_status":null,"persistent_id":"","id":129453598,"location_subtype":"","month":"2025-06"},{"category":"anti-social-behaviour","location_type":"Force","location":{"latitude":"51.512863","street":{"id":1679427,"name":"On or near Russell Street"},"longitude":"-0.120842"},"context":"","outcome_status":null,"persistent_id":"","id":129453595,"location_subtype":"","month":"2025-06"},{"category":"anti-social-behaviour","location_type":"Force","location":{"latitude":"51.514600","street":{"id":1679615,"name":"On or near Keeley Street"},"longitude":"-0.120338"},"context":"","outcome_status":null,"persistent_id":"","id":129452692,"location_subtype":"","month":"2025-06"},{"category":"anti-social-behaviour","location_type":"Force","location":{"latitude":"51.521441","street":{"id":1679726,"name":"On or near Orde Hall Street"},"longitude":"-0.119062"},"context":"","outcome_status":null,"persistent_id":"","id":129452680,"location_subtype":"","month":"2025-06"},{"category":"anti-social-behaviour","location_type":"Force","location":{"latitude":"51.527298","street":{"id":1678231,"name":"On or near Theatre/concert Hall"},"longitude":"-0.128988"},"context":"","outcome_status":null,"persistent_id":"","id":129455441,"location_subtype":"","month":"2025-06"},{"category":"anti-social-behaviour","location_type":"Force","location":{"latitude":"51.531190","street":{"id":1679626,"name":"On or near Theatre/concert Hall"},"longitude":"-0.119727"},"context":"","outcome_status":null,"persistent_id":"","id":129455824,"location_subtype":"","month":"2025-06"},