[{"category":"anti-social-behaviour","location_type":"Force","location":{"latitude":"51.527088","street":{"id":1683986,"name":"On or near Galway Street"},"longitude":"-0.093427"},"context":"","outcome_status":null,"persistent_id":"","id":132868396,"location_subtype":"","month":"2025-12"},{"category":"anti-social-behaviour","location_type":"Force","location":{"latitude":"51.536947","street":{"id":1679736,"name":"On or near B514"},"longitude":"-0.119273"},"context":"","outcome_status":null,"persistent_id":"","id":132870962,"location_subtype":"","month":"2025-12"},{"category":"anti-social-behaviour","location_type":"Force","location":{"latitude":"51.534450","street":{"id":1680368,"name":"On or near Muriel Street"},"longitude":"-0.114964"},"context":"","outcome_status":null,"persistent_id":"","id":132871675,"location_subtype":"","month":"2025-12"},{"category":"anti-social-behaviour","location_type":"Force","location":{"latitude":"51.514369","street":{"id":1679259,"name":"On or near Drury Lane"},"longitude":"-0.121645"},"context":"","outcome_status":null,"persistent_id":"","id":132871662,"location_subtype":"","month":"2025-12"},{"category":"anti-social-behaviour","location_type":"Force","location":{"latitude":"51.527618","street":{"id":1681615,"name":"On or near Green Terrace"},"longitude":"-0.107317"},"context":"","outcome_status":null,"persistent_id":"","id":132874903,"location_subtype":"","month":"2025-12"},{"category":"anti-social-behaviour","location_type":"Force","location":{"latitude":"51.530372","street":{"id":1678144,"name":"On or near Ossulston Street"},"longitude":"-0.129291"},"context":"","outcome_status":null,"persistent_id":"","id":132870620,"location_subtype":"","month":"2025-12"},{"category":"anti-social-behaviour","location_type":"Force","location":{"latitude":"51.536473","street":{"id":1682586,"name":"On or near Elliott's Place"},"longitude":"-0.100995"},"context":"","outcome_status":null,"persistent_id":"","id":132871087,"location_subtype":"","month":"2025-12"},{"category":"anti-social-behaviour","location_type":"Force","location":{"latitude":"51.526980","street":{"id":1682574,"name":"On or near Northampton Square"},"longitude":"-0.102341"},"context":"","outcome_status":null,"persistent_id":"","id":132873724,"location_subtype":"","month":"2025-12"},{"category":"anti-social-behaviour","location_type":"Force","location":{"latitude":"51.536667","street":{"id":1679832,"name":"On or near Boadicea Street"},"longitude":"-0.118650"},"context":"","outcome_status":null,"persistent_id":"","id":132877219,"location_subtype":"","month":"2025-12"},{"category":"anti-social-behaviour","location_type":"Force","location":{"latitude":"51.520779","street":{"id":1681637,"name":"On or near St Cross Street"},"longitude":"-0.107586"},"context":"","outcome_status":null,"persistent_id":"","id":132875630,"location_subtype":"","month":"2025-12"},{"category":"anti-social-behaviour","location_type":"Force","location":{"latitude":"51.533168","street":{"id":1678300,"name":"On or near Coopers Lane"},"longitude":"-0.129277"},"context":"","outcome_status":null,"persistent_id":"","id":132871302,"location_subtype":"","month":"2025-12"},{"category":"anti-social-behaviour","location_type":"Force","location":{"latitude":"51.523129","street":{"id":1676985,"name":"On or near Midford Place"},"longitude":"-0.137530"},"context":"","outcome_status":null,"persistent_id":"","id":132868801,"location_subtype":"","month":"2025-12"},{"category":"anti-social-behaviour","location_type":"Force","location":{"latitude":"51.522850","street":{"id":1680776,"name":"On or near Pooles Buildings"},"longitude":"-0.112733"},"context":"","outcome_status":null,"persistent_id":"","id":132872895,"location_subtype":"","month":"2025-12"},{"category":"anti-social-behaviour","location_type":"Force","location":{"latitude":"51.526980","street":{"id":1682574,"name":"On or near Northampton Square"},"longitude":"-0.102341"},"context":"","outcome_status":null,"persistent_id":"","id":132868707,"location_subtype":"","month":"2025-12"},{"category":"anti-social-behaviour","location_type":"Force","location":{"latitude":"51.527981","street":{"id":1679336,"name":"On or near Tankerton Street"},"longitude":"-0.122079"},"context":"","outcome_status":null,"persistent_id":"","id":132871609,"location_subtype":"","month":"2025-12"},{"category":"anti-social-behaviour","location_type":"Force","location":{"latitude":"51.529796","street":{"id":1679933,"name":"On or near Parking Area"},"longitude":"-0.118025"},"context":"","outcome_status":null,"persistent_id":"","id":132871388,"location_subtype":"","month":"2025-12"},{"category":"anti-social-behaviour","location_type":"Force","location":{"latitude":"51.516820","street":{"id":1678501,"name":"On or near Dyott Street"},"longitude":"-0.127583"},"context":"","outcome_status":null,"persistent_id":"","id":132868432,"location_subtype":"","month":"2025-12"},{"category":"anti-social-behaviour","location_type":"Force","location":{"latitude":"51.528620","street":{"id":1679407,"name":"On or near Argyle Street"},"longitude":"-0.121548"},"context":"","outcome_status":null,"persistent_id":"","id":132868252,"location_subtype":"","month":"2025-12"},{"category":"anti-social-behaviour","location_type":"Force","location":{"latitude":"51.536473","street":{"id":1682586,"name":"On or near Elliott's Place"},"longitude":"-0.100995"},"context":"","outcome_status":null,"persistent_id":"","id":132872901,"location_subtype":"","month":"2025-12"},{"category":"anti-social-behaviour","location_type":"Force","location":{"latitude":"51.525943","street":{"id":1682825,"name":"On or near Cyrus Street"},"longitude":"-0.101000"},"context":"","outcome_status":null,"persistent_id":"","id":132868212,"location_subtype":"","month":"2025-12"},{"category":"anti-social-behaviour","location_type":"Force","location":{"latitude":"51.515449","street":{"id":1679081,"name":"On or near Drury Lane"},"longitude":"-0.123373"},"context":"","outcome_status":null,"persistent_id":"","id":132868051,"location_subtype":"","month":"2025-12"},{"category":"anti-social-behaviour","location_type":"Force","location":{"latitude":"51.529144","street":{"id":1677208,"name":"On or near London Euston"},"longitude":"-0.135209"},"context":"","outcome_status":null,"persistent_id":"","id":132867880,"location_subtype":"","month":"2025-12"},{"category":"anti-social-behaviour","location_type":"Force","location":{"latitude":"51.523252","street":{"id":1678272,"name":"On or near Parking Area"},"longitude":"-0.127189"},"context":"","outcome_status":null,"persistent_id":"","id":132871269,"location_subtype":"","month":"2025-12"},{"category":"anti-social-behaviour","location_type":"Force","location":{"latitude":"51.533983","street":{"id":1680936,"name":"On or near Penton Street"},"longitude":"-0.111624"},"context":"","outcome_status":null,"persistent_id":"","id":132873030,"location_subtype":"","month":"2025-12"},{"category":"anti-social-behaviour","location_type":"Force","location":{"latitude":"51.534779","street":{"id":1682378,"name":"On or near Shalford Court"},"longitude":"-0.103055"},"context":"","outcome_status":null,"persistent_id":"","id":132867080,"location_subtype":"","month":"2025-12"},{"category":"anti-social-behaviour","location_type":"Force","location":{"latitude":"51.525560","street":{"id":1677387,"name":"On or near Euston Square"},"longitude":"-0.134908"},"context":"","outcome_status":null,"persistent_id":"","id":132871171,"location_subtype":"","month":"2025-12"},{"category":"anti-social-behaviour","location_type":"Force","location":{"latitude":"51.527191","street":{"id":1680564,"name":"On or near Gwynne Place"},"longitude":"-0.114269"},"context":"","outcome_status":null,"persistent_id":"","id":132872658,"location_subtype":"","month":"2025-12"},{"category":"anti-social-behaviour","location_type":"Force","location":{"latitude":"51.527855","street":{"id":1679302,"name":"On or near Cromer Street"},"longitude":"-0.122027"},"context":"","outcome_status":null,"persistent_id":"","id":132871085,"location_subtype":"","month":"2025-12"},{"category":"anti-social-behaviour","location_type":"Force","location":{"latitude":"51.533541","street":{"id":1679449,"name":"On or near Wharfdale Road"},"longitude":"-0.120553"},"context":"","outcome_status":null,"persistent_id":"","id":132872664,"location_subtype":"","month":"2025-12"},{"category":"anti-social-behaviour","location_type":"Force","location":{"latitude":"51.534146","street":{"id":1677574,"name":"On or near Charrington Street"},"longitude":"-0.133043"},"context":"","outcome_status":null,"persistent_id":"","id":132871563,"location_subtype":"","month":"2025-12"},{"category":"anti-social-behaviour","location_type":"Force","location":{"latitude":"51.523598","street":{"id":1678155,"name":"On or near Woburn Square"},"longitude":"-0.129684"},"context":"","outcome_status":null,"persistent_id":"","id":132872889,"location_subtype":"","month":"2025-12"},{"category":"anti-social-behaviour","location_type":"Force","location":{"latitude":"51.533469","street":{"id":1681381,"name":"On or near Chapel Market"},"longitude":"-0.109338"},"context":"","outcome_status":null,"persistent_id":"","id":132873103,"location_subtype":"","month":"2025-12"},{"category":"anti-social-behaviour","location_type":"Force","location":{"latitude":"51.520901","street":{"id":1490851,"name":"On or near Theatre/concert Hall"},"longitude":"-0.094017"},"context":"","outcome_status":null,"persistent_id":"","id":132839315,"location_subtype":"","month":"2025-12"},{"category":"anti-social-behaviour","location_type":"Force","location":{"latitude":"51.527347","street":{"id":1678953,"name":"On or near Judd Street"},"longitude":"-0.124585"},"context":"","outcome_status":null,"persistent_id":"","id":132873163,"location_subtype":"","month":"2025-12"},{"category":"anti-social-behaviour","location_type":"Force","location":{"latitude":"51.533375","street":{"id":1681067,"name":"On or near Grant Street"},"longitude":"-0.110726"},"context":"","outcome_status":null,"persistent_id":"","id":132873203,"location_subtype":"","month":"2025-12"},{"category":"anti-social-behaviour","location_type":"Force","location":{"latitude":"51.532933","street":{"id":1679199,"name":"On or near Railway Street"},"longitude":"-0.122452"},"context":"","outcome_status":null,"persistent_id":"","id":132872026,"location_subtype":"","month":"2025-12"},{"category":"anti-social-behaviour","location_type":"Force","location":{"latitude":"51.514903","street":{"id":1680610,"name":"On or near Carey Street"},"longitude":"-0.113494"},"context":"","outcome_status":null,"persistent_id":"","id":132873207,"location_subtype":"","month":"2025-12"},{"category":"anti-social-behaviour","location_type":"Force","location":{"latitude":"51.529798","street":{"id":1677707,"name":"On or near Drummond Crescent"},"longitude":"-0.132212"},"context":"","outcome_status":null,"persistent_id":"","id":132873237,"location_subtype":"","month":"2025-12"},{"category":"anti-social-behaviour","location_type":"Force","location":{"latitude":"51.516341","street":{"id":1679597,"name":"On or near Nightclub"},"longitude":"-0.120151"},"context":"","outcome_status":null,"persistent_id":"","id":132873258,"location_subtype":"","month":"2025-12"},{"category":"anti-social-behaviour","location_type":"Force","location":{"latitude":"51.517265","street":{"id":1678861,"name":"On or near Museum Street"},"longitude":"-0.125071"},"context":"","outcome_status":null,"persistent_id":"","id":132873328,"location_subtype":"","month":"2025-12"},{"category":"anti-social-behaviour","location_type":"Force","location":{"latitude":"51.519092","street":{"id":1679240,"name":"On or near Bloomsbury Square"},"longitude":"-0.122330"},"context":"","outcome_status":null,"persistent_id":"","id":132873507,"location_subtype":"","month":"2025-12"},{"category":"anti-social-behaviour","location_type":"Force","location":{"latitude":"51.529627","street":{"id":1683204,"name":"On or near Pickard Street"},"longitude":"-0.098612"},"context":"","outcome_status":null,"persistent_id":"","id":132873655,"location_subtype":"","month":"2025-12"},{"category":"anti-social-behaviour","location_type":"Force","location":{"latitude":"51.526980","street":{"id":1682574,"name":"On or near Northampton Square"},"longitude":"-0.102341"},"context":"","outcome_status":null,"persistent_id":"","id":132873713,"location_subtype":"","month":"2025-12"},{"category":"anti-social-behaviour","location_type":"Force","location":{"latitude":"51.529796","street":{"id":1679933,"name":"On or near Parking Area"},"longitude":"-0.118025"},"context":"","outcome_status":null,"persistent_id":"","id":132873782,"location_subtype":"","month":"2025-12"},{"category":"anti-social-behaviour","location_type":"Force","location":{"latitude":"51.516785","street":{"id":1678562,"name":"On or near Theatre/concert Hall"},"longitude":"-0.126532"},"context":"","outcome_status":null,"persistent_id":"","id":132871862,"location_subtype":"","month":"2025-12"},{"category":"anti-social-behaviour","location_type":"Force","location":{"latitude":"51.525189","street":{"id":1677063,"name":"On or near Hospital"},"longitude":"-0.135889"},"context":"","outcome_status":null,"persistent_id":"","id":132873881,"location_subtype":"","month":"2025-12"},{"category":"anti-social-behaviour","location_type":"Force","location":{"latitude":"51.531735","street":{"id":1682306,"name":"On or near Sports/recreation Area"},"longitude":"-0.103467"},"context":"","outcome_status":null,"persistent_id":"","id":132872093,"location_subtype":"","month":"2025-12"},{"category":"anti-social-behaviour","location_type":"Force","location":{"latitude":"51.526930","street":{"id":1677308,"name":"On or near Euston Street"},"longitude":"-0.135660"},"context":"","outcome_status":null,"persistent_id":"","id":132873955,"location_subtype":"","month":"2025-12"},{"category":"anti-social-behaviour","location_type":"Force","location":{"latitude":"51.522284","street":{"id":1678831,"name":"On or near Russell Square"},"longitude":"-0.125153"},"context":"","outcome_status":null,"persistent_id":"","id":132874061,"location_subtype":"","month":"2025-12"},{"category":"anti-social-behaviour","location_type":"Force","location":{"latitude":"51.526611","street":{"id":1676996,"name":"On or near North Gower Street"},"longitude":"-0.137100"},"context":"","outcome_status":null,"persistent_id":"","id":132874206,"location_subtype":"","month":"2025-12"},{"category":"anti-social-behaviour","location_type":"Force","location":{"latitude":"51.534273","street":{"id":1681595,"name":"On or near Supermarket"},"longitude":"-0.107315"},"context":"","outcome_status":null,"persistent_id":"","id":132874338,"location_subtype":"","month":"2025-12"},{"category":"anti-social-behaviour","location_type":"Force","location":{"latitude":"51.516295","street":{"id":1678131,"name":"On or near Conference/exhibition Centre"},"longitude":"-0.129487"},"context":"","outcome_status":null,"persistent_id":"","id":132874377,"location_subtype":"","month":"2025-12"},{"category":"anti-social-behaviour","location_type":"Force","location":{"latitude":"51.530372","street":{"id":1678144,"name":"On or near Ossulston Street"},"longitude":"-0.129291"},"context":"","outcome_status":null,"persistent_id":"","id":132872139,"location_subtype":"","month":"2025-12"},{"category":"anti-social-behaviour","location_type":"Force","location":{"latitude":"51.533541","street":{"id":1679449,"name":"On or near Wharfdale Road"},"longitude":"-0.120553"},"context":"","outcome_status":null,"persistent_id":"","id":132874388,"location_subtype":"","month":"2025-12"},{"category":"anti-social-behaviour","location_type":"Force","location":{"latitude":"51.521006","street":{"id":1677513,"name":"On or near Alfred Mews"},"longitude":"-0.134100"},"context":"","outcome_status":null,"persistent_id":"","id":132879577,"location_subtype":"","month":"2025-12"},{"category":"anti-social-behaviour","location_type":"Force","location":{"latitude":"51.527088","street":{"id":1683986,"name":"On or near Galway Street"},"longitude":"-0.093427"},"context":"","outcome_status":null,"persistent_id":"","id":132879097,"location_subtype":"","month":"2025-12"},{"category":"anti-social-behaviour","location_type":"Force","location":{"latitude":"51.521138","street":{"id":1679848,"name":"On or near Dombey Street"},"longitude":"-0.118671"},"context":"","outcome_status":null,"persistent_id":"","id":132872328,"location_subtype":"","month":"2025-12"},{"category":"anti-social-behaviour","location_type":"Force","location":{"latitude":"51.529766","street":{"id":1679334,"name":"On or near St Chad's Street"},"longitude":"-0.121790"},"context":"","outcome_status":null,"persistent_id":"","id":132877773,"location_subtype":"","month":"2025-12"},{"category":"anti-social-behaviour","location_type":"Force","location":{"latitude":"51.516568","street":{"id":1679291,"name":"On or near Newton Street"},"longitude":"-0.121381"},"context":"","outcome_status":null,"persistent_id":"","id":132877441,"location_subtype":"","month":"2025-12"},{"category":"anti-social-behaviour","location_type":"Force","location":{"latitude":"51.528633","street":{"id":1678576,"name":"On or near Bidborough Street"},"longitude":"-0.125729"},"context":"","outcome_status":null,"persistent_id":"","id":132879239,"location_subtype":"","month":"2025-12"},{"category":"anti-social-behaviour","location_type":"Force","location":{"latitude":"51.528614","street":{"id":1683377,"name":"On or near Macclesfield Road"},"longitude":"-0.096622"},"context":"","outcome_status":null,"persistent_id":"","id":132879171,"location_subtype":"","month":"2025-12"},{"category":"anti-social-behaviour","location_type":"Force","location":{"latitude":"51.518313","street":{"id":1678950,"name":"On or near Bury Place"},"longitude":"-0.124236"},"context":"","outcome_status":null,"persistent_id":"","id":132879005,"location_subtype":"","month":"2025-12"},{"category":"anti-social-behaviour","location_type":"Force","location":{"latitude":"51.527461","street":{"id":1682880,"name":"On or near Goswell Place"},"longitude":"-0.100894"},"context":"","outcome_status":null,"persistent_id":"","id":132878984,"location_subtype":"","month":"2025-12"},{"category":"anti-social-behaviour","location_type":"Force","location":{"latitude":"51.528365","street":{"id":1678004,"name":"On or near Churchway"},"longitude":"-0.130296"},"context":"","outcome_status":null,"persistent_id":"","id":132872338,"location_subtype":"","month":"2025-12"},{"category":"anti-social-behaviour","location_type":"Force","location":{"latitude":"51.537406","street":{"id":1681469,"name":"On or near Cloudesley Square"},"longitude":"-0.108642"},"context":"","outcome_status":null,"persistent_id":"","id":132878948,"location_subtype":"","month":"2025-12"},{"category":"anti-social-behaviour","location_type":"Force","location":{"latitude":"51.527608","street":{"id":1678877,"name":"On or near Conference/exhibition Centre"},"longitude":"-0.124603"},"context":"","outcome_status":null,"persistent_id":"","id":132878929,"location_subtype":"","month":"2025-12"},{"category":"anti-social-behaviour","location_type":"Force","location":{"latitude":"51.533375","street":{"id":1681067,"name":"On or near Grant Street"},"longitude":"-0.110726"},"context":"","outcome_status":null,"persistent_id":"","id":132878878,"location_subtype":"","month":"2025-12"},{"category":"anti-social-behaviour","location_type":"Force","location":{"latitude":"51.527347","street":{"id":1678953,"name":"On or near Judd Street"},"longitude":"-0.124585"},"context":"","outcome_status":null,"persistent_id":"","id":132878869,"location_subtype":"","month":"2025-12"},{"category":"anti-social-behaviour","location_type":"Force","location":{"latitude":"51.538624","street":{"id":1680538,"name":"On or near Boxworth Grove"},"longitude":"-0.112802"},"context":"","outcome_status":null,"persistent_id":"","id":132878748,"location_subtype":"","month":"2025-12"},{"category":"anti-social-behaviour","location_type":"Force","location":{"latitude":"51.533469","street":{"id":1681381,"name":"On or near Chapel Market"},"longitude":"-0.109338"},"context":"","outcome_status":null,"persistent_id":"","id":132878624,"location_subtype":"","month":"2025-12"},{"category":"anti-social-behaviour","location_type":"Force","location":{"latitude":"51.519092","street":{"id":1679240,"name":"On or near Bloomsbury Square"},"longitude":"-0.122330"},"context":"","outcome_status":null,"persistent_id":"","id":132878531,"location_subtype":"","month":"2025-12"},{"category":"anti-social-behaviour","location_type":"Force","location":{"latitude":"51.525787","street":{"id":1681911,"name":"On or near Skinner Street"},"longitude":"-0.105836"},"context":"","outcome_status":null,"persistent_id":"","id":132878159,"location_subtype":"","month":"2025-12"},{"category":"anti-social-behaviour","location_type":"Force","location":{"latitude":"51.517845","street":{"id":1679284,"name":"On or near Further/higher Educational Building"},"longitude":"-0.121977"},"context":"","outcome_status":null,"persistent_id":"","id":132864993,"location_subtype":"","month":"2025-12"},{"category":"anti-social-behaviour","location_type":"Force","location":{"latitude":"51.523129","street":{"id":1676985,"name":"On or near Midford Place"},"longitude":"-0.137530"},"context":"","outcome_status":null,"persistent_id":"","id":132865192,"location_subtype":"","month":"2025-12"},{"category":"anti-social-behaviour","location_type":"Force","location":{"latitude":"51.516820","street":{"id":1678501,"name":"On or near Dyott Street"},"longitude":"-0.127583"},"context":"","outcome_status":null,"persistent_id":"","id":132878150,"location_subtype":"","month":"2025-12"},{"category":"anti-social-behaviour","location_type":"Force","location":{"latitude":"51.523437","street":{"id":1679921,"name":"On or near Millman Street"},"longitude":"-0.117942"},"context":"","outcome_status":null,"persistent_id":"","id":132877917,"location_subtype":"","month":"2025-12"},{"category":"anti-social-behaviour","location_type":"Force","location":{"latitude":"51.517265","street":{"id":1678861,"name":"On or near Museum Street"},"longitude":"-0.125071"},"context":"","outcome_status":null,"persistent_id":"","id":132877774,"location_subtype":"","month":"2025-12"},{"category":"anti-social-behaviour","location_type":"Force","location":{"latitude":"51.532189","street":{"id":1683006,"name":"On or near Rocliffe Street"},"longitude":"-0.100250"},"context":"","outcome_status":null,"persistent_id":"","id":132877631,"location_subtype":"","month":"2025-12"},{"category":"anti-social-behaviour","location_type":"Force","location":{"latitude":"51.537738","street":{"id":1682840,"name":"On or near Horse Yard"},"longitude":"-0.100279"},"context":"","outcome_status":null,"persistent_id":"","id":132877630,"location_subtype":"","month":"2025-12"},{"category":"anti-social-behaviour","location_type":"Force","location":{"latitude":"51.529627","street":{"id":1683204,"name":"On or near Pickard Street"},"longitude":"-0.098612"},"context":"","outcome_status":null,"persistent_id":"","id":132871935,"location_subtype":"","month":"2025-12"},{"category":"anti-social-behaviour","location_type":"Force","location":{"latitude":"51.533375","street":{"id":1681067,"name":"On or near Grant Street"},"longitude":"-0.110726"},"context":"","outcome_status":null,"persistent_id":"","id":132877623,"location_subtype":"","month":"2025-12"},{"category":"anti-social-behaviour","location_type":"Force","location":{"latitude":"51.519092","street":{"id":1679240,"name":"On or near Bloomsbury Square"},"longitude":"-0.122330"},"context":"","outcome_status":null,"persistent_id":"","id":132877479,"location_subtype":"","month":"2025-12"},{"category":"anti-social-behaviour","location_type":"Force","location":{"latitude":"51.515869","street":{"id":1679355,"name":"On or near Parker Street"},"longitude":"-0.121554"},"context":"","outcome_status":null,"persistent_id":"","id":132877447,"location_subtype":"","month":"2025-12"},{"category":"anti-social-behaviour","location_type":"Force","location":{"latitude":"51.527023","street":{"id":1681661,"name":"On or near Garnault Place"},"longitude":"-0.107760"},"context":"","outcome_status":null,"persistent_id":"","id":132877409,"location_subtype":"","month":"2025-12"},{"category":"anti-social-behaviour","location_type":"Force","location":{"latitude":"51.533469","street":{"id":1681381,"name":"On or near Chapel Market"},"longitude":"-0.109338"},"context":"","outcome_status":null,"persistent_id":"","id":132877406,"location_subtype":"","month":"2025-12"},{"category":"anti-social-behaviour","location_type":"Force","location":{"latitude":"51.539391","street":{"id":1680077,"name":"On or near Bingfield Street"},"longitude":"-0.116894"},"context":"","outcome_status":null,"persistent_id":"","id":132877364,"location_subtype":"","month":"2025-12"},{"category":"anti-social-behaviour","location_type":"Force","location":{"latitude":"51.529796","street":{"id":1679933,"name":"On or near Parking Area"},"longitude":"-0.118025"},"context":"","outcome_status":null,"persistent_id":"","id":132877259,"location_subtype":"","month":"2025-12"},{"category":"anti-social-behaviour","location_type":"Force","location":{"latitude":"51.527713","street":{"id":1679016,"name":"On or near Speedy Place"},"longitude":"-0.124397"},"context":"","outcome_status":null,"persistent_id":"","id":132877658,"location_subtype":"","month":"2025-12"},{"category":"anti-social-behaviour","location_type":"Force","location":{"latitude":"51.518106","street":{"id":1680014,"name":"On or near Race Track"},"longitude":"-0.116951"},"context":"","outcome_status":null,"persistent_id":"","id":132877033,"location_subtype":"","month":"2025-12"},{"category":"anti-social-behaviour","location_type":"Force","location":{"latitude":"51.531073","street":{"id":1683551,"name":"On or near Wharf Road"},"longitude":"-0.095726"},"context":"","outcome_status":null,"persistent_id":"","id":132876734,"location_subtype":"","month":"2025-12"},{"category":"anti-social-behaviour","location_type":"Force","location":{"latitude":"51.525943","street":{"id":1682825,"name":"On or near Cyrus Street"},"longitude":"-0.101000"},"context":"","outcome_status":null,"persistent_id":"","id":132872464,"location_subtype":"","month":"2025-12"},{"category":"anti-social-behaviour","location_type":"Force","location":{"latitude":"51.516820","street":{"id":1678501,"name":"On or near Dyott Street"},"longitude":"-0.127583"},"context":"","outcome_status":null,"persistent_id":"","id":132872471,"location_subtype":"","month":"2025-12"},{"category":"anti-social-behaviour","location_type":"Force","location":{"latitude":"51.538012","street":{"id":1682239,"name":"On or near Moon Street"},"longitude":"-0.103887"},"context":"","outcome_status":null,"persistent_id":"","id":132876699,"location_subtype":"","month":"2025-12"},{"category":"anti-social-behaviour","location_type":"Force","location":{"latitude":"51.532933","street":{"id":1679199,"name":"On or near Railway Street"},"longitude":"-0.122452"},"context":"","outcome_status":null,"persistent_id":"","id":132876586,"location_subtype":"","month":"2025-12"},{"category":"anti-social-behaviour","location_type":"Force","location":{"latitude":"51.515984","street":{"id":1679703,"name":"On or near Conference/exhibition Centre"},"longitude":"-0.118595"},"context":"","outcome_status":null,"persistent_id":"","id":132876388,"location_subtype":"","month":"2025-12"},{"category":"anti-social-behaviour","location_type":"Force","location":{"latitude":"51.516820","street":{"id":1678501,"name":"On or near Dyott Street"},"longitude":"-0.127583"},"context":"","outcome_status":null,"persistent_id":"","id":132876300,"location_subtype":"","month":"2025-12"},{"category":"anti-social-behaviour","location_type":"Force","location":{"latitude":"51.521877","street":{"id":1677229,"name":"On or near Howland Mews East"},"longitude":"-0.136241"},"context":"","outcome_status":null,"persistent_id":"","id":132876271,"location_subtype":"","month":"2025-12"},{"category":"anti-social-behaviour","location_type":"Force","location":{"latitude":"51.528267","street":{"id":1678913,"name":"On or near Tonbridge Street"},"longitude":"-0.124216"},"context":"","outcome_status":null,"persistent_id":"","id":132876085,"location_subtype":"","month":"2025-12"},{"category":"anti-social-behaviour","location_type":"Force","location":{"latitude":"51.532933","street":{"id":1679199,"name":"On or near Railway Street"},"longitude":"-0.122452"},"context":"","outcome_status":null,"persistent_id":"","id":132867038,"location_subtype":"","month":"2025-12"},{"category":"anti-social-behaviour","location_type":"Force","location":{"latitude":"51.531668","street":{"id":1677602,"name":"On or near Polygon Road"},"longitude":"-0.132727"},"context":"","outcome_status":null,"persistent_id":"","id":132866733,"location_subtype":"","month":"2025-12"},{"category":"anti-social-behaviour","location_type":"Force","location":{"latitude":"51.518456","street":{"id":1677599,"name":"On or near Percy Street"},"longitude":"-0.133209"},"context":"","outcome_status":null,"persistent_id":"","id":132866544,"location_subtype":"","month":"2025-12"},{"category":"anti-social-behaviour","location_type":"Force","location":{"latitude":"51.522216","street":{"id":1677558,"name":"On or near Torrington Place"},"longitude":"-0.133257"},"context":"","outcome_status":null,"persistent_id":"","id":132866410,"location_subtype":"","month":"2025-12"},{"category":"anti-social-behaviour","location_type":"Force","location":{"latitude":"51.534675","street":{"id":1681642,"name":"On or near Liverpool Road"},"longitude":"-0.107154"},"context":"","outcome_status":null,"persistent_id":"","id":132865524,"location_subtype":"","month":"2025-12"},{"category":"anti-social-behaviour","location_type":"Force","location":{"latitude":"51.516275","street":{"id":1678661,"name":"On or near Theatre/concert Hall"},"longitude":"-0.126121"},"context":"","outcome_status":null,"persistent_id":"","id":132866387,"location_subtype":"","month":"2025-12"},{"category":"anti-social-behaviour","location_type":"Force","location":{"latitude":"51.533541","street":{"id":1679449,"name":"On or near Wharfdale Road"},"longitude":"-0.120553"},"context":"","outcome_status":null,"persistent_id":"","id":132872519,"location_subtype":"","month":"2025-12"},{"category":"anti-social-behaviour","location_type":"Force","location":{"latitude":"51.518165","street":{"id":1679633,"name":"On or near Catton Street"},"longitude":"-0.120018"},"context":"","outcome_status":null,"persistent_id":"","id":132866272,"location_subtype":"","month":"2025-12"},{"category":"anti-social-behaviour","location_type":"Force","location":{"latitude":"51.522362","street":{"id":1683921,"name":"On or near Fortune Street"},"longitude":"-0.093711"},"context":"","outcome_status":null,"persistent_id":"","id":132866109,"location_subtype":"","month":"2025-12"},{"category":"anti-social-behaviour","location_type":"Force","location":{"latitude":"51.532843","street":{"id":1677179,"name":"On or near Cranleigh Street"},"longitude":"-0.135389"},"context":"","outcome_status":null,"persistent_id":"","id":132868006,"location_subtype":"","month":"2025-12"},{"category":"anti-social-behaviour","location_type":"Force","location":{"latitude":"51.521287","street":{"id":1681492,"name":"On or near Conference/exhibition Centre"},"longitude":"-0.108401"},"context":"","outcome_status":null,"persistent_id":"","id":132866094,"location_subtype":"","month":"2025-12"},{"category":"anti-social-behaviour","location_type":"Force","location":{"latitude":"51.529144","street":{"id":1677208,"name":"On or near London Euston"},"longitude":"-0.135209"},"context":"","outcome_status":null,"persistent_id":"","id":132866031,"location_subtype":"","month":"2025-12"},{"category":"anti-social-behaviour","location_type":"Force","location":{"latitude":"51.527088","street":{"id":1683986,"name":"On or near Galway Street"},"longitude":"-0.093427"},"context":"","outcome_status":null,"persistent_id":"","id":132866025,"location_subtype":"","month":"2025-12"},{"category":"anti-social-behaviour","location_type":"Force","location":{"latitude":"51.536149","street":{"id":1683007,"name":"On or near Cruden Street"},"longitude":"-0.099912"},"context":"","outcome_status":null,"persistent_id":"","id":132865964,"location_subtype":"","month":"2025-12"},{"category":"anti-social-behaviour","location_type":"Force","location":{"latitude":"51.524121","street":{"id":1678681,"name":"On or near Coram Street"},"longitude":"-0.125842"},"context":"","outcome_status":null,"persistent_id":"","id":132865814,"location_subtype":"","month":"2025-12"},{"category":"anti-social-behaviour","location_type":"Force","location":{"latitude":"51.516395","street":{"id":1678879,"name":"On or near Parking Area"},"longitude":"-0.125165"},"context":"","outcome_status":null,"persistent_id":"","id":132865776,"location_subtype":"","month":"2025-12"},{"category":"anti-social-behaviour","location_type":"Force","location":{"latitude":"51.534450","street":{"id":1680368,"name":"On or near Muriel Street"},"longitude":"-0.114964"},"context":"","outcome_status":null,"persistent_id":"","id":132865727,"location_subtype":"","month":"2025-12"},{"category":"anti-social-behaviour","location_type":"Force","location":{"latitude":"51.534996","street":{"id":1683073,"name":"On or near St Peter's Street"},"longitude":"-0.099225"},"context":"","outcome_status":null,"persistent_id":"","id":132871930,"location_subtype":"","month":"2025-12"},{"category":"anti-social-behaviour","location_type":"Force","location":{"latitude":"51.537406","street":{"id":1681469,"name":"On or near Cloudesley Square"},"longitude":"-0.108642"},"context":"","outcome_status":null,"persistent_id":"","id":132865702,"location_subtype":"","month":"2025-12"},{"category":"anti-social-behaviour","location_type":"Force","location":{"latitude":"51.524854","street":{"id":1683375,"name":"On or near Bastwick Street"},"longitude":"-0.097629"},"context":"","outcome_status":null,"persistent_id":"","id":132865694,"location_subtype":"","month":"2025-12"},{"category":"anti-social-behaviour","location_type":"Force","location":{"latitude":"51.537406","street":{"id":1681469,"name":"On or near Cloudesley Square"},"longitude":"-0.108642"},"context":"","outcome_status":null,"persistent_id":"","id":132865545,"location_subtype":"","month":"2025-12"},{"category":"anti-social-behaviour","location_type":"Force","location":{"latitude":"51.515487","street":{"id":1679294,"name":"On or near Parker Mews"},"longitude":"-0.122420"},"context":"","outcome_status":null,"persistent_id":"","id":132865542,"location_subtype":"","month":"2025-12"},{"category":"anti-social-behaviour","location_type":"Force","location":{"latitude":"51.527800","street":{"id":1678588,"name":"On or near Sandwich Street"},"longitude":"-0.126498"},"context":"","outcome_status":null,"persistent_id":"","id":132865521,"location_subtype":"","month":"2025-12"},{"category":"anti-social-behaviour","location_type":"Force","location":{"latitude":"51.529798","street":{"id":1677707,"name":"On or near Drummond Crescent"},"longitude":"-0.132212"},"context":"","outcome_status":null,"persistent_id":"","id":132865478,"location_subtype":"","month":"2025-12"},{"category":"anti-social-behaviour","location_type":"Force","location":{"latitude":"51.529674","street":{"id":1680096,"name":"On or near Vernon Rise"},"longitude":"-0.115479"},"context":"","outcome_status":null,"persistent_id":"","id":132865403,"location_subtype":"","month":"2025-12"},{"category":"anti-social-behaviour","location_type":"Force","location":{"latitude":"51.533541","street":{"id":1679449,"name":"On or near Wharfdale Road"},"longitude":"-0.120553"},"context":"","outcome_status":null,"persistent_id":"","id":132865389,"location_subtype":"","month":"2025-12"},{"category":"anti-social-behaviour","location_type":"Force","location":{"latitude":"51.517845","street":{"id":1679284,"name":"On or near Further/higher Educational Building"},"longitude":"-0.121977"},"context":"","outcome_status":null,"persistent_id":"","id":132865388,"location_subtype":"","month":"2025-12"},{"category":"anti-social-behaviour","location_type":"Force","location":{"latitude":"51.517742","street":{"id":1678770,"name":"On or near Little Russell Street"},"longitude":"-0.125614"},"context":"","outcome_status":null,"persistent_id":"","id":132865241,"location_subtype":"","month":"2025-12"},{"category":"anti-social-behaviour","location_type":"Force","location":{"latitude":"51.526904","street":{"id":1679829,"name":"On or near Further/higher Educational Building"},"longitude":"-0.118793"},"context":"","outcome_status":null,"persistent_id":"","id":132865146,"location_subtype":"","month":"2025-12"},{"category":"anti-social-behaviour","location_type":"Force","location":{"latitude":"51.512770","street":{"id":1679877,"name":"On or near Kingsway Tunnel"},"longitude":"-0.118367"},"context":"","outcome_status":null,"persistent_id":"","id":132865081,"location_subtype":"","month":"2025-12"},{"category":"anti-social-behaviour","location_type":"Force","location":{"latitude":"51.521877","street":{"id":1677229,"name":"On or near Howland Mews East"},"longitude":"-0.136241"},"context":"","outcome_status":null,"persistent_id":"","id":132865076,"location_subtype":"","month":"2025-12"},{"category":"anti-social-behaviour","location_type":"Force","location":{"latitude":"51.537406","street":{"id":1681469,"name":"On or near Cloudesley Square"},"longitude":"-0.108642"},"context":"","outcome_status":null,"persistent_id":"","id":132865011,"location_subtype":"","month":"2025-12"},{"category":"anti-social-behaviour","location_type":"Force","location":{"latitude":"51.532074","street":{"id":1680711,"name":"On or near Cynthia Street"},"longitude":"-0.113188"},"context":"","outcome_status":null,"persistent_id":"","id":132865009,"location_subtype":"","month":"2025-12"},{"category":"anti-social-behaviour","location_type":"Force","location":{"latitude":"51.529796","street":{"id":1679933,"name":"On or near Parking Area"},"longitude":"-0.118025"},"context":"","outcome_status":null,"persistent_id":"","id":132865008,"location_subtype":"","month":"2025-12"},{"category":"anti-social-behaviour","location_type":"Force","location":{"latitude":"51.514600","street":{"id":1679615,"name":"On or near Keeley Street"},"longitude":"-0.120338"},"context":"","outcome_status":null,"persistent_id":"","id":132864965,"location_subtype":"","month":"2025-12"},{"category":"anti-social-behaviour","location_type":"Force","location":{"latitude":"51.536667","street":{"id":1679832,"name":"On or near Boadicea Street"},"longitude":"-0.118650"},"context":"","outcome_status":null,"persistent_id":"","id":132864887,"location_subtype":"","month":"2025-12"},{"category":"anti-social-behaviour","location_type":"Force","location":{"latitude":"51.536437","street":{"id":1678717,"name":"On or near Supermarket"},"longitude":"-0.124485"},"context":"","outcome_status":null,"persistent_id":"","id":132871012,"location_subtype":"","month":"2025-12"},{"category":"anti-social-behaviour","location_type":"Force","location":{"latitude":"51.531715","street":{"id":1679378,"name":"On or near Caledonia Street"},"longitude":"-0.121637"},"context":"","outcome_status":null,"persistent_id":"","id":132871593,"location_subtype":"","month":"2025-12"},{"category":"anti-social-behaviour","location_type":"Force","location":{"latitude":"51.519933","street":{"id":1677494,"name":"On or near Shopping Area"},"longitude":"-0.133899"},"context":"","outcome_status":null,"persistent_id":"","id":132870632,"location_subtype":"","month":"2025-12"},{"category":"anti-social-behaviour","location_type":"Force","location":{"latitude":"51.525943","street":{"id":1682825,"name":"On or near Cyrus Street"},"longitude":"-0.101000"},"context":"","outcome_status":null,"persistent_id":"","id":132871529,"location_subtype":"","month":"2025-12"},{"category":"anti-social-behaviour","location_type":"Force","location":{"latitude":"51.531421","street":{"id":1680331,"name":"On or near Nightclub"},"longitude":"-0.115594"},"context":"","outcome_status":null,"persistent_id":"","id":132872000,"location_subtype":"","month":"2025-12"},{"category":"anti-social-behaviour","location_type":"Force","location":{"latitude":"51.518405","street":{"id":1679695,"name":"On or near Procter Street"},"longitude":"-0.119302"},"context":"","outcome_status":null,"persistent_id":"","id":132870456,"location_subtype":"","month":"2025-12"},{"category":"anti-social-behaviour","location_type":"Force","location":{"latitude":"51.517727","street":{"id":1678383,"name":"On or near Further/higher Educational Building"},"longitude":"-0.128612"},"context":"","outcome_status":null,"persistent_id":"","id":132870445,"location_subtype":"","month":"2025-12"},{"category":"anti-social-behaviour","location_type":"Force","location":{"latitude":"51.532265","street":{"id":1681581,"name":"On or near Angel Mews"},"longitude":"-0.107153"},"context":"","outcome_status":null,"persistent_id":"","id":132870441,"location_subtype":"","month":"2025-12"},{"category":"anti-social-behaviour","location_type":"Force","location":{"latitude":"51.529627","street":{"id":1683204,"name":"On or near Pickard Street"},"longitude":"-0.098612"},"context":"","outcome_status":null,"persistent_id":"","id":132870428,"location_subtype":"","month":"2025-12"},{"category":"anti-social-behaviour","location_type":"Force","location":{"latitude":"51.526069","street":{"id":1681362,"name":"On or near Exmouth Market"},"longitude":"-0.108809"},"context":"","outcome_status":null,"persistent_id":"","id":132870366,"location_subtype":"","month":"2025-12"},{"category":"anti-social-behaviour","location_type":"Force","location":{"latitude":"51.534779","street":{"id":1682378,"name":"On or near Shalford Court"},"longitude":"-0.103055"},"context":"","outcome_status":null,"persistent_id":"","id":132870321,"location_subtype":"","month":"2025-12"},{"category":"anti-social-behaviour","location_type":"Force","location":{"latitude":"51.527861","street":{"id":1677890,"name":"On or near Grafton Place"},"longitude":"-0.131412"},"context":"","outcome_status":null,"persistent_id":"","id":132870285,"location_subtype":"","month":"2025-12"},{"category":"anti-social-behaviour","location_type":"Force","location":{"latitude":"51.518951","street":{"id":1680137,"name":"On or near Sandland Street"},"longitude":"-0.116354"},"context":"","outcome_status":null,"persistent_id":"","id":132871044,"location_subtype":"","month":"2025-12"},{"category":"anti-social-behaviour","location_type":"Force","location":{"latitude":"51.523267","street":{"id":1679022,"name":"On or near Bernard Street"},"longitude":"-0.124162"},"context":"","outcome_status":null,"persistent_id":"","id":132870111,"location_subtype":"","month":"2025-12"},{"category":"anti-social-behaviour","location_type":"Force","location":{"latitude":"51.512863","street":{"id":1679427,"name":"On or near Russell Street"},"longitude":"-0.120842"},"context":"","outcome_status":null,"persistent_id":"","id":132870014,"location_subtype":"","month":"2025-12"},{"category":"anti-social-behaviour","location_type":"Force","location":{"latitude":"51.520524","street":{"id":1681325,"name":"On or near Leather Lane"},"longitude":"-0.109601"},"context":"","outcome_status":null,"persistent_id":"","id":132870009,"location_subtype":"","month":"2025-12"},{"category":"anti-social-behaviour","location_type":"Force","location":{"latitude":"51.531715","street":{"id":1679378,"name":"On or near Caledonia Street"},"longitude":"-0.121637"},"context":"","outcome_status":null,"persistent_id":"","id":132869813,"location_subtype":"","month":"2025-12"},{"category":"anti-social-behaviour","location_type":"Force","location":{"latitude":"51.531945","street":{"id":1681908,"name":"On or near Pentonville Road"},"longitude":"-0.106273"},"context":"","outcome_status":null,"persistent_id":"","id":132869799,"location_subtype":"","month":"2025-12"},{"category":"anti-social-behaviour","location_type":"Force","location":{"latitude":"51.518043","street":{"id":1679235,"name":"On or near Further/higher Educational Building"},"longitude":"-0.122651"},"context":"","outcome_status":null,"persistent_id":"","id":132869728,"location_subtype":"","month":"2025-12"},{"category":"anti-social-behaviour","location_type":"Force","location":{"latitude":"51.512499","street":{"id":1679706,"name":"On or near Theatre/concert Hall"},"longitude":"-0.119459"},"context":"","outcome_status":null,"persistent_id":"","id":132869726,"location_subtype":"","month":"2025-12"},{"category":"anti-social-behaviour","location_type":"Force","location":{"latitude":"51.527088","street":{"id":1683986,"name":"On or near Galway Street"},"longitude":"-0.093427"},"context":"","outcome_status":null,"persistent_id":"","id":132869491,"location_subtype":"","month":"2025-12"},{"category":"anti-social-behaviour","location_type":"Force","location":{"latitude":"51.532843","street":{"id":1677179,"name":"On or near Cranleigh Street"},"longitude":"-0.135389"},"context":"","outcome_status":null,"persistent_id":"","id":132869703,"location_subtype":"","month":"2025-12"},{"category":"anti-social-behaviour","location_type":"Force","location":{"latitude":"51.520524","street":{"id":1681325,"name":"On or near Leather Lane"},"longitude":"-0.109601"},"context":"","outcome_status":null,"persistent_id":"","id":132869644,"location_subtype":"","month":"2025-12"},{"category":"anti-social-behaviour","location_type":"Force","location":{"latitude":"51.518897","street":{"id":1680092,"name":"On or near Red Lion Street"},"longitude":"-0.116904"},"context":"","outcome_status":null,"persistent_id":"","id":132869554,"location_subtype":"","month":"2025-12"},{"category":"anti-social-behaviour","location_type":"Force","location":{"latitude":"51.514064","street":{"id":1679774,"name":"On or near Kean Street"},"longitude":"-0.118890"},"context":"","outcome_status":null,"persistent_id":"","id":132871885,"location_subtype":"","month":"2025-12"},{"category":"anti-social-behaviour","location_type":"Force","location":{"latitude":"51.525943","street":{"id":1682825,"name":"On or near Cyrus Street"},"longitude":"-0.101000"},"context":"","outcome_status":null,"persistent_id":"","id":132869755,"location_subtype":"","month":"2025-12"},{"category":"anti-social-behaviour","location_type":"Force","location":{"latitude":"51.530380","street":{"id":1679666,"name":"On or near Field Street"},"longitude":"-0.119126"},"context":"","outcome_status":null,"persistent_id":"","id":132869540,"location_subtype":"","month":"2025-12"},{"category":"anti-social-behaviour","location_type":"Force","location":{"latitude":"51.524674","street":{"id":1678858,"name":"On or near Marchmont Street"},"longitude":"-0.125012"},"context":"","outcome_status":null,"persistent_id":"","id":132869539,"location_subtype":"","month":"2025-12"},{"category":"anti-social-behaviour","location_type":"Force","location":{"latitude":"51.525943","street":{"id":1682825,"name":"On or near Cyrus Street"},"longitude":"-0.101000"},"context":"","outcome_status":null,"persistent_id":"","id":132881375,"location_subtype":"","month":"2025-12"},{"category":"anti-social-behaviour","location_type":"Force","location":{"latitude":"51.527653","street":{"id":1679440,"name":"On or near Harrison Street"},"longitude":"-0.120651"},"context":"","outcome_status":null,"persistent_id":"","id":132872786,"location_subtype":"","month":"2025-12"},{"category":"anti-social-behaviour","location_type":"Force","location":{"latitude":"51.529527","street":{"id":1682231,"name":"On or near Hermit Street"},"longitude":"-0.104095"},"context":"","outcome_status":null,"persistent_id":"","id":132870289,"location_subtype":"","month":"2025-12"},{"category":"anti-social-behaviour","location_type":"Force","location":{"latitude":"51.519792","street":{"id":1679812,"name":"On or near Theatre/concert Hall"},"longitude":"-0.118337"},"context":"","outcome_status":null,"persistent_id":"","id":132875334,"location_subtype":"","month":"2025-12"},{"category":"anti-social-behaviour","location_type":"Force","location":{"latitude":"51.534273","street":{"id":1681595,"name":"On or near Supermarket"},"longitude":"-0.107315"},"context":"","outcome_status":null,"persistent_id":"","id":132869111,"location_subtype":"","month":"2025-12"},{"category":"anti-social-behaviour","location_type":"Force","location":{"latitude":"51.527214","street":{"id":1681039,"name":"On or near Margery Street"},"longitude":"-0.111241"},"context":"","outcome_status":null,"persistent_id":"","id":132869121,"location_subtype":"","month":"2025-12"},{"category":"anti-social-behaviour","location_type":"Force","location":{"latitude":"51.528267","street":{"id":1678913,"name":"On or near Tonbridge Street"},"longitude":"-0.124216"},"context":"","outcome_status":null,"persistent_id":"","id":132869137,"location_subtype":"","month":"2025-12"},{"category":"anti-social-behaviour","location_type":"Force","location":{"latitude":"51.516341","street":{"id":1679597,"name":"On or near Nightclub"},"longitude":"-0.120151"},"context":"","outcome_status":null,"persistent_id":"","id":132869297,"location_subtype":"","month":"2025-12"},{"category":"anti-social-behaviour","location_type":"Force","location":{"latitude":"51.523116","street":{"id":1679064,"name":"On or near Colonnade"},"longitude":"-0.123173"},"context":"","outcome_status":null,"persistent_id":"","id":132869433,"location_subtype":"","month":"2025-12"},{"category":"anti-social-behaviour","location_type":"Force","location":{"latitude":"51.532933","street":{"id":1679199,"name":"On or near Railway Street"},"longitude":"-0.122452"},"context":"","outcome_status":null,"persistent_id":"","id":132869486,"location_subtype":"","month":"2025-12"},{"category":"anti-social-behaviour","location_type":"Force","location":{"latitude":"51.534487","street":{"id":1681812,"name":"On or near Parking Area"},"longitude":"-0.106672"},"context":"","outcome_status":null,"persistent_id":"","id":132875634,"location_subtype":"","month":"2025-12"},{"category":"anti-social-behaviour","location_type":"Force","location":{"latitude":"51.523598","street":{"id":1678155,"name":"On or near Woburn Square"},"longitude":"-0.129684"},"context":"","outcome_status":null,"persistent_id":"","id":132875661,"location_subtype":"","month":"2025-12"},{"category":"anti-social-behaviour","location_type":"Force","location":{"latitude":"51.519427","street":{"id":1677850,"name":"On or near South Crescent"},"longitude":"-0.132074"},"context":"","outcome_status":null,"persistent_id":"","id":132875672,"location_subtype":"","month":"2025-12"},{"category":"anti-social-behaviour","location_type":"Force","location":{"latitude":"51.530557","street":{"id":1682405,"name":"On or near Sidney Grove"},"longitude":"-0.102740"},"context":"","outcome_status":null,"persistent_id":"","id":132875687,"location_subtype":"","month":"2025-12"},{"category":"anti-social-behaviour","location_type":"Force","location":{"latitude":"51.518281","street":{"id":1680923,"name":"On or near Chancery Lane"},"longitude":"-0.111596"},"context":"","outcome_status":null,"persistent_id":"","id":132875792,"location_subtype":"","month":"2025-12"},{"category":"anti-social-behaviour","location_type":"Force","location":{"latitude":"51.533541","street":{"id":1679449,"name":"On or near Wharfdale Road"},"longitude":"-0.120553"},"context":"","outcome_status":null,"persistent_id":"","id":132875809,"location_subtype":"","month":"2025-12"},{"category":"anti-social-behaviour","location_type":"Force","location":{"latitude":"51.516295","street":{"id":1678131,"name":"On or near Conference/exhibition Centre"},"longitude":"-0.129487"},"context":"","outcome_status":null,"persistent_id":"","id":132875822,"location_subtype":"","month":"2025-12"},{"category":"anti-social-behaviour","location_type":"Force","location":{"latitude":"51.529766","street":{"id":1679334,"name":"On or near St Chad's Street"},"longitude":"-0.121790"},"context":"","outcome_status":null,"persistent_id":"","id":132875831,"location_subtype":"","month":"2025-12"},{"category":"anti-social-behaviour","location_type":"Force","location":{"latitude":"51.526293","street":{"id":1679161,"name":"On or near Wakefield Street"},"longitude":"-0.122797"},"context":"","outcome_status":null,"persistent_id":"","id":132875878,"location_subtype":"","month":"2025-12"},{"category":"anti-social-behaviour","location_type":"Force","location":{"latitude":"51.527981","street":{"id":1679336,"name":"On or near Tankerton Street"},"longitude":"-0.122079"},"context":"","outcome_status":null,"persistent_id":"","id":132875901,"location_subtype":"","month":"2025-12"},{"category":"anti-social-behaviour","location_type":"Force","location":{"latitude":"51.534300","street":{"id":1682047,"name":"On or near Islington High Street"},"longitude":"-0.104574"},"context":"","outcome_status":null,"persistent_id":"","id":132875907,"location_subtype":"","month":"2025-12"},{"category":"anti-social-behaviour","location_type":"Force","location":{"latitude":"51.531715","street":{"id":1679378,"name":"On or near Caledonia Street"},"longitude":"-0.121637"},"context":"","outcome_status":null,"persistent_id":"","id":132879923,"location_subtype":"","month":"2025-12"},{"category":"anti-social-behaviour","location_type":"Force","location":{"latitude":"51.527298","street":{"id":1678231,"name":"On or near Theatre/concert Hall"},"longitude":"-0.128988"},"context":"","outcome_status":null,"persistent_id":"","id":132880093,"location_subtype":"","month":"2025-12"},{"category":"anti-social-behaviour","location_type":"Force","location":{"latitude":"51.514832","street":{"id":1678939,"name":"On or near Betterton Street"},"longitude":"-0.124162"},"context":"","outcome_status":null,"persistent_id":"","id":132880180,"location_subtype":"","month":"2025-12"},{"category":"anti-social-behaviour","location_type":"Force","location":{"latitude":"51.527608","street":{"id":1678877,"name":"On or near Conference/exhibition Centre"},"longitude":"-0.124603"},"context":"","outcome_status":null,"persistent_id":"","id":132880192,"location_subtype":"","month":"2025-12"},{"category":"anti-social-behaviour","location_type":"Force","location":{"latitude":"51.529796","street":{"id":1679933,"name":"On or near Parking Area"},"longitude":"-0.118025"},"context":"","outcome_status":null,"persistent_id":"","id":132880194,"location_subtype":"","month":"2025-12"},{"category":"anti-social-behaviour","location_type":"Force","location":{"latitude":"51.521287","street":{"id":1681492,"name":"On or near Conference/exhibition Centre"},"longitude":"-0.108401"},"context":"","outcome_status":null,"persistent_id":"","id":132880240,"location_subtype":"","month":"2025-12"},{"category":"anti-social-behaviour","location_type":"Force","location":{"latitude":"51.529311","street":{"id":1679742,"name":"On or near Further/higher Educational Building"},"longitude":"-0.119428"},"context":"","outcome_status":null,"persistent_id":"","id":132880253,"location_subtype":"","month":"2025-12"},{"category":"anti-social-behaviour","location_type":"Force","location":{"latitude":"51.529796","street":{"id":1679933,"name":"On or near Parking Area"},"longitude":"-0.118025"},"context":"","outcome_status":null,"persistent_id":"","id":132880255,"location_subtype":"","month":"2025-12"},{"category":"anti-social-behaviour","location_type":"Force","location":{"latitude":"51.521287","street":{"id":1681492,"name":"On or near Conference/exhibition Centre"},"longitude":"-0.108401"},"context":"","outcome_status":null,"persistent_id":"","id":132880268,"location_subtype":"","month":"2025-12"},{"category":"anti-social-behaviour","location_type":"Force","location":{"latitude":"51.527541","street":{"id":1683195,"name":"On or near King Square"},"longitude":"-0.098079"},"context":"","outcome_status":null,"persistent_id":"","id":132880306,"location_subtype":"","month":"2025-12"},{"category":"anti-social-behaviour","location_type":"Force","location":{"latitude":"51.521287","street":{"id":1681492,"name":"On or near Conference/exhibition Centre"},"longitude":"-0.108401"},"context":"","outcome_status":null,"persistent_id":"","id":132880321,"location_subtype":"","month":"2025-12"},{"category":"anti-social-behaviour","location_type":"Force","location":{"latitude":"51.515869","street":{"id":1679355,"name":"On or near Parker Street"},"longitude":"-0.121554"},"context":"","outcome_status":null,"persistent_id":"","id":132880337,"location_subtype":"","month":"2025-12"},{"category":"anti-social-behaviour","location_type":"Force","location":{"latitude":"51.521779","street":{"id":1680593,"name":"On or near Supermarket"},"longitude":"-0.113830"},"context":"","outcome_status":null,"persistent_id":"","id":132880353,"location_subtype":"","month":"2025-12"},{"category":"anti-social-behaviour","location_type":"Force","location":{"latitude":"51.527008","street":{"id":1683400,"name":"On or near Central Street"},"longitude":"-0.096819"},"context":"","outcome_status":null,"persistent_id":"","id":132880359,"location_subtype":"","month":"2025-12"},{"category":"anti-social-behaviour","location_type":"Force","location":{"latitude":"51.529796","street":{"id":1679933,"name":"On or near Parking Area"},"longitude":"-0.118025"},"context":"","outcome_status":null,"persistent_id":"","id":132880372,"location_subtype":"","month":"2025-12"},{"category":"anti-social-behaviour","location_type":"Force","location":{"latitude":"51.517742","street":{"id":1678770,"name":"On or near Little Russell Street"},"longitude":"-0.125614"},"context":"","outcome_status":null,"persistent_id":"","id":132880498,"location_subtype":"","month":"2025-12"},{"category":"anti-social-behaviour","location_type":"Force","location":{"latitude":"51.533564","street":{"id":1682284,"name":"On or near Duncan Street"},"longitude":"-0.104072"},"context":"","outcome_status":null,"persistent_id":"","id":132880506,"location_subtype":"","month":"2025-12"},{"category":"anti-social-behaviour","location_type":"Force","location":{"latitude":"51.533375","street":{"id":1681067,"name":"On or near Grant Street"},"longitude":"-0.110726"},"context":"","outcome_status":null,"persistent_id":"","id":132880522,"location_subtype":"","month":"2025-12"},{"category":"anti-social-behaviour","location_type":"Force","location":{"latitude":"51.516820","street":{"id":1678501,"name":"On or near Dyott Street"},"longitude":"-0.127583"},"context":"","outcome_status":null,"persistent_id":"","id":132880624,"location_subtype":"","month":"2025-12"},{"category":"anti-social-behaviour","location_type":"Force","location":{"latitude":"51.530557","street":{"id":1682405,"name":"On or near Sidney Grove"},"longitude":"-0.102740"},"context":"","outcome_status":null,"persistent_id":"","id":132880690,"location_subtype":"","month":"2025-12"},{"category":"anti-social-behaviour","location_type":"Force","location":{"latitude":"51.532843","street":{"id":1677179,"name":"On or near Cranleigh Street"},"longitude":"-0.135389"},"context":"","outcome_status":null,"persistent_id":"","id":132874846,"location_subtype":"","month":"2025-12"},{"category":"anti-social-behaviour","location_type":"Force","location":{"latitude":"51.526069","street":{"id":1681362,"name":"On or near Exmouth Market"},"longitude":"-0.108809"},"context":"","outcome_status":null,"persistent_id":"","id":132873433,"location_subtype":"","month":"2025-12"},{"category":"anti-social-behaviour","location_type":"Force","location":{"latitude":"51.521877","street":{"id":1677229,"name":"On or near Howland Mews East"},"longitude":"-0.136241"},"context":"","outcome_status":null,"persistent_id":"","id":132875049,"location_subtype":"","month":"2025-12"},{"category":"anti-social-behaviour","location_type":"Force","location":{"latitude":"51.526497","street":{"id":1678057,"name":"On or near Upper Woburn Place"},"longitude":"-0.129896"},"context":"","outcome_status":null,"persistent_id":"","id":132875486,"location_subtype":"","month":"2025-12"},{"category":"anti-social-behaviour","location_type":"Force","location":{"latitude":"51.517858","street":{"id":1678162,"name":"On or near Adeline Place"},"longitude":"-0.130120"},"context":"","outcome_status":null,"persistent_id":"","id":132876015,"location_subtype":"","month":"2025-12"},{"category":"anti-social-behaviour","location_type":"Force","location":{"latitude":"51.534639","street":{"id":1679802,"name":"On or near All Saints Street"},"longitude":"-0.118893"},"context":"","outcome_status":null,"persistent_id":"","id":132874827,"location_subtype":"","month":"2025-12"},{"category":"anti-social-behaviour","location_type":"Force","location":{"latitude":"51.515449","street":{"id":1679081,"name":"On or near Drury Lane"},"longitude":"-0.123373"},"context":"","outcome_status":null,"persistent_id":"","id":132874810,"location_subtype":"","month":"2025-12"},{"category":"anti-social-behaviour","location_type":"Force","location":{"latitude":"51.516930","street":{"id":1677830,"name":"On or near Hanway Place"},"longitude":"-0.132220"},"context":"","outcome_status":null,"persistent_id":"","id":132874802,"location_subtype":"","month":"2025-12"},{"category":"anti-social-behaviour","location_type":"Force","location":{"latitude":"51.531958","street":{"id":1682529,"name":"On or near Elia Street"},"longitude":"-0.102105"},"context":"","outcome_status":null,"persistent_id":"","id":132874763,"location_subtype":"","month":"2025-12"},{"category":"anti-social-behaviour","location_type":"Force","location":{"latitude":"51.518456","street":{"id":1677599,"name":"On or near Percy Street"},"longitude":"-0.133209"},"context":"","outcome_status":null,"persistent_id":"","id":132874711,"location_subtype":"","month":"2025-12"},{"category":"anti-social-behaviour","location_type":"Force","location":{"latitude":"51.534450","street":{"id":1680368,"name":"On or near Muriel Street"},"longitude":"-0.114964"},"context":"","outcome_status":null,"persistent_id":"","id":132874582,"location_subtype":"","month":"2025-12"},{"category":"anti-social-behaviour","location_type":"Force","location":{"latitude":"51.527254","street":{"id":1680196,"name":"On or near Cubitt Street"},"longitude":"-0.115997"},"context":"","outcome_status":null,"persistent_id":"","id":132877164,"location_subtype":"","month":"2025-12"},{"category":"anti-social-behaviour","location_type":"Force","location":{"latitude":"51.519005","street":{"id":1680342,"name":"On or near Further/higher Educational Building"},"longitude":"-0.114132"},"context":"","outcome_status":null,"persistent_id":"","id":132874556,"location_subtype":"","month":"2025-12"},{"category":"anti-social-behaviour","location_type":"Force","location":{"latitude":"51.521877","street":{"id":1677229,"name":"On or near Howland Mews East"},"longitude":"-0.136241"},"context":"","outcome_status":null,"persistent_id":"","id":132878097,"location_subtype":"","month":"2025-12"},{"category":"anti-social-behaviour","location_type":"Force","location":{"latitude":"51.523952","street":{"id":1676986,"name":"On or near Hospital"},"longitude":"-0.136098"},"context":"","outcome_status":null,"persistent_id":"","id":132880489,"location_subtype":"","month":"2025-12"},{"category":"anti-social-behaviour","location_type":"Force","location":{"latitude":"51.530808","street":{"id":1682720,"name":"On or near City Road"},"longitude":"-0.101591"},"context":"","outcome_status":null,"persistent_id":"","id":132871525,"location_subtype":"","month":"2025-12"},{"category":"anti-social-behaviour","location_type":"Force","location":{"latitude":"51.523116","street":{"id":1679064,"name":"On or near Colonnade"},"longitude":"-0.123173"},"context":"","outcome_status":null,"persistent_id":"","id":132875567,"location_subtype":"","month":"2025-12"},{"category":"anti-social-behaviour","location_type":"Force","location":{"latitude":"51.524435","street":{"id":1680409,"name":"On or near Phoenix Place"},"longitude":"-0.113489"},"context":"","outcome_status":null,"persistent_id":"","id":132875564,"location_subtype":"","month":"2025-12"},{"category":"anti-social-behaviour","location_type":"Force","location":{"latitude":"51.514600","street":{"id":1679615,"name":"On or near Keeley Street"},"longitude":"-0.120338"},"context":"","outcome_status":null,"persistent_id":"","id":132875541,"location_subtype":"","month":"2025-12"},{"category":"anti-social-behaviour","location_type":"Force","location":{"latitude":"51.531190","street":{"id":1679626,"name":"On or near Theatre/concert Hall"},"longitude":"-0.119727"},"context":"","outcome_status":null,"persistent_id":"","id":132875520,"location_subtype":"","month":"2025-12"},{"category":"anti-social-behaviour","location_type":"Force","location":{"latitude":"51.533375","street":{"id":1681067,"name":"On or near Grant Street"},"longitude":"-0.110726"},"context":"","outcome_status":null,"persistent_id":"","id":132875380,"location_subtype":"","month":"2025-12"},{"category":"anti-social-behaviour","location_type":"Force","location":{"latitude":"51.519005","street":{"id":1680342,"name":"On or near Further/higher Educational Building"},"longitude":"-0.114132"},"context":"","outcome_status":null,"persistent_id":"","id":132875293,"location_subtype":"","month":"2025-12"},{"category":"anti-social-behaviour","location_type":"Force","location":{"latitude":"51.514600","street":{"id":1679615,"name":"On or near Keeley Street"},"longitude":"-0.120338"},"context":"","outcome_status":null,"persistent_id":"","id":132875172,"location_subtype":"","month":"2025-12"},{"category":"anti-social-behaviour","location_type":"Force","location":{"latitude":"51.529527","street":{"id":1682231,"name":"On or near Hermit Street"},"longitude":"-0.104095"},"context":"","outcome_status":null,"persistent_id":"","id":132875119,"location_subtype":"","month":"2025-12"},{"category":"anti-social-behaviour","location_type":"Force","location":{"latitude":"51.533541","street":{"id":1679449,"name":"On or near Wharfdale Road"},"longitude":"-0.120553"},"context":"","outcome_status":null,"persistent_id":"","id":132875061,"location_subtype":"","month":"2025-12"},{"category":"anti-social-behaviour","location_type":"Force","location":{"latitude":"51.529627","street":{"id":1683204,"name":"On or near Pickard Street"},"longitude":"-0.098612"},"context":"","outcome_status":null,"persistent_id":"","id":132875032,"location_subtype":"","month":"2025-12"},{"category":"anti-social-behaviour","location_type":"Force","location":{"latitude":"51.521006","street":{"id":1677513,"name":"On or near Alfred Mews"},"longitude":"-0.134100"},"context":"","outcome_status":null,"persistent_id":"","id":132880933,"location_subtype":"","month":"2025-12"},{"category":"anti-social-behaviour","location_type":"Force","location":{"latitude":"51.523952","street":{"id":1676986,"name":"On or near Hospital"},"longitude":"-0.136098"},"context":"","outcome_status":null,"persistent_id":"","id":132881040,"location_subtype":"","month":"2025-12"},{"category":"anti-social-behaviour","location_type":"Force","location":{"latitude":"51.516820","street":{"id":1678501,"name":"On or near Dyott Street"},"longitude":"-0.127583"},"context":"","outcome_status":null,"persistent_id":"","id":132874993,"location_subtype":"","month":"2025-12"},{"category":"anti-social-behaviour","location_type":"Force","location":{"latitude":"51.532933","street":{"id":1679199,"name":"On or near Railway Street"},"longitude":"-0.122452"},"context":"","outcome_status":null,"persistent_id":"","id":132874965,"location_subtype":"","month":"2025-12"},{"category":"anti-social-behaviour","location_type":"Force","location":{"latitude":"51.532079","street":{"id":1679534,"name":"On or near Keystone Crescent"},"longitude":"-0.120224"},"context":"","outcome_status":null,"persistent_id":"","id":132881064,"location_subtype":"","month":"2025-12"},{"category":"anti-social-behaviour","location_type":"Force","location":{"latitude":"51.516341","street":{"id":1679597,"name":"On or near Nightclub"},"longitude":"-0.120151"},"context":"","outcome_status":null,"persistent_id":"","id":132881081,"location_subtype":"","month":"2025-12"},{"category":"anti-social-behaviour","location_type":"Force","location":{"latitude":"51.524725","street":{"id":1681312,"name":"On or near Vineyard Walk"},"longitude":"-0.109657"},"context":"","outcome_status":null,"persistent_id":"","id":132881084,"location_subtype":"","month":"2025-12"},{"category":"anti-social-behaviour","location_type":"Force","location":{"latitude":"51.514064","street":{"id":1679774,"name":"On or near Kean Street"},"longitude":"-0.118890"},"context":"","outcome_status":null,"persistent_id":"","id":132874935,"location_subtype":"","month":"2025-12"},{"category":"anti-social-behaviour","location_type":"Force","location":{"latitude":"51.533168","street":{"id":1678300,"name":"On or near Coopers Lane"},"longitude":"-0.129277"},"context":"","outcome_status":null,"persistent_id":"","id":132874927,"location_subtype":"","month":"2025-12"},{"category":"anti-social-behaviour","location_type":"Force","location":{"latitude":"51.518405","street":{"id":1679695,"name":"On or near Procter Street"},"longitude":"-0.119302"},"context":"","outcome_status":null,"persistent_id":"","id":132881110,"location_subtype":"","month":"2025-12"},{"category":"anti-social-behaviour","location_type":"Force","location":{"latitude":"51.526435","street":{"id":1677840,"name":"On or near Endsleigh Gardens"},"longitude":"-0.131658"},"context":"","outcome_status":null,"persistent_id":"","id":132881126,"location_subtype":"","month":"2025-12"},{"category":"anti-social-behaviour","location_type":"Force","location":{"latitude":"51.523129","street":{"id":1676985,"name":"On or near Midford Place"},"longitude":"-0.137530"},"context":"","outcome_status":null,"persistent_id":"","id":132874918,"location_subtype":"","month":"2025-12"},{"category":"anti-social-behaviour","location_type":"Force","location":{"latitude":"51.533375","street":{"id":1681067,"name":"On or near Grant Street"},"longitude":"-0.110726"},"context":"","outcome_status":null,"persistent_id":"","id":132881229,"location_subtype":"","month":"2025-12"},{"category":"anti-social-behaviour","location_type":"Force","location":{"latitude":"51.525787","street":{"id":1681911,"name":"On or near Skinner Street"},"longitude":"-0.105836"},"context":"","outcome_status":null,"persistent_id":"","id":132881252,"location_subtype":"","month":"2025-12"},{"category":"anti-social-behaviour","location_type":"Force","location":{"latitude":"51.527347","street":{"id":1678953,"name":"On or near Judd Street"},"longitude":"-0.124585"},"context":"","outcome_status":null,"persistent_id":"","id":132870227,"location_subtype":"","month":"2025-12"},{"category":"anti-social-behaviour","location_type":"Force","location":{"latitude":"51.529766","street":{"id":1679334,"name":"On or near St Chad's Street"},"longitude":"-0.121790"},"context":"","outcome_status":null,"persistent_id":"","id":132865289,"location_subtype":"","month":"2025-12"},{"category":"anti-social-behaviour","location_type":"Force","location":{"latitude":"51.516341","street":{"id":1679597,"name":"On or near Nightclub"},"longitude":"-0.120151"},"context":"","outcome_status":null,"persistent_id":"","id":132874912,"location_subtype":"","month":"2025-12"},{"category":"anti-social-behaviour","location_type":"Force","location":{"latitude":"51.526435","street":{"id":1677840,"name":"On or near Endsleigh Gardens"},"longitude":"-0.131658"},"context":"","outcome_status":null,"persistent_id":"","id":132874911,"location_subtype":"","month":"2025-12"},{"category":"anti-social-behaviour","location_type":"Force","location":{"latitude":"51.522216","street":{"id":1677558,"name":"On or near Torrington Place"},"longitude":"-0.133257"},"context":"","outcome_status":null,"persistent_id":"","id":132867088,"location_subtype":"","month":"2025-12"},{"category":"anti-social-behaviour","location_type":"Force","location":{"latitude":"51.533541","street":{"id":1679449,"name":"On or near Wharfdale Road"},"longitude":"-0.120553"},"context":"","outcome_status":null,"persistent_id":"","id":132867205,"location_subtype":"","month":"2025-12"},{"category":"anti-social-behaviour","location_type":"Force","location":{"latitude":"51.533501","street":{"id":1683470,"name":"On or near Provence Street"},"longitude":"-0.097384"},"context":"","outcome_status":null,"persistent_id":"","id":132867225,"location_subtype":"","month":"2025-12"},{"category":"anti-social-behaviour","location_type":"Force","location":{"latitude":"51.526980","street":{"id":1682574,"name":"On or near Northampton Square"},"longitude":"-0.102341"},"context":"","outcome_status":null,"persistent_id":"","id":132867276,"location_subtype":"","month":"2025-12"},{"category":"anti-social-behaviour","location_type":"Force","location":{"latitude":"51.532844","street":{"id":1679868,"name":"On or near Killick Street"},"longitude":"-0.118549"},"context":"","outcome_status":null,"persistent_id":"","id":132867338,"location_subtype":"","month":"2025-12"},{"category":"anti-social-behaviour","location_type":"Force","location":{"latitude":"51.516820","street":{"id":1678501,"name":"On or near Dyott Street"},"longitude":"-0.127583"},"context":"","outcome_status":null,"persistent_id":"","id":132867360,"location_subtype":"","month":"2025-12"},{"category":"anti-social-behaviour","location_type":"Force","location":{"latitude":"51.513724","street":{"id":1490731,"name":"On or near Fleet Street"},"longitude":"-0.111756"},"context":"","outcome_status":null,"persistent_id":"","id":132867364,"location_subtype":"","month":"2025-12"},{"category":"anti-social-behaviour","location_type":"Force","location":{"latitude":"51.527653","street":{"id":1679440,"name":"On or near Harrison Street"},"longitude":"-0.120651"},"context":"","outcome_status":null,"persistent_id":"","id":132867366,"location_subtype":"","month":"2025-12"},{"category":"anti-social-behaviour","location_type":"Force","location":{"latitude":"51.520463","street":{"id":1681898,"name":"On or near Further/higher Educational Building"},"longitude":"-0.106345"},"context":"","outcome_status":null,"persistent_id":"","id":132867385,"location_subtype":"","month":"2025-12"},{"category":"anti-social-behaviour","location_type":"Force","location":{"latitude":"51.524121","street":{"id":1678681,"name":"On or near Coram Street"},"longitude":"-0.125842"},"context":"","outcome_status":null,"persistent_id":"","id":132868250,"location_subtype":"","month":"2025-12"},{"category":"anti-social-behaviour","location_type":"Force","location":{"latitude":"51.536667","street":{"id":1679832,"name":"On or near Boadicea Street"},"longitude":"-0.118650"},"context":"","outcome_status":null,"persistent_id":"","id":132867543,"location_subtype":"","month":"2025-12"},{"category":"anti-social-behaviour","location_type":"Force","location":{"latitude":"51.527008","street":{"id":1683400,"name":"On or near Central Street"},"longitude":"-0.096819"},"context":"","outcome_status":null,"persistent_id":"","id":132871277,"location_subtype":"","month":"2025-12"},{"category":"anti-social-behaviour","location_type":"Force","location":{"latitude":"51.527412","street":{"id":1677177,"name":"On or near Cobourg Street"},"longitude":"-0.136015"},"context":"","outcome_status":null,"persistent_id":"","id":132867603,"location_subtype":"","month":"2025-12"},{"category":"anti-social-behaviour","location_type":"Force","location":{"latitude":"51.530808","street":{"id":1682720,"name":"On or near City Road"},"longitude":"-0.101591"},"context":"","outcome_status":null,"persistent_id":"","id":132867638,"location_subtype":"","month":"2025-12"},{"category":"anti-social-behaviour","location_type":"Force","location":{"latitude":"51.514832","street":{"id":1678939,"name":"On or near Betterton Street"},"longitude":"-0.124162"},"context":"","outcome_status":null,"persistent_id":"","id":132867700,"location_subtype":"","month":"2025-12"},{"category":"anti-social-behaviour","location_type":"Force","location":{"latitude":"51.514882","street":{"id":1680005,"name":"On or near Portsmouth Street"},"longitude":"-0.117185"},"context":"","outcome_status":null,"persistent_id":"","id":132867720,"location_subtype":"","month":"2025-12"},{"category":"anti-social-behaviour","location_type":"Force","location":{"latitude":"51.514369","street":{"id":1679259,"name":"On or near Drury Lane"},"longitude":"-0.121645"},"context":"","outcome_status":null,"persistent_id":"","id":132871317,"location_subtype":"","month":"2025-12"},{"category":"anti-social-behaviour","location_type":"Force","location":{"latitude":"51.531958","street":{"id":1682529,"name":"On or near Elia Street"},"longitude":"-0.102105"},"context":"","outcome_status":null,"persistent_id":"","id":132867866,"location_subtype":"","month":"2025-12"},{"category":"anti-social-behaviour","location_type":"Force","location":{"latitude":"51.521877","street":{"id":1677229,"name":"On or near Howland Mews East"},"longitude":"-0.136241"},"context":"","outcome_status":null,"persistent_id":"","id":132867901,"location_subtype":"","month":"2025-12"},{"category":"anti-social-behaviour","location_type":"Force","location":{"latitude":"51.522492","street":{"id":1681770,"name":"On or near Vine Street Bridge"},"longitude":"-0.106694"},"context":"","outcome_status":null,"persistent_id":"","id":132867979,"location_subtype":"","month":"2025-12"},{"category":"anti-social-behaviour","location_type":"Force","location":{"latitude":"51.530314","street":{"id":1680904,"name":"On or near Cruikshank Street"},"longitude":"-0.112237"},"context":"","outcome_status":null,"persistent_id":"","id":132868005,"location_subtype":"","month":"2025-12"},{"category":"anti-social-behaviour","location_type":"Force","location":{"latitude":"51.529144","street":{"id":1677208,"name":"On or near London Euston"},"longitude":"-0.135209"},"context":"","outcome_status":null,"persistent_id":"","id":132868022,"location_subtype":"","month":"2025-12"},{"category":"anti-social-behaviour","location_type":"Force","location":{"latitude":"51.529758","street":{"id":1681065,"name":"On or near Soley Mews"},"longitude":"-0.111164"},"context":"","outcome_status":null,"persistent_id":"","id":132868074,"location_subtype":"","month":"2025-12"},{"category":"anti-social-behaviour","location_type":"Force","location":{"latitude":"51.536473","street":{"id":1682586,"name":"On or near Elliott's Place"},"longitude":"-0.100995"},"context":"","outcome_status":null,"persistent_id":"","id":132868319,"location_subtype":"","month":"2025-12"},{"category":"anti-social-behaviour","location_type":"Force","location":{"latitude":"51.535014","street":{"id":1682868,"name":"On or near Devonia Road"},"longitude":"-0.100320"},"context":"","outcome_status":null,"persistent_id":"","id":132868328,"location_subtype":"","month":"2025-12"},{"category":"anti-social-behaviour","location_type":"Force","location":{"latitude":"51.539044","street":{"id":1679645,"name":"On or near Pembroke Avenue"},"longitude":"-0.119951"},"context":"","outcome_status":null,"persistent_id":"","id":132868384,"location_subtype":"","month":"2025-12"},{"category":"anti-social-behaviour","location_type":"Force","location":{"latitude":"51.527981","street":{"id":1679336,"name":"On or near Tankerton Street"},"longitude":"-0.122079"},"context":"","outcome_status":null,"persistent_id":"","id":132868393,"location_subtype":"","month":"2025-12"},{"category":"anti-social-behaviour","location_type":"Force","location":{"latitude":"51.531660","street":{"id":1677854,"name":"On or near Chalton Street"},"longitude":"-0.132251"},"context":"","outcome_status":null,"persistent_id":"","id":132868415,"location_subtype":"","month":"2025-12"},{"category":"anti-social-behaviour","location_type":"Force","location":{"latitude":"51.528864","street":{"id":1683948,"name":"On or near City Road"},"longitude":"-0.094261"},"context":"","outcome_status":null,"persistent_id":"","id":132868446,"location_subtype":"","month":"2025-12"},{"category":"anti-social-behaviour","location_type":"Force","location":{"latitude":"51.534450","street":{"id":1680368,"name":"On or near Muriel Street"},"longitude":"-0.114964"},"context":"","outcome_status":null,"persistent_id":"","id":132868452,"location_subtype":"","month":"2025-12"},{"category":"anti-social-behaviour","location_type":"Force","location":{"latitude":"51.533469","street":{"id":1681381,"name":"On or near Chapel Market"},"longitude":"-0.109338"},"context":"","outcome_status":null,"persistent_id":"","id":132868512,"location_subtype":"","month":"2025-12"},{"category":"anti-social-behaviour","location_type":"Force","location":{"latitude":"51.519792","street":{"id":1679812,"name":"On or near Theatre/concert Hall"},"longitude":"-0.118337"},"context":"","outcome_status":null,"persistent_id":"","id":132868574,"location_subtype":"","month":"2025-12"},{"category":"anti-social-behaviour","location_type":"Force","location":{"latitude":"51.515004","street":{"id":1678816,"name":"On or near B401"},"longitude":"-0.125352"},"context":"","outcome_status":null,"persistent_id":"","id":132868608,"location_subtype":"","month":"2025-12"},{"category":"anti-social-behaviour","location_type":"Force","location":{"latitude":"51.538301","street":{"id":1682345,"name":"On or near Theatre/concert Hall"},"longitude":"-0.102836"},"context":"","outcome_status":null,"persistent_id":"","id":132868683,"location_subtype":"","month":"2025-12"},{"category":"anti-social-behaviour","location_type":"Force","location":{"latitude":"51.534450","street":{"id":1680368,"name":"On or near Muriel Street"},"longitude":"-0.114964"},"context":"","outcome_status":null,"persistent_id":"","id":132868874,"location_subtype":"","month":"2025-12"},{"category":"anti-social-behaviour","location_type":"Force","location":{"latitude":"51.536819","street":{"id":1681791,"name":"On or near Old Royal Free Place"},"longitude":"-0.106863"},"context":"","outcome_status":null,"persistent_id":"","id":132868928,"location_subtype":"","month":"2025-12"},{"category":"anti-social-behaviour","location_type":"Force","location":{"latitude":"51.523415","street":{"id":1678725,"name":"On or near Parking Area"},"longitude":"-0.126145"},"context":"","outcome_status":null,"persistent_id":"","id":132868980,"location_subtype":"","month":"2025-12"},{"category":"anti-social-behaviour","location_type":"Force","location":{"latitude":"51.533780","street":{"id":1679039,"name":"On or near London King's Cross"},"longitude":"-0.123095"},"context":"","outcome_status":null,"persistent_id":"","id":132868992,"location_subtype":"","month":"2025-12"},{"category":"anti-social-behaviour","location_type":"Force","location":{"latitude":"51.516341","street":{"id":1679597,"name":"On or near Nightclub"},"longitude":"-0.120151"},"context":"","outcome_status":null,"persistent_id":"","id":132869028,"location_subtype":"","month":"2025-12"},{"category":"anti-social-behaviour","location_type":"Force","location":{"latitude":"51.516295","street":{"id":1678131,"name":"On or near Conference/exhibition Centre"},"longitude":"-0.129487"},"context":"","outcome_status":null,"persistent_id":"","id":132869037,"location_subtype":"","month":"2025-12"},{"category":"anti-social-behaviour","location_type":"Force","location":{"latitude":"51.527347","street":{"id":1678953,"name":"On or near Judd Street"},"longitude":"-0.124585"},"context":"","outcome_status":null,"persistent_id":"","id":132869087,"location_subtype":"","month":"2025-12"},{"category":"anti-social-behaviour","location_type":"Force","location":{"latitude":"51.516820","street":{"id":1678501,"name":"On or near Dyott Street"},"longitude":"-0.127583"},"context":"","outcome_status":null,"persistent_id":"","id":132879000,"location_subtype":"","month":"2025-12"},{"category":"anti-social-behaviour","location_type":"Force","location":{"latitude":"51.517701","street":{"id":1678590,"name":"On or near Willoughby Street"},"longitude":"-0.127014"},"context":"","outcome_status":null,"persistent_id":"","id":132879139,"location_subtype":"","month":"2025-12"},{"category":"anti-social-behaviour","location_type":"Force","location":{"latitude":"51.527461","street":{"id":1682880,"name":"On or near Goswell Place"},"longitude":"-0.100894"},"context":"","outcome_status":null,"persistent_id":"","id":132879174,"location_subtype":"","month":"2025-12"},{"category":"anti-social-behaviour","location_type":"Force","location":{"latitude":"51.534487","street":{"id":1681812,"name":"On or near Parking Area"},"longitude":"-0.106672"},"context":"","outcome_status":null,"persistent_id":"","id":132879222,"location_subtype":"","month":"2025-12"},{"category":"anti-social-behaviour","location_type":"Force","location":{"latitude":"51.534459","street":{"id":1679416,"name":"On or near Crinan Street"},"longitude":"-0.121683"},"context":"","outcome_status":null,"persistent_id":"","id":132879271,"location_subtype":"","month":"2025-12"},{"category":"anti-social-behaviour","location_type":"Force","location":{"latitude":"51.516295","street":{"id":1678131,"name":"On or near Conference/exhibition Centre"},"longitude":"-0.129487"},"context":"","outcome_status":null,"persistent_id":"","id":132879316,"location_subtype":"","month":"2025-12"},{"category":"anti-social-behaviour","location_type":"Force","location":{"latitude":"51.527981","street":{"id":1679336,"name":"On or near Tankerton Street"},"longitude":"-0.122079"},"context":"","outcome_status":null,"persistent_id":"","id":132879332,"location_subtype":"","month":"2025-12"},{"category":"anti-social-behaviour","location_type":"Force","location":{"latitude":"51.516329","street":{"id":1678500,"name":"On or near Bucknall Street"},"longitude":"-0.127791"},"context":"","outcome_status":null,"persistent_id":"","id":132879405,"location_subtype":"","month":"2025-12"},{"category":"anti-social-behaviour","location_type":"Force","location":{"latitude":"51.523952","street":{"id":1676986,"name":"On or near Hospital"},"longitude":"-0.136098"},"context":"","outcome_status":null,"persistent_id":"","id":132879409,"location_subtype":"","month":"2025-12"},{"category":"anti-social-behaviour","location_type":"Force","location":{"latitude":"51.531421","street":{"id":1680331,"name":"On or near Nightclub"},"longitude":"-0.115594"},"context":"","outcome_status":null,"persistent_id":"","id":132879532,"location_subtype":"","month":"2025-12"},{"category":"anti-social-behaviour","location_type":"Force","location":{"latitude":"51.536667","street":{"id":1679832,"name":"On or near Boadicea Street"},"longitude":"-0.118650"},"context":"","outcome_status":null,"persistent_id":"","id":132879575,"location_subtype":"","month":"2025-12"},{"category":"anti-social-behaviour","location_type":"Force","location":{"latitude":"51.531735","street":{"id":1682306,"name":"On or near Sports/recreation Area"},"longitude":"-0.103467"},"context":"","outcome_status":null,"persistent_id":"","id":132871056,"location_subtype":"","month":"2025-12"},{"category":"anti-social-behaviour","location_type":"Force","location":{"latitude":"51.532933","street":{"id":1679199,"name":"On or near Railway Street"},"longitude":"-0.122452"},"context":"","outcome_status":null,"persistent_id":"","id":132874250,"location_subtype":"","month":"2025-12"},{"category":"anti-social-behaviour","location_type":"Force","location":{"latitude":"51.527088","street":{"id":1683986,"name":"On or near Galway Street"},"longitude":"-0.093427"},"context":"","outcome_status":null,"persistent_id":"","id":132874134,"location_subtype":"","month":"2025-12"},{"category":"anti-social-behaviour","location_type":"Force","location":{"latitude":"51.538624","street":{"id":1680538,"name":"On or near Boxworth Grove"},"longitude":"-0.112802"},"context":"","outcome_status":null,"persistent_id":"","id":132873932,"location_subtype":"","month":"2025-12"},{"category":"anti-social-behaviour","location_type":"Force","location":{"latitude":"51.533541","street":{"id":1679449,"name":"On or near Wharfdale Road"},"longitude":"-0.120553"},"context":"","outcome_status":null,"persistent_id":"","id":132864913,"location_subtype":"","month":"2025-12"},{"category":"anti-social-behaviour","location_type":"Force","location":{"latitude":"51.523554","street":{"id":1684085,"name":"On or near Roscoe Street"},"longitude":"-0.092926"},"context":"","outcome_status":null,"persistent_id":"","id":132871657,"location_subtype":"","month":"2025-12"},{"category":"anti-social-behaviour","location_type":"Force","location":{"latitude":"51.526435","street":{"id":1677840,"name":"On or near Endsleigh Gardens"},"longitude":"-0.131658"},"context":"","outcome_status":null,"persistent_id":"","id":132873821,"location_subtype":"","month":"2025-12"},{"category":"anti-social-behaviour","location_type":"Force","location":{"latitude":"51.516341","street":{"id":1679597,"name":"On or near Nightclub"},"longitude":"-0.120151"},"context":"","outcome_status":null,"persistent_id":"","id":132874469,"location_subtype":"","month":"2025-12"},{"category":"anti-social-behaviour","location_type":"Force","location":{"latitude":"51.514064","street":{"id":1679774,"name":"On or near Kean Street"},"longitude":"-0.118890"},"context":"","outcome_status":null,"persistent_id":"","id":132873810,"location_subtype":"","month":"2025-12"},{"category":"anti-social-behaviour","location_type":"Force","location":{"latitude":"51.529796","street":{"id":1679933,"name":"On or near Parking Area"},"longitude":"-0.118025"},"context":"","outcome_status":null,"persistent_id":"","id":132873639,"location_subtype":"","month":"2025-12"},{"category":"anti-social-behaviour","location_type":"Force","location":{"latitude":"51.519092","street":{"id":1679240,"name":"On or near Bloomsbury Square"},"longitude":"-0.122330"},"context":"","outcome_status":null,"persistent_id":"","id":132873476,"location_subtype":"","month":"2025-12"},{"category":"anti-social-behaviour","location_type":"Force","location":{"latitude":"51.533780","street":{"id":1679039,"name":"On or near London King's Cross"},"longitude":"-0.123095"},"context":"","outcome_status":null,"persistent_id":"","id":132867973,"location_subtype":"","month":"2025-12"},{"category":"anti-social-behaviour","location_type":"Force","location":{"latitude":"51.515004","street":{"id":1678816,"name":"On or near B401"},"longitude":"-0.125352"},"context":"","outcome_status":null,"persistent_id":"","id":132868073,"location_subtype":"","month":"2025-12"},{"category":"anti-social-behaviour","location_type":"Force","location":{"latitude":"51.532843","street":{"id":1677179,"name":"On or near Cranleigh Street"},"longitude":"-0.135389"},"context":"","outcome_status":null,"persistent_id":"","id":132868258,"location_subtype":"","month":"2025-12"},{"category":"anti-social-behaviour","location_type":"Force","location":{"latitude":"51.534639","street":{"id":1679802,"name":"On or near All Saints Street"},"longitude":"-0.118893"},"context":"","outcome_status":null,"persistent_id":"","id":132878924,"location_subtype":"","month":"2025-12"},{"category":"anti-social-behaviour","location_type":"Force","location":{"latitude":"51.527094","street":{"id":1679346,"name":"On or near Regent Square"},"longitude":"-0.121683"},"context":"","outcome_status":null,"persistent_id":"","id":132873286,"location_subtype":"","month":"2025-12"},{"category":"anti-social-behaviour","location_type":"Force","location":{"latitude":"51.534450","street":{"id":1680368,"name":"On or near Muriel Street"},"longitude":"-0.114964"},"context":"","outcome_status":null,"persistent_id":"","id":132873136,"location_subtype":"","month":"2025-12"},{"category":"anti-social-behaviour","location_type":"Force","location":{"latitude":"51.516275","street":{"id":1678661,"name":"On or near Theatre/concert Hall"},"longitude":"-0.126121"},"context":"","outcome_status":null,"persistent_id":"","id":132874390,"location_subtype":"","month":"2025-12"},{"category":"anti-social-behaviour","location_type":"Force","location":{"latitude":"51.523415","street":{"id":1678725,"name":"On or near Parking Area"},"longitude":"-0.126145"},"context":"","outcome_status":null,"persistent_id":"","id":132872970,"location_subtype":"","month":"2025-12"},{"category":"anti-social-behaviour","location_type":"Force","location":{"latitude":"51.522414","street":{"id":1680909,"name":"On or near Laystall Street"},"longitude":"-0.111901"},"context":"","outcome_status":null,"persistent_id":"","id":132871555,"location_subtype":"","month":"2025-12"},{"category":"anti-social-behaviour","location_type":"Force","location":{"latitude":"51.536450","street":{"id":1682380,"name":"On or near Islington Green"},"longitude":"-0.102913"},"context":"","outcome_status":null,"persistent_id":"","id":132879851,"location_subtype":"","month":"2025-12"},{"category":"anti-social-behaviour","location_type":"Force","location":{"latitude":"51.517742","street":{"id":1678770,"name":"On or near Little Russell Street"},"longitude":"-0.125614"},"context":"","outcome_status":null,"persistent_id":"","id":132872824,"location_subtype":"","month":"2025-12"},{"category":"anti-social-behaviour","location_type":"Force","location":{"latitude":"51.538624","street":{"id":1680538,"name":"On or near Boxworth Grove"},"longitude":"-0.112802"},"context":"","outcome_status":null,"persistent_id":"","id":132872739,"location_subtype":"","month":"2025-12"},{"category":"anti-social-behaviour","location_type":"Force","location":{"latitude":"51.527094","street":{"id":1679346,"name":"On or near Regent Square"},"longitude":"-0.121683"},"context":"","outcome_status":null,"persistent_id":"","id":132872726,"location_subtype":"","month":"2025-12"},{"category":"anti-social-behaviour","location_type":"Force","location":{"latitude":"51.526497","street":{"id":1678057,"name":"On or near Upper Woburn Place"},"longitude":"-0.129896"},"context":"","outcome_status":null,"persistent_id":"","id":132874320,"location_subtype":"","month":"2025-12"},{"category":"anti-social-behaviour","location_type":"Force","location":{"latitude":"51.532843","street":{"id":1677179,"name":"On or near Cranleigh Street"},"longitude":"-0.135389"},"context":"","outcome_status":null,"persistent_id":"","id":132872638,"location_subtype":"","month":"2025-12"},{"category":"anti-social-behaviour","location_type":"Force","location":{"latitude":"51.522284","street":{"id":1678831,"name":"On or near Russell Square"},"longitude":"-0.125153"},"context":"","outcome_status":null,"persistent_id":"","id":132872540,"location_subtype":"","month":"2025-12"},{"category":"anti-social-behaviour","location_type":"Force","location":{"latitude":"51.533469","street":{"id":1681381,"name":"On or near Chapel Market"},"longitude":"-0.109338"},"context":"","outcome_status":null,"persistent_id":"","id":132879809,"location_subtype":"","month":"2025-12"},{"category":"anti-social-behaviour","location_type":"Force","location":{"latitude":"51.529796","street":{"id":1679933,"name":"On or near Parking Area"},"longitude":"-0.118025"},"context":"","outcome_status":null,"persistent_id":"","id":132872481,"location_subtype":"","month":"2025-12"},{"category":"anti-social-behaviour","location_type":"Force","location":{"latitude":"51.525158","street":{"id":1678058,"name":"On or near Further/higher Educational Building"},"longitude":"-0.130291"},"context":"","outcome_status":null,"persistent_id":"","id":132879790,"location_subtype":"","month":"2025-12"},{"category":"anti-social-behaviour","location_type":"Force","location":{"latitude":"51.517287","street":{"id":1678024,"name":"On or near Parking Area"},"longitude":"-0.130403"},"context":"","outcome_status":null,"persistent_id":"","id":132879783,"location_subtype":"","month":"2025-12"},{"category":"anti-social-behaviour","location_type":"Force","location":{"latitude":"51.533982","street":{"id":1680924,"name":"On or near Eckford Street"},"longitude":"-0.112143"},"context":"","outcome_status":null,"persistent_id":"","id":132872288,"location_subtype":"","month":"2025-12"},{"category":"anti-social-behaviour","location_type":"Force","location":{"latitude":"51.518456","street":{"id":1677599,"name":"On or near Percy Street"},"longitude":"-0.133209"},"context":"","outcome_status":null,"persistent_id":"","id":132872126,"location_subtype":"","month":"2025-12"},{"category":"anti-social-behaviour","location_type":"Force","location":{"latitude":"51.518456","street":{"id":1677599,"name":"On or near Percy Street"},"longitude":"-0.133209"},"context":"","outcome_status":null,"persistent_id":"","id":132879703,"location_subtype":"","month":"2025-12"},{"category":"anti-social-behaviour","location_type":"Force","location":{"latitude":"51.526531","street":{"id":1677395,"name":"On or near Euston Square"},"longitude":"-0.133773"},"context":"","outcome_status":null,"persistent_id":"","id":132872017,"location_subtype":"","month":"2025-12"},{"category":"anti-social-behaviour","location_type":"Force","location":{"latitude":"51.532933","street":{"id":1679199,"name":"On or near Railway Street"},"longitude":"-0.122452"},"context":"","outcome_status":null,"persistent_id":"","id":132871985,"location_subtype":"","month":"2025-12"},{"category":"anti-social-behaviour","location_type":"Force","location":{"latitude":"51.515004","street":{"id":1678816,"name":"On or near B401"},"longitude":"-0.125352"},"context":"","outcome_status":null,"persistent_id":"","id":132871872,"location_subtype":"","month":"2025-12"},{"category":"anti-social-behaviour","location_type":"Force","location":{"latitude":"51.534273","street":{"id":1681595,"name":"On or near Supermarket"},"longitude":"-0.107315"},"context":"","outcome_status":null,"persistent_id":"","id":132879685,"location_subtype":"","month":"2025-12"},{"category":"anti-social-behaviour","location_type":"Force","location":{"latitude":"51.529356","street":{"id":1677861,"name":"On or near Doric Way"},"longitude":"-0.131033"},"context":"","outcome_status":null,"persistent_id":"","id":132871808,"location_subtype":"","month":"2025-12"},{"category":"anti-social-behaviour","location_type":"Force","location":{"latitude":"51.516785","street":{"id":1678562,"name":"On or near Theatre/concert Hall"},"longitude":"-0.126532"},"context":"","outcome_status":null,"persistent_id":"","id":132874290,"location_subtype":"","month":"2025-12"},{"category":"anti-social-behaviour","location_type":"Force","location":{"latitude":"51.529796","street":{"id":1679933,"name":"On or near Parking Area"},"longitude":"-0.118025"},"context":"","outcome_status":null,"persistent_id":"","id":132874348,"location_subtype":"","month":"2025-12"},{"category":"anti-social-behaviour","location_type":"Force","location":{"latitude":"51.530141","street":{"id":1684008,"name":"On or near Micawber Street"},"longitude":"-0.093732"},"context":"","outcome_status":null,"persistent_id":"","id":132864816,"location_subtype":"","month":"2025-12"},{"category":"anti-social-behaviour","location_type":"Force","location":{"latitude":"51.521287","street":{"id":1681492,"name":"On or near Conference/exhibition Centre"},"longitude":"-0.108401"},"context":"","outcome_status":null,"persistent_id":"","id":132879667,"location_subtype":"","month":"2025-12"},{"category":"anti-social-behaviour","location_type":"Force","location":{"latitude":"51.525943","street":{"id":1682825,"name":"On or near Cyrus Street"},"longitude":"-0.101000"},"context":"","outcome_status":null,"persistent_id":"","id":132879633,"location_subtype":"","month":"2025-12"},{"category":"anti-social-behaviour","location_type":"Force","location":{"latitude":"51.516930","street":{"id":1677830,"name":"On or near Hanway Place"},"longitude":"-0.132220"},"context":"","outcome_status":null,"persistent_id":"","id":132867642,"location_subtype":"","month":"2025-12"},{"category":"anti-social-behaviour","location_type":"Force","location":{"latitude":"51.533541","street":{"id":1679449,"name":"On or near Wharfdale Road"},"longitude":"-0.120553"},"context":"","outcome_status":null,"persistent_id":"","id":132867482,"location_subtype":"","month":"2025-12"},