[{"category":"anti-social-behaviour","location_type":"Force","location":{"latitude":"53.699997","street":{"id":2112282,"name":"On or near Echo Street"},"longitude":"-1.705590"},"context":"","outcome_status":null,"persistent_id":"","id":131685595,"location_subtype":"","month":"2025-10"},{"category":"anti-social-behaviour","location_type":"Force","location":{"latitude":"53.707356","street":{"id":2113961,"name":"On or near Queen Street"},"longitude":"-1.677134"},"context":"","outcome_status":null,"persistent_id":"","id":131685206,"location_subtype":"","month":"2025-10"},{"category":"anti-social-behaviour","location_type":"Force","location":{"latitude":"53.707356","street":{"id":2113961,"name":"On or near Queen Street"},"longitude":"-1.677134"},"context":"","outcome_status":null,"persistent_id":"","id":131685155,"location_subtype":"","month":"2025-10"},{"category":"anti-social-behaviour","location_type":"Force","location":{"latitude":"53.706185","street":{"id":2113824,"name":"On or near Union Street"},"longitude":"-1.679400"},"context":"","outcome_status":null,"persistent_id":"","id":131686514,"location_subtype":"","month":"2025-10"},{"category":"anti-social-behaviour","location_type":"Force","location":{"latitude":"53.715347","street":{"id":2113667,"name":"On or near Firthcliffe View"},"longitude":"-1.683770"},"context":"","outcome_status":null,"persistent_id":"","id":131685510,"location_subtype":"","month":"2025-10"},{"category":"anti-social-behaviour","location_type":"Force","location":{"latitude":"53.715875","street":{"id":2111314,"name":"On or near Hightown Road"},"longitude":"-1.718980"},"context":"","outcome_status":null,"persistent_id":"","id":131686600,"location_subtype":"","month":"2025-10"},{"category":"anti-social-behaviour","location_type":"Force","location":{"latitude":"53.719691","street":{"id":2111644,"name":"On or near Royd Wood"},"longitude":"-1.713727"},"context":"","outcome_status":null,"persistent_id":"","id":131687671,"location_subtype":"","month":"2025-10"},{"category":"anti-social-behaviour","location_type":"Force","location":{"latitude":"53.709083","street":{"id":2113914,"name":"On or near Barber Square"},"longitude":"-1.677424"},"context":"","outcome_status":null,"persistent_id":"","id":131687789,"location_subtype":"","month":"2025-10"},{"category":"anti-social-behaviour","location_type":"Force","location":{"latitude":"53.700258","street":{"id":2112432,"name":"On or near Roberttown Lane"},"longitude":"-1.702089"},"context":"","outcome_status":null,"persistent_id":"","id":131688172,"location_subtype":"","month":"2025-10"},{"category":"anti-social-behaviour","location_type":"Force","location":{"latitude":"53.707356","street":{"id":2113961,"name":"On or near Queen Street"},"longitude":"-1.677134"},"context":"","outcome_status":null,"persistent_id":"","id":131688290,"location_subtype":"","month":"2025-10"},{"category":"anti-social-behaviour","location_type":"Force","location":{"latitude":"53.707356","street":{"id":2113961,"name":"On or near Queen Street"},"longitude":"-1.677134"},"context":"","outcome_status":null,"persistent_id":"","id":131688292,"location_subtype":"","month":"2025-10"},{"category":"anti-social-behaviour","location_type":"Force","location":{"latitude":"53.699506","street":{"id":2112404,"name":"On or near Highfield Court"},"longitude":"-1.703609"},"context":"","outcome_status":null,"persistent_id":"","id":131686900,"location_subtype":"","month":"2025-10"},{"category":"anti-social-behaviour","location_type":"Force","location":{"latitude":"53.709083","street":{"id":2113914,"name":"On or near Barber Square"},"longitude":"-1.677424"},"context":"","outcome_status":null,"persistent_id":"","id":131686556,"location_subtype":"","month":"2025-10"},{"category":"anti-social-behaviour","location_type":"Force","location":{"latitude":"53.711176","street":{"id":2112734,"name":"On or near Edward Street"},"longitude":"-1.697694"},"context":"","outcome_status":null,"persistent_id":"","id":131686467,"location_subtype":"","month":"2025-10"},{"category":"anti-social-behaviour","location_type":"Force","location":{"latitude":"53.713021","street":{"id":2111358,"name":"On or near Laverhills"},"longitude":"-1.717090"},"context":"","outcome_status":null,"persistent_id":"","id":131687073,"location_subtype":"","month":"2025-10"},{"category":"anti-social-behaviour","location_type":"Force","location":{"latitude":"53.707228","street":{"id":2113789,"name":"On or near Parking Area"},"longitude":"-1.679529"},"context":"","outcome_status":null,"persistent_id":"","id":131686268,"location_subtype":"","month":"2025-10"},{"category":"anti-social-behaviour","location_type":"Force","location":{"latitude":"53.709083","street":{"id":2113914,"name":"On or near Barber Square"},"longitude":"-1.677424"},"context":"","outcome_status":null,"persistent_id":"","id":131686189,"location_subtype":"","month":"2025-10"},{"category":"anti-social-behaviour","location_type":"Force","location":{"latitude":"53.713618","street":{"id":2111111,"name":"On or near Cuniver Court"},"longitude":"-1.722359"},"context":"","outcome_status":null,"persistent_id":"","id":131686175,"location_subtype":"","month":"2025-10"},{"category":"burglary","location_type":"Force","location":{"latitude":"53.709152","street":{"id":2113729,"name":"On or near Flush"},"longitude":"-1.682923"},"context":"","outcome_status":{"category":"Investigation complete; no suspect identified","date":"2025-10"},"persistent_id":"75f427a184c4deda7e30dcd119a23d15693750eeb56b18f38c954be60d79703e","id":131627096,"location_subtype":"","month":"2025-10"},{"category":"burglary","location_type":"Force","location":{"latitude":"53.712773","street":{"id":2112593,"name":"On or near Linton Close"},"longitude":"-1.700228"},"context":"","outcome_status":{"category":"Investigation complete; no suspect identified","date":"2025-10"},"persistent_id":"c24d025e45199caca921af386bb760c2859c131ad13db4859073d732be69cd58","id":131684257,"location_subtype":"","month":"2025-10"},{"category":"burglary","location_type":"Force","location":{"latitude":"53.709741","street":{"id":2113541,"name":"On or near Frost Hill"},"longitude":"-1.684948"},"context":"","outcome_status":{"category":"Investigation complete; no suspect identified","date":"2025-11"},"persistent_id":"218a97ad78e523d46235221f87c21964cca38227b0052605b21ca67b0982591e","id":131663001,"location_subtype":"","month":"2025-10"},{"category":"burglary","location_type":"Force","location":{"latitude":"53.718894","street":{"id":2112375,"name":"On or near Luddite Way"},"longitude":"-1.703791"},"context":"","outcome_status":{"category":"Investigation complete; no suspect identified","date":"2025-11"},"persistent_id":"c8560e511424118c579a1bc5636ed7b9ee9ae1dd05b5cb8144af3fb548e83069","id":131640288,"location_subtype":"","month":"2025-10"},{"category":"burglary","location_type":"Force","location":{"latitude":"53.709314","street":{"id":2113450,"name":"On or near Wakefield Road"},"longitude":"-1.686527"},"context":"","outcome_status":{"category":"Investigation complete; no suspect identified","date":"2025-11"},"persistent_id":"efe4a2f05c3e8a6c93424d64ee2cc3dc41fc1cb87191fd311d3c800d5185ece6","id":131634827,"location_subtype":"","month":"2025-10"},{"category":"burglary","location_type":"Force","location":{"latitude":"53.709393","street":{"id":2113338,"name":"On or near Barker Street"},"longitude":"-1.689269"},"context":"","outcome_status":{"category":"Investigation complete; no suspect identified","date":"2026-01"},"persistent_id":"5fed2fbefb60834c0aa9f76511a2d353268acadb1c4aaa948ece195e96b882ea","id":131640775,"location_subtype":"","month":"2025-10"},{"category":"criminal-damage-arson","location_type":"Force","location":{"latitude":"53.708160","street":{"id":2113883,"name":"On or near Barracks Street"},"longitude":"-1.678491"},"context":"","outcome_status":{"category":"Investigation complete; no suspect identified","date":"2025-11"},"persistent_id":"a700a0e5b25339ef3dab16cf8368aed3066b954eb1b3fb87401bde7c41429a67","id":131639418,"location_subtype":"","month":"2025-10"},{"category":"criminal-damage-arson","location_type":"Force","location":{"latitude":"53.712236","street":{"id":2113704,"name":"On or near Leeds Road"},"longitude":"-1.683460"},"context":"","outcome_status":{"category":"Investigation complete; no suspect identified","date":"2025-12"},"persistent_id":"7053ebac774dc0cfcc62a74b9a6f15f7f79bfc53528af68c2ff27bb42352ea4d","id":131675256,"location_subtype":"","month":"2025-10"},{"category":"criminal-damage-arson","location_type":"Force","location":{"latitude":"53.707924","street":{"id":2113917,"name":"On or near Westgate"},"longitude":"-1.677569"},"context":"","outcome_status":{"category":"Under investigation","date":"2025-10"},"persistent_id":"e6467d439d6c941c8a3600a82e5e4b4f86d51f5157276dbfb4253427be2a731b","id":131652688,"location_subtype":"","month":"2025-10"},{"category":"criminal-damage-arson","location_type":"Force","location":{"latitude":"53.714500","street":{"id":2113892,"name":"On or near Almondroyd"},"longitude":"-1.679807"},"context":"","outcome_status":{"category":"Investigation complete; no suspect identified","date":"2025-10"},"persistent_id":"7134dfb41ee94d7a92334e3dc39f00dd9a612eb8647c45cffa0cdd76bde24b7d","id":131642808,"location_subtype":"","month":"2025-10"},{"category":"drugs","location_type":"Force","location":{"latitude":"53.700382","street":{"id":2112704,"name":"On or near Stanley Road"},"longitude":"-1.698059"},"context":"","outcome_status":{"category":"Under investigation","date":"2025-10"},"persistent_id":"6f4e3e120ff07e6427860687b20db6ce2ef0f2652d3e3ac5029b2c4c63bafe33","id":131682192,"location_subtype":"","month":"2025-10"},{"category":"other-theft","location_type":"Force","location":{"latitude":"53.711626","street":{"id":2113480,"name":"On or near Healds Avenue"},"longitude":"-1.687283"},"context":"","outcome_status":{"category":"Investigation complete; no suspect identified","date":"2025-11"},"persistent_id":"6f2d63274bed7a1f0f20c9e3654195d98980abdd43050d463036e8009f63a373","id":131678814,"location_subtype":"","month":"2025-10"},{"category":"other-theft","location_type":"Force","location":{"latitude":"53.715529","street":{"id":2113790,"name":"On or near Saxton Street"},"longitude":"-1.681223"},"context":"","outcome_status":{"category":"Investigation complete; no suspect identified","date":"2025-10"},"persistent_id":"e4906aeb20265b2714d77c61b41f87e7bcea010ce523c4674fb36e263bf3a3ae","id":131651046,"location_subtype":"","month":"2025-10"},{"category":"other-theft","location_type":"Force","location":{"latitude":"53.713558","street":{"id":2113465,"name":"On or near Listing Court"},"longitude":"-1.687147"},"context":"","outcome_status":{"category":"Investigation complete; no suspect identified","date":"2025-10"},"persistent_id":"dadf636e9d76277f6fce58509e6148295df4b8a6018056264d0212d765128a1b","id":131652156,"location_subtype":"","month":"2025-10"},{"category":"other-theft","location_type":"Force","location":{"latitude":"53.704710","street":{"id":2112995,"name":"On or near Hartley Court"},"longitude":"-1.692893"},"context":"","outcome_status":{"category":"Investigation complete; no suspect identified","date":"2025-10"},"persistent_id":"62c17925cad8bf2449169f29ab5342e1307f06d60cb5ee810ed619ad7122fdf3","id":131668480,"location_subtype":"","month":"2025-10"},{"category":"other-theft","location_type":"Force","location":{"latitude":"53.697468","street":{"id":2112718,"name":"On or near Rydal Grove"},"longitude":"-1.697111"},"context":"","outcome_status":{"category":"Under investigation","date":"2025-10"},"persistent_id":"f722a7bbd6de000e25551cc5a60e7474374f88aa3adfbd83cd5e032776600d42","id":131676456,"location_subtype":"","month":"2025-10"},{"category":"other-theft","location_type":"Force","location":{"latitude":"53.718852","street":{"id":2111981,"name":"On or near Bridon Way"},"longitude":"-1.708732"},"context":"","outcome_status":{"category":"Investigation complete; no suspect identified","date":"2025-11"},"persistent_id":"6a4e77a8095cb3f8fe35e666e3edbcc7d66cfe56b7e56a5a6a9420bceaf604b7","id":131683197,"location_subtype":"","month":"2025-10"},{"category":"other-theft","location_type":"Force","location":{"latitude":"53.704439","street":{"id":2113759,"name":"On or near Cornmill Avenue"},"longitude":"-1.682034"},"context":"","outcome_status":{"category":"Investigation complete; no suspect identified","date":"2025-10"},"persistent_id":"6f21c322a466ae0e533509da2b70fefabbe30518676c336b91e354159c6ef6b5","id":131675381,"location_subtype":"","month":"2025-10"},{"category":"other-theft","location_type":"Force","location":{"latitude":"53.709083","street":{"id":2113914,"name":"On or near Barber Square"},"longitude":"-1.677424"},"context":"","outcome_status":{"category":"Investigation complete; no suspect identified","date":"2025-11"},"persistent_id":"e0936e0a32cf8d2d50ed9dffe4611b9bfda356fc784266b14c24918f33a8a211","id":131655749,"location_subtype":"","month":"2025-10"},{"category":"other-theft","location_type":"Force","location":{"latitude":"53.707022","street":{"id":2113046,"name":"On or near Cliff Court"},"longitude":"-1.693588"},"context":"","outcome_status":{"category":"Investigation complete; no suspect identified","date":"2025-10"},"persistent_id":"d909577c13f41d2c14090e4bd5a3d1dae91d9a21afb3daf274f5e105d870e6e5","id":131640537,"location_subtype":"","month":"2025-10"},{"category":"public-order","location_type":"Force","location":{"latitude":"53.709485","street":{"id":2113252,"name":"On or near Sampson Street"},"longitude":"-1.690162"},"context":"","outcome_status":{"category":"Unable to prosecute suspect","date":"2025-10"},"persistent_id":"cebc47d2aa3a8c1898e39530f7cd213a3eb14e27bf419c1492876b1ff8d4fd7e","id":131640078,"location_subtype":"","month":"2025-10"},{"category":"public-order","location_type":"Force","location":{"latitude":"53.712412","street":{"id":2113388,"name":"On or near Bradd Close"},"longitude":"-1.688943"},"context":"","outcome_status":{"category":"Unable to prosecute suspect","date":"2025-12"},"persistent_id":"6e0e54c86d9e9ecb7d75ad6e00891a64a16b0d231a2c24ca8abc2ff6f0a2f76c","id":131678983,"location_subtype":"","month":"2025-10"},{"category":"public-order","location_type":"Force","location":{"latitude":"53.711626","street":{"id":2113480,"name":"On or near Healds Avenue"},"longitude":"-1.687283"},"context":"","outcome_status":{"category":"Investigation complete; no suspect identified","date":"2025-10"},"persistent_id":"1e0647b2d7ae73e101eafdd069fc0e83933f15e75f95e8a0d99ca17d70afd724","id":131655857,"location_subtype":"","month":"2025-10"},{"category":"public-order","location_type":"Force","location":{"latitude":"53.709083","street":{"id":2113914,"name":"On or near Barber Square"},"longitude":"-1.677424"},"context":"","outcome_status":{"category":"Investigation complete; no suspect identified","date":"2025-10"},"persistent_id":"071ec6cdc272df363e0d3274b020f16c6417998e78f819118dc1e2a05e8a2ad8","id":131630493,"location_subtype":"","month":"2025-10"},{"category":"public-order","location_type":"Force","location":{"latitude":"53.709083","street":{"id":2113914,"name":"On or near Barber Square"},"longitude":"-1.677424"},"context":"","outcome_status":{"category":"Investigation complete; no suspect identified","date":"2025-10"},"persistent_id":"874ef9eb77df5d5447571ba3ba9f6e39695b2109a395f7ba0081e51f618f747f","id":131667191,"location_subtype":"","month":"2025-10"},{"category":"public-order","location_type":"Force","location":{"latitude":"53.707228","street":{"id":2113789,"name":"On or near Parking Area"},"longitude":"-1.679529"},"context":"","outcome_status":{"category":"Unable to prosecute suspect","date":"2025-10"},"persistent_id":"05f34b67589a18084cf9904c41e2b09203b42ac066767f51e352379bc7d4c996","id":131645648,"location_subtype":"","month":"2025-10"},{"category":"public-order","location_type":"Force","location":{"latitude":"53.707356","street":{"id":2113961,"name":"On or near Queen Street"},"longitude":"-1.677134"},"context":"","outcome_status":{"category":"Local resolution","date":"2025-10"},"persistent_id":"a5cf5baca0064757026b91ac90e19173a4e4656e355b2a23b28db852686470ea","id":131653750,"location_subtype":"","month":"2025-10"},{"category":"public-order","location_type":"Force","location":{"latitude":"53.713605","street":{"id":2113654,"name":"On or near Firthcliffe Drive"},"longitude":"-1.684404"},"context":"","outcome_status":{"category":"Unable to prosecute suspect","date":"2025-10"},"persistent_id":"446ef0c355c19d892756aa71825bb39160324c444734b9fba4bf8c6635b832e7","id":131652298,"location_subtype":"","month":"2025-10"},{"category":"public-order","location_type":"Force","location":{"latitude":"53.711846","street":{"id":2112800,"name":"On or near Kirklands"},"longitude":"-1.696038"},"context":"","outcome_status":{"category":"Investigation complete; no suspect identified","date":"2025-10"},"persistent_id":"4d9201ab9d34603b98b5d4e276005ec0646d9ec36c586e54d848cd4a714fc07f","id":131661889,"location_subtype":"","month":"2025-10"},{"category":"public-order","location_type":"Force","location":{"latitude":"53.703010","street":{"id":2113270,"name":"On or near Cornmill Crescent"},"longitude":"-1.688876"},"context":"","outcome_status":{"category":"Investigation complete; no suspect identified","date":"2025-11"},"persistent_id":"40c06be21add0d7ef6d2f5d109e54b657c299ecd207fd1187f610488c5a75bcb","id":131679921,"location_subtype":"","month":"2025-10"},{"category":"public-order","location_type":"Force","location":{"latitude":"53.712912","street":{"id":2112418,"name":"On or near Denby Close"},"longitude":"-1.701849"},"context":"","outcome_status":{"category":"Investigation complete; no suspect identified","date":"2025-10"},"persistent_id":"12fadfbbc0407f937568f5aa28a365162f08a2c334f74035bb57b3e3edf9384f","id":131652211,"location_subtype":"","month":"2025-10"},{"category":"robbery","location_type":"Force","location":{"latitude":"53.706422","street":{"id":2113240,"name":"On or near Hindley Road"},"longitude":"-1.690927"},"context":"","outcome_status":{"category":"Unable to prosecute suspect","date":"2025-12"},"persistent_id":"1192e203786188cfb65ca69cda85d5aa92781043dcd816274e155ab5b75d7e55","id":131681992,"location_subtype":"","month":"2025-10"},{"category":"shoplifting","location_type":"Force","location":{"latitude":"53.707356","street":{"id":2113961,"name":"On or near Queen Street"},"longitude":"-1.677134"},"context":"","outcome_status":{"category":"Investigation complete; no suspect identified","date":"2025-10"},"persistent_id":"96b4b151d078d6207e25d527aec5dda1f3cc3a7a5d425d96ec3fc4c73707ffff","id":131678902,"location_subtype":"","month":"2025-10"},{"category":"shoplifting","location_type":"Force","location":{"latitude":"53.707356","street":{"id":2113961,"name":"On or near Queen Street"},"longitude":"-1.677134"},"context":"","outcome_status":{"category":"Investigation complete; no suspect identified","date":"2026-01"},"persistent_id":"a112e0b582beea16286d7fcb03a711f9b5954f29a757766bc258a194f745154d","id":131674423,"location_subtype":"","month":"2025-10"},{"category":"shoplifting","location_type":"Force","location":{"latitude":"53.707356","street":{"id":2113961,"name":"On or near Queen Street"},"longitude":"-1.677134"},"context":"","outcome_status":{"category":"Investigation complete; no suspect identified","date":"2026-01"},"persistent_id":"c5b0249d9d21c13a96993d7d6cc5ae7b36deba5651c00bc295b6e0584b1c847e","id":131654228,"location_subtype":"","month":"2025-10"},{"category":"shoplifting","location_type":"Force","location":{"latitude":"53.707356","street":{"id":2113961,"name":"On or near Queen Street"},"longitude":"-1.677134"},"context":"","outcome_status":{"category":"Awaiting court outcome","date":"2025-11"},"persistent_id":"b3183b219e98417d7647dc2a10ea9b0a5534ac589f1ddda9b787e3731c7b9eb3","id":131654336,"location_subtype":"","month":"2025-10"},{"category":"shoplifting","location_type":"Force","location":{"latitude":"53.711257","street":{"id":2113391,"name":"On or near Petrol Station"},"longitude":"-1.688376"},"context":"","outcome_status":{"category":"Awaiting court outcome","date":"2025-10"},"persistent_id":"5abdf91705aa844032b6229254d9441bf454e7af485fb018bb154f597e28d2fe","id":131669129,"location_subtype":"","month":"2025-10"},{"category":"shoplifting","location_type":"Force","location":{"latitude":"53.698155","street":{"id":2112692,"name":"On or near Ashby Close"},"longitude":"-1.698908"},"context":"","outcome_status":{"category":"Offender given a caution","date":"2025-12"},"persistent_id":"6f30e258806b2c68fc2fbe42e783855e3ddbf2ca797ea854154c9056eb4bbc94","id":131644559,"location_subtype":"","month":"2025-10"},{"category":"shoplifting","location_type":"Force","location":{"latitude":"53.707356","street":{"id":2113961,"name":"On or near Queen Street"},"longitude":"-1.677134"},"context":"","outcome_status":{"category":"Investigation complete; no suspect identified","date":"2025-10"},"persistent_id":"fd74c2fb563ce9368c7d3d4e9f31d642b8e86702491ded33ee9bc5973b2313fd","id":131626421,"location_subtype":"","month":"2025-10"},{"category":"shoplifting","location_type":"Force","location":{"latitude":"53.709152","street":{"id":2113729,"name":"On or near Flush"},"longitude":"-1.682923"},"context":"","outcome_status":{"category":"Unable to prosecute suspect","date":"2025-10"},"persistent_id":"6d15d97ec78b29b2e453712258d576b84502ed5890a63b52d6be957d540c59f7","id":131655527,"location_subtype":"","month":"2025-10"},{"category":"shoplifting","location_type":"Force","location":{"latitude":"53.709152","street":{"id":2113729,"name":"On or near Flush"},"longitude":"-1.682923"},"context":"","outcome_status":{"category":"Investigation complete; no suspect identified","date":"2025-10"},"persistent_id":"5c9e82950f8356418f9d145594e6cb216cd3e3605aa12cecf3f133e4538ce097","id":131634012,"location_subtype":"","month":"2025-10"},{"category":"shoplifting","location_type":"Force","location":{"latitude":"53.711257","street":{"id":2113391,"name":"On or near Petrol Station"},"longitude":"-1.688376"},"context":"","outcome_status":{"category":"Investigation complete; no suspect identified","date":"2025-10"},"persistent_id":"52ce5c7f6efcef7a97549a9cd5f18a8cc121b567a4fd5d48725429f589f949e0","id":131660702,"location_subtype":"","month":"2025-10"},{"category":"shoplifting","location_type":"Force","location":{"latitude":"53.707356","street":{"id":2113961,"name":"On or near Queen Street"},"longitude":"-1.677134"},"context":"","outcome_status":{"category":"Investigation complete; no suspect identified","date":"2025-11"},"persistent_id":"3a727e7a5efdb0e4f030e60add377cce0e0b0e21325805cfc83f7b0b6ad0104a","id":131674426,"location_subtype":"","month":"2025-10"},{"category":"shoplifting","location_type":"Force","location":{"latitude":"53.707356","street":{"id":2113961,"name":"On or near Queen Street"},"longitude":"-1.677134"},"context":"","outcome_status":{"category":"Investigation complete; no suspect identified","date":"2025-12"},"persistent_id":"614f117c197ee43a43db2cc74b8c3182542291c80139340fa46942476b35fa83","id":131652992,"location_subtype":"","month":"2025-10"},{"category":"shoplifting","location_type":"Force","location":{"latitude":"53.707356","street":{"id":2113961,"name":"On or near Queen Street"},"longitude":"-1.677134"},"context":"","outcome_status":{"category":"Investigation complete; no suspect identified","date":"2025-10"},"persistent_id":"213a4fa7bfcc7898b4db63e426415c4350d5ced8e3024f6eb7e8ff71b33f36c3","id":131666522,"location_subtype":"","month":"2025-10"},{"category":"vehicle-crime","location_type":"Force","location":{"latitude":"53.712535","street":{"id":2113436,"name":"On or near Listing Drive"},"longitude":"-1.687639"},"context":"","outcome_status":{"category":"Investigation complete; no suspect identified","date":"2025-10"},"persistent_id":"2c9e4003c53195a63598dd07a0548130f15b30f3c4db13d0d7502aae79e1d48e","id":131669798,"location_subtype":"","month":"2025-10"},{"category":"vehicle-crime","location_type":"Force","location":{"latitude":"53.709741","street":{"id":2113541,"name":"On or near Frost Hill"},"longitude":"-1.684948"},"context":"","outcome_status":{"category":"Investigation complete; no suspect identified","date":"2025-10"},"persistent_id":"9307e9843707ff6e50aa0fdf86d89647fd2be48928630930c70900fd1d7f0db4","id":131678667,"location_subtype":"","month":"2025-10"},{"category":"vehicle-crime","location_type":"Force","location":{"latitude":"53.715397","street":{"id":2113715,"name":"On or near Firthcliffe Place"},"longitude":"-1.682512"},"context":"","outcome_status":{"category":"Unable to prosecute suspect","date":"2026-01"},"persistent_id":"b9b90ab30572bf7b1a2d60294337f48246ab7a1afa90523ed34e5be7a08c5dce","id":131663403,"location_subtype":"","month":"2025-10"},{"category":"vehicle-crime","location_type":"Force","location":{"latitude":"53.715715","street":{"id":2113015,"name":"On or near Edward Street"},"longitude":"-1.694116"},"context":"","outcome_status":{"category":"Investigation complete; no suspect identified","date":"2025-10"},"persistent_id":"0334ca8ad13171e620c3c42de4607c601b38fe240f8e74117bbd859991c29389","id":131657211,"location_subtype":"","month":"2025-10"},{"category":"vehicle-crime","location_type":"Force","location":{"latitude":"53.715529","street":{"id":2113790,"name":"On or near Saxton Street"},"longitude":"-1.681223"},"context":"","outcome_status":{"category":"Investigation complete; no suspect identified","date":"2025-10"},"persistent_id":"1c814e84b363b54ab94a2a26a91ad6d37893960da42697089cab3add893b402f","id":131663812,"location_subtype":"","month":"2025-10"},{"category":"vehicle-crime","location_type":"Force","location":{"latitude":"53.699889","street":{"id":2112916,"name":"On or near Balmfield"},"longitude":"-1.694837"},"context":"","outcome_status":{"category":"Investigation complete; no suspect identified","date":"2025-10"},"persistent_id":"f7eb862a4163e1b32ed280e24566b20898bb677e55408e5c3858bc799c57b660","id":131683226,"location_subtype":"","month":"2025-10"},{"category":"vehicle-crime","location_type":"Force","location":{"latitude":"53.711105","street":{"id":2112905,"name":"On or near Churchfield Close"},"longitude":"-1.694316"},"context":"","outcome_status":{"category":"Investigation complete; no suspect identified","date":"2025-10"},"persistent_id":"ecf8772a3f95898379774e147000b81a33df85a1cc8182882eb3d29c27891b75","id":131631402,"location_subtype":"","month":"2025-10"},{"category":"vehicle-crime","location_type":"Force","location":{"latitude":"53.716825","street":{"id":2112849,"name":"On or near Garden View"},"longitude":"-1.695820"},"context":"","outcome_status":{"category":"Investigation complete; no suspect identified","date":"2025-10"},"persistent_id":"7846516332eed4743a6a7fe3093dae9f13d825bdfcab5d22a535951456c9af09","id":131638093,"location_subtype":"","month":"2025-10"},{"category":"vehicle-crime","location_type":"Force","location":{"latitude":"53.705729","street":{"id":2112956,"name":"On or near Headlands Street"},"longitude":"-1.693901"},"context":"","outcome_status":{"category":"Investigation complete; no suspect identified","date":"2025-10"},"persistent_id":"64b2b1f19c5f0e93899d9ebe2a3eff3dd8c122744cac744a93d37eaee9f8cea0","id":131644693,"location_subtype":"","month":"2025-10"},{"category":"violent-crime","location_type":"Force","location":{"latitude":"53.704710","street":{"id":2112995,"name":"On or near Hartley Court"},"longitude":"-1.692893"},"context":"","outcome_status":{"category":"Under investigation","date":"2025-10"},"persistent_id":"493e7e17a94cd01adeb8d6e9e7d2b1290cc8c674215dfd12d486aa5c8d228564","id":131679863,"location_subtype":"","month":"2025-10"},{"category":"violent-crime","location_type":"Force","location":{"latitude":"53.700410","street":{"id":2111214,"name":"On or near School Lane"},"longitude":"-1.720613"},"context":"","outcome_status":{"category":"Under investigation","date":"2025-10"},"persistent_id":"1ad6680edb75d256dbfcbf33bf424d37fa46ee0d432b1ee2636c006ebac238f3","id":131648722,"location_subtype":"","month":"2025-10"},{"category":"violent-crime","location_type":"Force","location":{"latitude":"53.700410","street":{"id":2111214,"name":"On or near School Lane"},"longitude":"-1.720613"},"context":"","outcome_status":{"category":"Under investigation","date":"2025-10"},"persistent_id":"6f1fcac8d84ed0e64557b941436b871f2f76e3b5faf8772d2c02af81b5712227","id":131648775,"location_subtype":"","month":"2025-10"},{"category":"violent-crime","location_type":"Force","location":{"latitude":"53.713605","street":{"id":2113654,"name":"On or near Firthcliffe Drive"},"longitude":"-1.684404"},"context":"","outcome_status":{"category":"Unable to prosecute suspect","date":"2025-11"},"persistent_id":"08f2ae1c1d85bc4fc998d75b42af947db745faaf607387642de0f9f3d3ccd861","id":131651966,"location_subtype":"","month":"2025-10"},{"category":"violent-crime","location_type":"Force","location":{"latitude":"53.701542","street":{"id":2113670,"name":"On or near Spring Bank Drive"},"longitude":"-1.684010"},"context":"","outcome_status":{"category":"Under investigation","date":"2025-10"},"persistent_id":"6a995ae0f986fe0427a1ca167bcfd73bf90bcadf30be502025167e8fecd74ad3","id":131652064,"location_subtype":"","month":"2025-10"},{"category":"violent-crime","location_type":"Force","location":{"latitude":"53.700410","street":{"id":2111214,"name":"On or near School Lane"},"longitude":"-1.720613"},"context":"","outcome_status":{"category":"Unable to prosecute suspect","date":"2026-01"},"persistent_id":"755711514e7a665c9e01992fdd83fdc6cc63611b20d8e42eaaf95f6ed39cc048","id":131634208,"location_subtype":"","month":"2025-10"},{"category":"violent-crime","location_type":"Force","location":{"latitude":"53.712535","street":{"id":2113436,"name":"On or near Listing Drive"},"longitude":"-1.687639"},"context":"","outcome_status":{"category":"Unable to prosecute suspect","date":"2025-11"},"persistent_id":"6fbad22551e3de42c69829e6c4db686e28725639eb1ff3750e36097ca34e2d31","id":131637976,"location_subtype":"","month":"2025-10"},{"category":"violent-crime","location_type":"Force","location":{"latitude":"53.709485","street":{"id":2113252,"name":"On or near Sampson Street"},"longitude":"-1.690162"},"context":"","outcome_status":{"category":"Unable to prosecute suspect","date":"2025-11"},"persistent_id":"f464c60ec116898f78cc5bcef4abe2ae88c79d3dd461bed3f070e9b49af26b25","id":131639729,"location_subtype":"","month":"2025-10"},{"category":"violent-crime","location_type":"Force","location":{"latitude":"53.714065","street":{"id":2113132,"name":"On or near Bradford Road"},"longitude":"-1.692052"},"context":"","outcome_status":{"category":"Unable to prosecute suspect","date":"2025-11"},"persistent_id":"5cf91b8309540e317dbf8d527680f81f64764865fd8b955b411983d60b79e3ca","id":131639457,"location_subtype":"","month":"2025-10"},{"category":"violent-crime","location_type":"Force","location":{"latitude":"53.712535","street":{"id":2113436,"name":"On or near Listing Drive"},"longitude":"-1.687639"},"context":"","outcome_status":{"category":"Unable to prosecute suspect","date":"2025-11"},"persistent_id":"629e2b830ee4b8eb039313970e57e42292227ca27ad5e6ff123083dc8aed4a2f","id":131639472,"location_subtype":"","month":"2025-10"},{"category":"violent-crime","location_type":"Force","location":{"latitude":"53.703207","street":{"id":2113134,"name":"On or near Willow Walk"},"longitude":"-1.692132"},"context":"","outcome_status":{"category":"Investigation complete; no suspect identified","date":"2025-10"},"persistent_id":"779fe3229dd2f87314a24c6a524ace84b26592101f3713da0f6a564aaab9a9a8","id":131639972,"location_subtype":"","month":"2025-10"},{"category":"violent-crime","location_type":"Force","location":{"latitude":"53.709231","street":{"id":2113754,"name":"On or near John William Street"},"longitude":"-1.682225"},"context":"","outcome_status":{"category":"Unable to prosecute suspect","date":"2025-11"},"persistent_id":"26f747891ee9c0540e699783752403c9bb4ee4be23cf1215ce187f3cacb46ea7","id":131665356,"location_subtype":"","month":"2025-10"},{"category":"violent-crime","location_type":"Force","location":{"latitude":"53.708202","street":{"id":2113250,"name":"On or near Albion Street"},"longitude":"-1.690914"},"context":"","outcome_status":{"category":"Under investigation","date":"2025-10"},"persistent_id":"5f820e6b496e6a8a8e428cb82757c2b4a1b8c2555ce9e9d381551d9d5818e781","id":131672233,"location_subtype":"","month":"2025-10"},{"category":"violent-crime","location_type":"Force","location":{"latitude":"53.710363","street":{"id":2113127,"name":"On or near Lonsdale Terrace"},"longitude":"-1.692458"},"context":"","outcome_status":{"category":"Unable to prosecute suspect","date":"2025-10"},"persistent_id":"e31690479452ec7f35cc9e4877fd188729f281179548b2fcf21873ccf6da2c59","id":131656952,"location_subtype":"","month":"2025-10"},{"category":"violent-crime","location_type":"Force","location":{"latitude":"53.710925","street":{"id":2110980,"name":"On or near Harepark Drive"},"longitude":"-1.723952"},"context":"","outcome_status":{"category":"Unable to prosecute suspect","date":"2025-10"},"persistent_id":"1e2a8512517c04a556d1f615dc2ba0641ba38058334aa0f26b877989ff11045e","id":131657388,"location_subtype":"","month":"2025-10"},{"category":"violent-crime","location_type":"Force","location":{"latitude":"53.704041","street":{"id":2113918,"name":"On or near Sports/recreation Area"},"longitude":"-1.678503"},"context":"","outcome_status":{"category":"Unable to prosecute suspect","date":"2025-10"},"persistent_id":"88288e32a11c6b52bd7a0ee6a8d7756f9b5cdecca84152ac98ba3403dbf9afe6","id":131657596,"location_subtype":"","month":"2025-10"},{"category":"violent-crime","location_type":"Force","location":{"latitude":"53.710258","street":{"id":2112291,"name":"On or near Balks"},"longitude":"-1.704458"},"context":"","outcome_status":{"category":"Unable to prosecute suspect","date":"2025-10"},"persistent_id":"ec35414b32dfc0bbc6a125fe706865c7f34f9db565ddef7c1c3e669f235ce52f","id":131657779,"location_subtype":"","month":"2025-10"},{"category":"violent-crime","location_type":"Force","location":{"latitude":"53.699246","street":{"id":2112357,"name":"On or near John Booth Close"},"longitude":"-1.703929"},"context":"","outcome_status":{"category":"Investigation complete; no suspect identified","date":"2025-10"},"persistent_id":"b346a77a91a5761810c6c1db518bc283113138bae3be4eb8653fc0365a43e01e","id":131682583,"location_subtype":"","month":"2025-10"},{"category":"violent-crime","location_type":"Force","location":{"latitude":"53.709231","street":{"id":2113754,"name":"On or near John William Street"},"longitude":"-1.682225"},"context":"","outcome_status":{"category":"Investigation complete; no suspect identified","date":"2025-11"},"persistent_id":"9e0c9d7a0c7294086fbf66e11adcae9fdd460b29d9be6f3a9cc6afa957ff8c3c","id":131684458,"location_subtype":"","month":"2025-10"},{"category":"violent-crime","location_type":"Force","location":{"latitude":"53.701533","street":{"id":2113208,"name":"On or near Heath Street"},"longitude":"-1.690962"},"context":"","outcome_status":{"category":"Under investigation","date":"2025-10"},"persistent_id":"7277e98a09ceaa41a3727c211ea655c6dc25307e0bdbdae6a84fd233c9879934","id":131627043,"location_subtype":"","month":"2025-10"},{"category":"violent-crime","location_type":"Force","location":{"latitude":"53.701755","street":{"id":2113819,"name":"On or near Kings Lea"},"longitude":"-1.679903"},"context":"","outcome_status":{"category":"Unable to prosecute suspect","date":"2025-10"},"persistent_id":"0ec7466d4c67d1f7af146a0a43468e75ab7109923625ed3e2e83521b897143be","id":131627743,"location_subtype":"","month":"2025-10"},{"category":"violent-crime","location_type":"Force","location":{"latitude":"53.709485","street":{"id":2113252,"name":"On or near Sampson Street"},"longitude":"-1.690162"},"context":"","outcome_status":{"category":"Unable to prosecute suspect","date":"2025-11"},"persistent_id":"8565a037c82a2396af7f136d2416c954d1ed7f0a167ef2fce88245f16bcb20ca","id":131648101,"location_subtype":"","month":"2025-10"},{"category":"violent-crime","location_type":"Force","location":{"latitude":"53.711526","street":{"id":2113756,"name":"On or near Sports/recreation Area"},"longitude":"-1.681976"},"context":"","outcome_status":{"category":"Investigation complete; no suspect identified","date":"2025-11"},"persistent_id":"17eaf84621e8c876d06f65039b0d181d57548997ae817911271e4f13d4706397","id":131654257,"location_subtype":"","month":"2025-10"},{"category":"violent-crime","location_type":"Force","location":{"latitude":"53.712548","street":{"id":2111651,"name":"On or near Cotswold Drive"},"longitude":"-1.714729"},"context":"","outcome_status":{"category":"Under investigation","date":"2025-10"},"persistent_id":"9a8f5565baf5f166ee558077e345dc717707f26d9c14e2fb9e39f48285fbd77b","id":131680227,"location_subtype":"","month":"2025-10"},{"category":"violent-crime","location_type":"Force","location":{"latitude":"53.700258","street":{"id":2112432,"name":"On or near Roberttown Lane"},"longitude":"-1.702089"},"context":"","outcome_status":{"category":"Unable to prosecute suspect","date":"2025-11"},"persistent_id":"1a003bb75f9bad856b3f475a5e0d115aff2be0170ff7467f0bcae08ff4dc815a","id":131627928,"location_subtype":"","month":"2025-10"},{"category":"violent-crime","location_type":"Force","location":{"latitude":"53.721435","street":{"id":2111962,"name":"On or near Neville Street"},"longitude":"-1.710138"},"context":"","outcome_status":{"category":"Under investigation","date":"2025-10"},"persistent_id":"4266f6851a196a7d18b272ba733cfdd62622468ec9a9c5e7d92cbbb5dc9247e1","id":131626398,"location_subtype":"","month":"2025-10"},{"category":"violent-crime","location_type":"Force","location":{"latitude":"53.709485","street":{"id":2113252,"name":"On or near Sampson Street"},"longitude":"-1.690162"},"context":"","outcome_status":{"category":"Unable to prosecute suspect","date":"2025-11"},"persistent_id":"31c6a106520bd94900b2d0bbea5fdd7200c3fd6379e5e2f3a8a6acbef40d963e","id":131647355,"location_subtype":"","month":"2025-10"},{"category":"violent-crime","location_type":"Force","location":{"latitude":"53.719344","street":{"id":2112516,"name":"On or near New Street"},"longitude":"-1.700439"},"context":"","outcome_status":{"category":"Under investigation","date":"2025-10"},"persistent_id":"8bf84b411025c0ff4961627f93779ed784f733ea6621753dcc14fddca4d4e582","id":131643444,"location_subtype":"","month":"2025-10"},{"category":"violent-crime","location_type":"Force","location":{"latitude":"53.709152","street":{"id":2113729,"name":"On or near Flush"},"longitude":"-1.682923"},"context":"","outcome_status":{"category":"Investigation complete; no suspect identified","date":"2026-01"},"persistent_id":"2809dbcdbf8ccb2a0a38bc3e506d2415035b87b3f68522f96e8d2876567fb79b","id":131676675,"location_subtype":"","month":"2025-10"},{"category":"violent-crime","location_type":"Force","location":{"latitude":"53.711169","street":{"id":2112496,"name":"On or near Lower Hall Lane"},"longitude":"-1.701906"},"context":"","outcome_status":{"category":"Unable to prosecute suspect","date":"2025-11"},"persistent_id":"913ee97d087f301c5bcc2e8e400adddb9cacb9f0e65e1a1230e8324ef39e0a5f","id":131677612,"location_subtype":"","month":"2025-10"},{"category":"violent-crime","location_type":"Force","location":{"latitude":"53.696027","street":{"id":2112598,"name":"On or near Leeds Road"},"longitude":"-1.699726"},"context":"","outcome_status":{"category":"Unable to prosecute suspect","date":"2025-11"},"persistent_id":"39b61fa3e561900046bdb93508db26ad14d539a06294c27d8c686a40ec771960","id":131678678,"location_subtype":"","month":"2025-10"},{"category":"violent-crime","location_type":"Force","location":{"latitude":"53.712412","street":{"id":2113388,"name":"On or near Bradd Close"},"longitude":"-1.688943"},"context":"","outcome_status":{"category":"Unable to prosecute suspect","date":"2025-11"},"persistent_id":"81dfb608bda3334cf47a6c1dcff65c6e6ba3249e737299f6626d7916b7136aa9","id":131678684,"location_subtype":"","month":"2025-10"},{"category":"violent-crime","location_type":"Force","location":{"latitude":"53.712236","street":{"id":2113704,"name":"On or near Leeds Road"},"longitude":"-1.683460"},"context":"","outcome_status":{"category":"Unable to prosecute suspect","date":"2025-11"},"persistent_id":"632143a1a7e828949948a676da45b970e0eebb8d246ff7c48c790412ec20f5f4","id":131679117,"location_subtype":"","month":"2025-10"},{"category":"violent-crime","location_type":"Force","location":{"latitude":"53.712535","street":{"id":2113436,"name":"On or near Listing Drive"},"longitude":"-1.687639"},"context":"","outcome_status":{"category":"Unable to prosecute suspect","date":"2026-01"},"persistent_id":"006c685c576ea918bfe7b7f2c4e06f48cec5eae73722a4fdcf61a42cf6889bc2","id":131679338,"location_subtype":"","month":"2025-10"},{"category":"violent-crime","location_type":"Force","location":{"latitude":"53.713103","street":{"id":2113389,"name":"On or near Ings Road"},"longitude":"-1.688575"},"context":"","outcome_status":{"category":"Under investigation","date":"2025-10"},"persistent_id":"7304504405fc7556eb9e26910f8281f9b38167d98120d0e5f8599f617d9cb6a0","id":131679660,"location_subtype":"","month":"2025-10"},{"category":"violent-crime","location_type":"Force","location":{"latitude":"53.715720","street":{"id":2112843,"name":"On or near Upper Carr Street"},"longitude":"-1.696041"},"context":"","outcome_status":{"category":"Under investigation","date":"2025-10"},"persistent_id":"3c44c97d27559a4ea782419491c1718fb927aab5a9096ddac19f3cb2c7f7ed4a","id":131679690,"location_subtype":"","month":"2025-10"},{"category":"violent-crime","location_type":"Force","location":{"latitude":"53.699997","street":{"id":2112282,"name":"On or near Echo Street"},"longitude":"-1.705590"},"context":"","outcome_status":{"category":"Investigation complete; no suspect identified","date":"2025-12"},"persistent_id":"7c30ced346b38aa6cc8b151a6a33a7dbfb2d7c95d51335e74a9d53db65cac8e6","id":131681530,"location_subtype":"","month":"2025-10"},{"category":"violent-crime","location_type":"Force","location":{"latitude":"53.715397","street":{"id":2113715,"name":"On or near Firthcliffe Place"},"longitude":"-1.682512"},"context":"","outcome_status":{"category":"Unable to prosecute suspect","date":"2025-10"},"persistent_id":"b7854d6f19602e5f15db10a60e8d68303dcdaa1b8c1b3deef3fad374484447e2","id":131631651,"location_subtype":"","month":"2025-10"},{"category":"violent-crime","location_type":"Force","location":{"latitude":"53.700258","street":{"id":2112432,"name":"On or near Roberttown Lane"},"longitude":"-1.702089"},"context":"","outcome_status":{"category":"Unable to prosecute suspect","date":"2025-10"},"persistent_id":"a16f4dd62bead991ae5810917b5e499aeae3799fb9784d3c3354e15a62721527","id":131645717,"location_subtype":"","month":"2025-10"},{"category":"violent-crime","location_type":"Force","location":{"latitude":"53.712236","street":{"id":2113704,"name":"On or near Leeds Road"},"longitude":"-1.683460"},"context":"","outcome_status":{"category":"Unable to prosecute suspect","date":"2025-10"},"persistent_id":"ac5ce4fa77146c1ee06667b748feb483a8ad4a29bf0df8253530c3a2288da209","id":131649805,"location_subtype":"","month":"2025-10"},{"category":"violent-crime","location_type":"Force","location":{"latitude":"53.704349","street":{"id":2112884,"name":"On or near Duxbury Gardens"},"longitude":"-1.695516"},"context":"","outcome_status":{"category":"Investigation complete; no suspect identified","date":"2025-10"},"persistent_id":"a2ea08bc7e6205a817ae956a88f5d0d9597bfd34d1f3de891655302e9759e688","id":131659504,"location_subtype":"","month":"2025-10"},{"category":"violent-crime","location_type":"Force","location":{"latitude":"53.718852","street":{"id":2111981,"name":"On or near Bridon Way"},"longitude":"-1.708732"},"context":"","outcome_status":{"category":"Investigation complete; no suspect identified","date":"2025-10"},"persistent_id":"dd0614b119a30676a0fd32292d10c8916d88a20a6684a9a64e8b91d709eace05","id":131664526,"location_subtype":"","month":"2025-10"},{"category":"violent-crime","location_type":"Force","location":{"latitude":"53.708634","street":{"id":2113173,"name":"On or near Upper Barker Street"},"longitude":"-1.691350"},"context":"","outcome_status":{"category":"Unable to prosecute suspect","date":"2025-10"},"persistent_id":"aa5806aafc692684201161a8b8d0748f083e9ba4a3234599261e3075002c994e","id":131625910,"location_subtype":"","month":"2025-10"},{"category":"violent-crime","location_type":"Force","location":{"latitude":"53.709393","street":{"id":2113338,"name":"On or near Barker Street"},"longitude":"-1.689269"},"context":"","outcome_status":{"category":"Awaiting court outcome","date":"2025-10"},"persistent_id":"833a165d2e5ced0ca7ad2fa8c08496668b3dfd8da7f1fafe97883e3f13f91927","id":131627358,"location_subtype":"","month":"2025-10"},{"category":"violent-crime","location_type":"Force","location":{"latitude":"53.713024","street":{"id":2113300,"name":"On or near A638"},"longitude":"-1.689303"},"context":"","outcome_status":{"category":"Unable to prosecute suspect","date":"2025-10"},"persistent_id":"be8d6024cc6d4b250e9147d7adcf1880884e814a2da1e7dfb6f27d2fc2cdce5f","id":131627901,"location_subtype":"","month":"2025-10"},{"category":"other-crime","location_type":"Force","location":{"latitude":"53.707356","street":{"id":2113961,"name":"On or near Queen Street"},"longitude":"-1.677134"},"context":"","outcome_status":{"category":"Awaiting court outcome","date":"2025-10"},"persistent_id":"2963ee770400708450ae512af3ece9772d691333f11973f39eec262cdf65a803","id":131650946,"location_subtype":"","month":"2025-10"},{"category":"other-crime","location_type":"Force","location":{"latitude":"53.712523","street":{"id":2113238,"name":"On or near Valley Court"},"longitude":"-1.690170"},"context":"","outcome_status":{"category":"Further action is not in the public interest","date":"2025-11"},"persistent_id":"d40893210749cf15eab640711e935417eb752418e7efcaf5481ff53a4ad8c5fb","id":131632578,"location_subtype":"","month":"2025-10"},{"category":"other-crime","location_type":"Force","location":{"latitude":"53.716888","street":{"id":2112551,"name":"On or near Middleton Court"},"longitude":"-1.699290"},"context":"","outcome_status":{"category":"Awaiting court outcome","date":"2025-10"},"persistent_id":"05c75b5250c29edc5d16391cdf1f15772078b58e2755cd33876adffd9d3b45ac","id":131672345,"location_subtype":"","month":"2025-10"},{"category":"other-crime","location_type":"Force","location":{"latitude":"53.702653","street":{"id":2113028,"name":"On or near Hall Park Avenue"},"longitude":"-1.693120"},"context":"","outcome_status":{"category":"Under investigation","date":"2025-10"},"persistent_id":"3824acfc349d02e88e1d97ffade73b73adc50750d1eaeed2a9d3496f1b096bc7","id":131665353,"location_subtype":"","month":"2025-10"}]