[{"category":"anti-social-behaviour","location_type":"Force","location":{"latitude":"52.585678","street":{"id":1624721,"name":"On or near King Street"},"longitude":"-2.126888"},"context":"","outcome_status":null,"persistent_id":"","id":126521234,"location_subtype":"","month":"2025-02"},{"category":"anti-social-behaviour","location_type":"Force","location":{"latitude":"52.566452","street":{"id":1624959,"name":"On or near Supermarket"},"longitude":"-2.123897"},"context":"","outcome_status":null,"persistent_id":"","id":126521973,"location_subtype":"","month":"2025-02"},{"category":"anti-social-behaviour","location_type":"Force","location":{"latitude":"52.586404","street":{"id":1624493,"name":"On or near Cheapside"},"longitude":"-2.128927"},"context":"","outcome_status":null,"persistent_id":"","id":126521548,"location_subtype":"","month":"2025-02"},{"category":"anti-social-behaviour","location_type":"Force","location":{"latitude":"52.585678","street":{"id":1624721,"name":"On or near King Street"},"longitude":"-2.126888"},"context":"","outcome_status":null,"persistent_id":"","id":126521591,"location_subtype":"","month":"2025-02"},{"category":"anti-social-behaviour","location_type":"Force","location":{"latitude":"52.571772","street":{"id":1626517,"name":"On or near Junction Road"},"longitude":"-2.096556"},"context":"","outcome_status":null,"persistent_id":"","id":126521686,"location_subtype":"","month":"2025-02"},{"category":"anti-social-behaviour","location_type":"Force","location":{"latitude":"52.581496","street":{"id":1624600,"name":"On or near St John's Square"},"longitude":"-2.128263"},"context":"","outcome_status":null,"persistent_id":"","id":126521141,"location_subtype":"","month":"2025-02"},{"category":"anti-social-behaviour","location_type":"Force","location":{"latitude":"52.584296","street":{"id":1624894,"name":"On or near Police Station"},"longitude":"-2.124597"},"context":"","outcome_status":null,"persistent_id":"","id":126521235,"location_subtype":"","month":"2025-02"},{"category":"anti-social-behaviour","location_type":"Force","location":{"latitude":"52.583874","street":{"id":1624394,"name":"On or near Fold Street"},"longitude":"-2.132669"},"context":"","outcome_status":null,"persistent_id":"","id":126521307,"location_subtype":"","month":"2025-02"},{"category":"anti-social-behaviour","location_type":"Force","location":{"latitude":"52.568133","street":{"id":1624837,"name":"On or near Petrol Station"},"longitude":"-2.124197"},"context":"","outcome_status":null,"persistent_id":"","id":126521862,"location_subtype":"","month":"2025-02"},{"category":"anti-social-behaviour","location_type":"Force","location":{"latitude":"52.585678","street":{"id":1624721,"name":"On or near King Street"},"longitude":"-2.126888"},"context":"","outcome_status":null,"persistent_id":"","id":126521923,"location_subtype":"","month":"2025-02"},{"category":"anti-social-behaviour","location_type":"Force","location":{"latitude":"52.585678","street":{"id":1624721,"name":"On or near King Street"},"longitude":"-2.126888"},"context":"","outcome_status":null,"persistent_id":"","id":126521925,"location_subtype":"","month":"2025-02"},{"category":"anti-social-behaviour","location_type":"Force","location":{"latitude":"52.582675","street":{"id":1624217,"name":"On or near Supermarket"},"longitude":"-2.135041"},"context":"","outcome_status":null,"persistent_id":"","id":126520573,"location_subtype":"","month":"2025-02"},{"category":"anti-social-behaviour","location_type":"Force","location":{"latitude":"52.583032","street":{"id":1624512,"name":"On or near Parking Area"},"longitude":"-2.129980"},"context":"","outcome_status":null,"persistent_id":"","id":126520572,"location_subtype":"","month":"2025-02"},{"category":"anti-social-behaviour","location_type":"Force","location":{"latitude":"52.586404","street":{"id":1624493,"name":"On or near Cheapside"},"longitude":"-2.128927"},"context":"","outcome_status":null,"persistent_id":"","id":126521333,"location_subtype":"","month":"2025-02"},{"category":"anti-social-behaviour","location_type":"Force","location":{"latitude":"52.569269","street":{"id":1624993,"name":"On or near Sports/recreation Area"},"longitude":"-2.121907"},"context":"","outcome_status":null,"persistent_id":"","id":126520969,"location_subtype":"","month":"2025-02"},{"category":"anti-social-behaviour","location_type":"Force","location":{"latitude":"52.582675","street":{"id":1624217,"name":"On or near Supermarket"},"longitude":"-2.135041"},"context":"","outcome_status":null,"persistent_id":"","id":126521312,"location_subtype":"","month":"2025-02"},{"category":"anti-social-behaviour","location_type":"Force","location":{"latitude":"52.584807","street":{"id":1624791,"name":"On or near Market Street"},"longitude":"-2.125528"},"context":"","outcome_status":null,"persistent_id":"","id":126522506,"location_subtype":"","month":"2025-02"},{"category":"anti-social-behaviour","location_type":"Force","location":{"latitude":"52.561696","street":{"id":1625334,"name":"On or near Lawnswood Avenue"},"longitude":"-2.115667"},"context":"","outcome_status":null,"persistent_id":"","id":126522418,"location_subtype":"","month":"2025-02"},{"category":"anti-social-behaviour","location_type":"Force","location":{"latitude":"52.571484","street":{"id":1623893,"name":"On or near Copthorne Road"},"longitude":"-2.141602"},"context":"","outcome_status":null,"persistent_id":"","id":126522359,"location_subtype":"","month":"2025-02"},{"category":"anti-social-behaviour","location_type":"Force","location":{"latitude":"52.582675","street":{"id":1624217,"name":"On or near Supermarket"},"longitude":"-2.135041"},"context":"","outcome_status":null,"persistent_id":"","id":126522324,"location_subtype":"","month":"2025-02"},{"category":"anti-social-behaviour","location_type":"Force","location":{"latitude":"52.586866","street":{"id":1624830,"name":"On or near Princes Square"},"longitude":"-2.125696"},"context":"","outcome_status":null,"persistent_id":"","id":126522058,"location_subtype":"","month":"2025-02"},{"category":"anti-social-behaviour","location_type":"Force","location":{"latitude":"52.584296","street":{"id":1624894,"name":"On or near Police Station"},"longitude":"-2.124597"},"context":"","outcome_status":null,"persistent_id":"","id":126522038,"location_subtype":"","month":"2025-02"},{"category":"anti-social-behaviour","location_type":"Force","location":{"latitude":"52.572937","street":{"id":1626262,"name":"On or near Hincks Street"},"longitude":"-2.101709"},"context":"","outcome_status":null,"persistent_id":"","id":126520784,"location_subtype":"","month":"2025-02"},{"category":"anti-social-behaviour","location_type":"Force","location":{"latitude":"52.566384","street":{"id":1625028,"name":"On or near Beaconsfield Drive"},"longitude":"-2.119781"},"context":"","outcome_status":null,"persistent_id":"","id":126522023,"location_subtype":"","month":"2025-02"},{"category":"anti-social-behaviour","location_type":"Force","location":{"latitude":"52.586193","street":{"id":1624927,"name":"On or near Berry Street"},"longitude":"-2.124218"},"context":"","outcome_status":null,"persistent_id":"","id":126521280,"location_subtype":"","month":"2025-02"},{"category":"anti-social-behaviour","location_type":"Force","location":{"latitude":"52.585584","street":{"id":1624930,"name":"On or near Nightclub"},"longitude":"-2.124302"},"context":"","outcome_status":null,"persistent_id":"","id":126520451,"location_subtype":"","month":"2025-02"},{"category":"anti-social-behaviour","location_type":"Force","location":{"latitude":"52.569553","street":{"id":1624964,"name":"On or near Phoenix Street"},"longitude":"-2.123773"},"context":"","outcome_status":null,"persistent_id":"","id":126520469,"location_subtype":"","month":"2025-02"},{"category":"anti-social-behaviour","location_type":"Force","location":{"latitude":"52.566841","street":{"id":1625685,"name":"On or near Parkfield Road"},"longitude":"-2.112081"},"context":"","outcome_status":null,"persistent_id":"","id":126520550,"location_subtype":"","month":"2025-02"},{"category":"anti-social-behaviour","location_type":"Force","location":{"latitude":"52.568920","street":{"id":1626375,"name":"On or near Kirton Place"},"longitude":"-2.099781"},"context":"","outcome_status":null,"persistent_id":"","id":126521033,"location_subtype":"","month":"2025-02"},{"category":"anti-social-behaviour","location_type":"Force","location":{"latitude":"52.575880","street":{"id":1624199,"name":"On or near Supermarket"},"longitude":"-2.133913"},"context":"","outcome_status":null,"persistent_id":"","id":126520937,"location_subtype":"","month":"2025-02"},{"category":"anti-social-behaviour","location_type":"Force","location":{"latitude":"52.586459","street":{"id":1624928,"name":"On or near Theatre/concert Hall"},"longitude":"-2.124188"},"context":"","outcome_status":null,"persistent_id":"","id":126521043,"location_subtype":"","month":"2025-02"},{"category":"anti-social-behaviour","location_type":"Force","location":{"latitude":"52.576664","street":{"id":1625433,"name":"On or near Mills Road"},"longitude":"-2.114909"},"context":"","outcome_status":null,"persistent_id":"","id":126520646,"location_subtype":"","month":"2025-02"},{"category":"anti-social-behaviour","location_type":"Force","location":{"latitude":"52.582675","street":{"id":1624217,"name":"On or near Supermarket"},"longitude":"-2.135041"},"context":"","outcome_status":null,"persistent_id":"","id":126520616,"location_subtype":"","month":"2025-02"},{"category":"anti-social-behaviour","location_type":"Force","location":{"latitude":"52.582675","street":{"id":1624217,"name":"On or near Supermarket"},"longitude":"-2.135041"},"context":"","outcome_status":null,"persistent_id":"","id":126522471,"location_subtype":"","month":"2025-02"},{"category":"anti-social-behaviour","location_type":"Force","location":{"latitude":"52.586404","street":{"id":1624493,"name":"On or near Cheapside"},"longitude":"-2.128927"},"context":"","outcome_status":null,"persistent_id":"","id":126522255,"location_subtype":"","month":"2025-02"},{"category":"bicycle-theft","location_type":"Force","location":{"latitude":"52.584807","street":{"id":1624791,"name":"On or near Market Street"},"longitude":"-2.125528"},"context":"","outcome_status":{"category":"Investigation complete; no suspect identified","date":"2025-02"},"persistent_id":"2a9526600285778ed0632d47c9ae19049295395eef9ea0e1c72f7d17115faa5d","id":126512270,"location_subtype":"","month":"2025-02"},{"category":"bicycle-theft","location_type":"Force","location":{"latitude":"52.574885","street":{"id":1626047,"name":"On or near Dixon Street"},"longitude":"-2.104443"},"context":"","outcome_status":{"category":"Investigation complete; no suspect identified","date":"2025-02"},"persistent_id":"a9dd4f0e024b73f48840681d88256163cfb429dbbdbe64dda86e79945c12b824","id":126500326,"location_subtype":"","month":"2025-02"},{"category":"burglary","location_type":"Force","location":{"latitude":"52.572942","street":{"id":1624404,"name":"On or near Sunbeam Street"},"longitude":"-2.132458"},"context":"","outcome_status":{"category":"Unable to prosecute suspect","date":"2025-03"},"persistent_id":"0f457c323554f35dc3a6e7e031f1a0d3fdf9761f3e91c2c239e7a93d4cf31bf3","id":126509711,"location_subtype":"","month":"2025-02"},{"category":"burglary","location_type":"Force","location":{"latitude":"52.583874","street":{"id":1624394,"name":"On or near Fold Street"},"longitude":"-2.132669"},"context":"","outcome_status":{"category":"Investigation complete; no suspect identified","date":"2025-03"},"persistent_id":"e178b8c3f7ca9cf0fe685033ddf7b4cb24ab1ecb3cf3c4b6deedf52eda2261fd","id":126501638,"location_subtype":"","month":"2025-02"},{"category":"burglary","location_type":"Force","location":{"latitude":"52.584434","street":{"id":1624497,"name":"On or near Victoria Street"},"longitude":"-2.129674"},"context":"","outcome_status":{"category":"Investigation complete; no suspect identified","date":"2025-03"},"persistent_id":"56a853e79402c3e0467d374cac56a0430487153e3908265187b8a3b255d253f0","id":126500682,"location_subtype":"","month":"2025-02"},{"category":"burglary","location_type":"Force","location":{"latitude":"52.577032","street":{"id":1624344,"name":"On or near Graiseley Row"},"longitude":"-2.132663"},"context":"","outcome_status":{"category":"Status update unavailable","date":"2025-06"},"persistent_id":"e95ec390182a413e9c3c05560cea9b14699986836bed854ca4a3e024b9db36da","id":126509635,"location_subtype":"","month":"2025-02"},{"category":"burglary","location_type":"Force","location":{"latitude":"52.579760","street":{"id":1625675,"name":"On or near Chillington Street"},"longitude":"-2.111671"},"context":"","outcome_status":{"category":"Investigation complete; no suspect identified","date":"2025-04"},"persistent_id":"7cf7023ce288be1fdffe135faa71d284992820fd54b33b8518ceb72c8f4cccec","id":126494905,"location_subtype":"","month":"2025-02"},{"category":"burglary","location_type":"Force","location":{"latitude":"52.570859","street":{"id":1624419,"name":"On or near Cross Street South"},"longitude":"-2.130505"},"context":"","outcome_status":{"category":"Investigation complete; no suspect identified","date":"2025-05"},"persistent_id":"621f55f3138ce8d853afc55b5722a7225b2795b63128b7b7a682904a3af4ae85","id":126493553,"location_subtype":"","month":"2025-02"},{"category":"burglary","location_type":"Force","location":{"latitude":"52.571557","street":{"id":1624357,"name":"On or near Moorfield Road"},"longitude":"-2.133251"},"context":"","outcome_status":{"category":"Investigation complete; no suspect identified","date":"2025-04"},"persistent_id":"ee321e1ba6f0fc0bed8b3ab17f070d14639d6f1a56deb073d6a2f68759223299","id":126508879,"location_subtype":"","month":"2025-02"},{"category":"burglary","location_type":"Force","location":{"latitude":"52.586404","street":{"id":1624493,"name":"On or near Cheapside"},"longitude":"-2.128927"},"context":"","outcome_status":{"category":"Unable to prosecute suspect","date":"2025-02"},"persistent_id":"27a2e192127da71f6dba4d72b36276d7fb409639557a8117a7827f79f5744cd3","id":126507622,"location_subtype":"","month":"2025-02"},{"category":"burglary","location_type":"Force","location":{"latitude":"52.561696","street":{"id":1625334,"name":"On or near Lawnswood Avenue"},"longitude":"-2.115667"},"context":"","outcome_status":{"category":"Investigation complete; no suspect identified","date":"2025-02"},"persistent_id":"79fa8e4cfa42613a292cc87dad1eebe184e6d4b392df6782eb8d8dd706540a86","id":126514527,"location_subtype":"","month":"2025-02"},{"category":"burglary","location_type":"Force","location":{"latitude":"52.585361","street":{"id":1624961,"name":"On or near Union Street"},"longitude":"-2.120010"},"context":"","outcome_status":{"category":"Unable to prosecute suspect","date":"2025-02"},"persistent_id":"cf1e529e4f559dec79a8826b1d097a06e52e733e21b4d21ae663acb22279773f","id":126508270,"location_subtype":"","month":"2025-02"},{"category":"burglary","location_type":"Force","location":{"latitude":"52.569462","street":{"id":1626010,"name":"On or near Rough Hills Road"},"longitude":"-2.107041"},"context":"","outcome_status":{"category":"Investigation complete; no suspect identified","date":"2025-02"},"persistent_id":"f0b61bbbd79877ffe31350ec9612ba425aec68231c5fa49b50ff7decbbd8330f","id":126518531,"location_subtype":"","month":"2025-02"},{"category":"burglary","location_type":"Force","location":{"latitude":"52.569661","street":{"id":1625544,"name":"On or near Joan Street"},"longitude":"-2.114980"},"context":"","outcome_status":{"category":"Unable to prosecute suspect","date":"2025-03"},"persistent_id":"8d5f4377efcac198a6ed3ca034e2d64ed258ae9405d925e16eaec88444f62972","id":126507537,"location_subtype":"","month":"2025-02"},{"category":"burglary","location_type":"Force","location":{"latitude":"52.584434","street":{"id":1624497,"name":"On or near Victoria Street"},"longitude":"-2.129674"},"context":"","outcome_status":{"category":"Investigation complete; no suspect identified","date":"2025-02"},"persistent_id":"3ee3ebed23bf4173a90c2b5e481c3fb748105307114c899a0a20e7bd2c15ae77","id":126502795,"location_subtype":"","month":"2025-02"},{"category":"burglary","location_type":"Force","location":{"latitude":"52.579760","street":{"id":1625675,"name":"On or near Chillington Street"},"longitude":"-2.111671"},"context":"","outcome_status":{"category":"Investigation complete; no suspect identified","date":"2025-03"},"persistent_id":"f6167ab579086aa7f8d7632bb769eccba2dc9dadf12fc9bfd7010003822f5bc9","id":126497339,"location_subtype":"","month":"2025-02"},{"category":"burglary","location_type":"Force","location":{"latitude":"52.586263","street":{"id":1624802,"name":"On or near Wheeler's Fold"},"longitude":"-2.126167"},"context":"","outcome_status":{"category":"Investigation complete; no suspect identified","date":"2025-03"},"persistent_id":"0b0a4cfb7b9b65a7d125c9c6c8be6397600cdc3fbb06cdd02d91507cb3032dcf","id":126509013,"location_subtype":"","month":"2025-02"},{"category":"burglary","location_type":"Force","location":{"latitude":"52.565778","street":{"id":1624450,"name":"On or near Rosemary Crescent"},"longitude":"-2.131979"},"context":"","outcome_status":{"category":"Unable to prosecute suspect","date":"2025-03"},"persistent_id":"cae4541308e91410699474e47eacc71e0008f4b4d8973a82f68184cee6d1f0a3","id":126499575,"location_subtype":"","month":"2025-02"},{"category":"criminal-damage-arson","location_type":"Force","location":{"latitude":"52.568847","street":{"id":1624661,"name":"On or near Talbot Road"},"longitude":"-2.128315"},"context":"","outcome_status":{"category":"Unable to prosecute suspect","date":"2025-08"},"persistent_id":"473d93f73bd6fb24b8b9723d622e48e06d6a108b72c3f0e155b1a3ba2e007b52","id":126517052,"location_subtype":"","month":"2025-02"},{"category":"criminal-damage-arson","location_type":"Force","location":{"latitude":"52.584296","street":{"id":1624894,"name":"On or near Police Station"},"longitude":"-2.124597"},"context":"","outcome_status":{"category":"Unable to prosecute suspect","date":"2025-11"},"persistent_id":"7e002e0628fdd68bf01213aecb4932d9661a6359e8c1fc0e3dcf3cdc9ec3d717","id":126508718,"location_subtype":"","month":"2025-02"},{"category":"criminal-damage-arson","location_type":"Force","location":{"latitude":"52.570362","street":{"id":1624373,"name":"On or near Upper Villiers Street"},"longitude":"-2.132879"},"context":"","outcome_status":{"category":"Court result unavailable","date":"2025-11"},"persistent_id":"904e410c076cfd55c4891a29310b3f6c34b79ccb332ea3fb066df5cc10bb3eab","id":126493149,"location_subtype":"","month":"2025-02"},{"category":"criminal-damage-arson","location_type":"Force","location":{"latitude":"52.574510","street":{"id":1624558,"name":"On or near Lower Villiers Street"},"longitude":"-2.129084"},"context":"","outcome_status":{"category":"Local resolution","date":"2025-06"},"persistent_id":"eb566c475b86f65b36e23d8936038283682a7f0ecc63d7ef31afbe1901d3525f","id":126507305,"location_subtype":"","month":"2025-02"},{"category":"criminal-damage-arson","location_type":"Force","location":{"latitude":"52.570574","street":{"id":1624869,"name":"On or near Shopping Area"},"longitude":"-2.125003"},"context":"","outcome_status":{"category":"Unable to prosecute suspect","date":"2025-03"},"persistent_id":"9d8e15734f6dfcff64cde36c798202c0a2fc207cdf213f1bedf5f50458f4445a","id":126493569,"location_subtype":"","month":"2025-02"},{"category":"criminal-damage-arson","location_type":"Force","location":{"latitude":"52.584296","street":{"id":1624894,"name":"On or near Police Station"},"longitude":"-2.124597"},"context":"","outcome_status":{"category":"Court result unavailable","date":"2025-09"},"persistent_id":"127c2c176080f87d1bcdf55f7247284ed83ffd70a71a4e93fa3acf4f10302543","id":126493956,"location_subtype":"","month":"2025-02"},{"category":"criminal-damage-arson","location_type":"Force","location":{"latitude":"52.585285","street":{"id":1626005,"name":"On or near Eastfield Grove"},"longitude":"-2.105958"},"context":"","outcome_status":{"category":"Investigation complete; no suspect identified","date":"2025-03"},"persistent_id":"e2867f773febba5553711eee7e74fed6a041b1589dc0445c592e5cd7bf209c4e","id":126495422,"location_subtype":"","month":"2025-02"},{"category":"criminal-damage-arson","location_type":"Force","location":{"latitude":"52.569156","street":{"id":1624873,"name":"On or near Hawthorne Road"},"longitude":"-2.125321"},"context":"","outcome_status":{"category":"Unable to prosecute suspect","date":"2025-02"},"persistent_id":"766c8379e5f5561fe8ea2aebf97868e22c9360b009aa8e364323697339ff349a","id":126514499,"location_subtype":"","month":"2025-02"},{"category":"criminal-damage-arson","location_type":"Force","location":{"latitude":"52.577108","street":{"id":1625133,"name":"On or near Jeffs Avenue"},"longitude":"-2.120312"},"context":"","outcome_status":{"category":"Investigation complete; no suspect identified","date":"2025-02"},"persistent_id":"b798ad66ed05121b5d7261b43bfafc31b86326b71b41d5b6d1d5c421fd690039","id":126515455,"location_subtype":"","month":"2025-02"},{"category":"criminal-damage-arson","location_type":"Force","location":{"latitude":"52.570362","street":{"id":1624373,"name":"On or near Upper Villiers Street"},"longitude":"-2.132879"},"context":"","outcome_status":{"category":"Unable to prosecute suspect","date":"2025-02"},"persistent_id":"13fed07c4092c0b84fb94ee5809f2f66336289fbae682e41f194be7cf5a007c9","id":126518998,"location_subtype":"","month":"2025-02"},{"category":"criminal-damage-arson","location_type":"Force","location":{"latitude":"52.577110","street":{"id":1625272,"name":"On or near Bowdler Road"},"longitude":"-2.119279"},"context":"","outcome_status":{"category":"Investigation complete; no suspect identified","date":"2025-03"},"persistent_id":"1534041b47d7e3413c1cf8bbea8a1c9e2772d484dc9106a7442e56b60239682d","id":126501329,"location_subtype":"","month":"2025-02"},{"category":"criminal-damage-arson","location_type":"Force","location":{"latitude":"52.585678","street":{"id":1624721,"name":"On or near King Street"},"longitude":"-2.126888"},"context":"","outcome_status":{"category":"Court result unavailable","date":"2025-09"},"persistent_id":"cc8a63a13f9f5efd8bd5203ed71dcfe381cbc047328e532b70f3cd20a8e0a549","id":126494438,"location_subtype":"","month":"2025-02"},{"category":"criminal-damage-arson","location_type":"Force","location":{"latitude":"52.577167","street":{"id":1623918,"name":"On or near Dalton Street"},"longitude":"-2.140661"},"context":"","outcome_status":{"category":"Unable to prosecute suspect","date":"2025-04"},"persistent_id":"81182ade5e030bc34317f0dde0259a5d7b979e640e95c704e797d35e60d58d85","id":126495356,"location_subtype":"","month":"2025-02"},{"category":"criminal-damage-arson","location_type":"Force","location":{"latitude":"52.569974","street":{"id":1624862,"name":"On or near Knox Road"},"longitude":"-2.125530"},"context":"","outcome_status":{"category":"Investigation complete; no suspect identified","date":"2025-03"},"persistent_id":"43b4a94b10827ecba5fc2bc61f9adc774f44bbe3cb5a1cd8aa798a9df21d8df3","id":126495971,"location_subtype":"","month":"2025-02"},{"category":"criminal-damage-arson","location_type":"Force","location":{"latitude":"52.569462","street":{"id":1626010,"name":"On or near Rough Hills Road"},"longitude":"-2.107041"},"context":"","outcome_status":{"category":"Investigation complete; no suspect identified","date":"2025-02"},"persistent_id":"1d8f1e563f8da412c413c0b9e728f1c30f1a3a110952fbcc6f6811c1486a83f0","id":126501417,"location_subtype":"","month":"2025-02"},{"category":"criminal-damage-arson","location_type":"Force","location":{"latitude":"52.586576","street":{"id":1625278,"name":"On or near Corn Hill"},"longitude":"-2.119275"},"context":"","outcome_status":{"category":"Investigation complete; no suspect identified","date":"2025-02"},"persistent_id":"fd1583d70669f45b9583143e1a3e136e74eef2baef5e4a6988f1f8b51f2ad68a","id":126503270,"location_subtype":"","month":"2025-02"},{"category":"criminal-damage-arson","location_type":"Force","location":{"latitude":"52.577868","street":{"id":1624331,"name":"On or near The Hollies"},"longitude":"-2.133049"},"context":"","outcome_status":{"category":"Investigation complete; no suspect identified","date":"2025-03"},"persistent_id":"4f778665a4bf0bb282ea8f306807ae717cff2a4fcdf362ff2121d84693fae942","id":126504592,"location_subtype":"","month":"2025-02"},{"category":"criminal-damage-arson","location_type":"Force","location":{"latitude":"52.568291","street":{"id":1624660,"name":"On or near Wanderers Avenue"},"longitude":"-2.127000"},"context":"","outcome_status":{"category":"Unable to prosecute suspect","date":"2025-03"},"persistent_id":"b6c0901cd986079a2bb543650552d4f9cfce93431045b8e3dd7513b8a5bad8da","id":126506255,"location_subtype":"","month":"2025-02"},{"category":"criminal-damage-arson","location_type":"Force","location":{"latitude":"52.584296","street":{"id":1624894,"name":"On or near Police Station"},"longitude":"-2.124597"},"context":"","outcome_status":{"category":"Court result unavailable","date":"2025-12"},"persistent_id":"62e166682df9a9084cb95666d5ecc72f5c8feac54107e1b6d6ab62c99e8d8697","id":126499723,"location_subtype":"","month":"2025-02"},{"category":"criminal-damage-arson","location_type":"Force","location":{"latitude":"52.581129","street":{"id":1624781,"name":"On or near George Street"},"longitude":"-2.126875"},"context":"","outcome_status":{"category":"Investigation complete; no suspect identified","date":"2025-03"},"persistent_id":"be4aeee58eda5af94aa0c4456ea81fc5f6d13627d98c7bd9ab79837a485dce14","id":126497954,"location_subtype":"","month":"2025-02"},{"category":"criminal-damage-arson","location_type":"Force","location":{"latitude":"52.582675","street":{"id":1624217,"name":"On or near Supermarket"},"longitude":"-2.135041"},"context":"","outcome_status":{"category":"Court result unavailable","date":"2025-08"},"persistent_id":"0ace5e24a53f406bf6ded56e24479e72fe58c94b6526fbbd43887a5ce0e58852","id":126499660,"location_subtype":"","month":"2025-02"},{"category":"criminal-damage-arson","location_type":"Force","location":{"latitude":"52.578486","street":{"id":1625302,"name":"On or near Sports/recreation Area"},"longitude":"-2.118471"},"context":"","outcome_status":{"category":"Investigation complete; no suspect identified","date":"2025-02"},"persistent_id":"40739f923f3d818aefa1ff0d81ff435207b5cde17bf5ccd9e527f73f38e64928","id":126497968,"location_subtype":"","month":"2025-02"},{"category":"criminal-damage-arson","location_type":"Force","location":{"latitude":"52.585285","street":{"id":1626005,"name":"On or near Eastfield Grove"},"longitude":"-2.105958"},"context":"","outcome_status":{"category":"Investigation complete; no suspect identified","date":"2025-02"},"persistent_id":"e59f0a9b3dccee241207bde1b801f7b2adb04d96c72c4284dce4e297a1a3e132","id":126499409,"location_subtype":"","month":"2025-02"},{"category":"criminal-damage-arson","location_type":"Force","location":{"latitude":"52.584400","street":{"id":1625849,"name":"On or near Lower Horseley Fields"},"longitude":"-2.110015"},"context":"","outcome_status":{"category":"Investigation complete; no suspect identified","date":"2025-02"},"persistent_id":"4d4dd1821cdf237884690a55b5e560623cd670fbb3bde2e6b5d57301df718330","id":126500324,"location_subtype":"","month":"2025-02"},{"category":"criminal-damage-arson","location_type":"Force","location":{"latitude":"52.571456","street":{"id":1624717,"name":"On or near Baynton Drive"},"longitude":"-2.127098"},"context":"","outcome_status":{"category":"Unable to prosecute suspect","date":"2025-02"},"persistent_id":"6cf24c205d06edec05cfc9412d056330ac5be725a1561703716f007bfc224b99","id":126502809,"location_subtype":"","month":"2025-02"},{"category":"criminal-damage-arson","location_type":"Force","location":{"latitude":"52.580900","street":{"id":1623986,"name":"On or near Zoar Street"},"longitude":"-2.138415"},"context":"","outcome_status":{"category":"Local resolution","date":"2025-02"},"persistent_id":"dd8acebc2117042e5f6ffeced33a55c7967ddafd35846fb7d9fb3a4976802b66","id":126505165,"location_subtype":"","month":"2025-02"},{"category":"drugs","location_type":"Force","location":{"latitude":"52.584296","street":{"id":1624894,"name":"On or near Police Station"},"longitude":"-2.124597"},"context":"","outcome_status":{"category":"Unable to prosecute suspect","date":"2025-07"},"persistent_id":"0604c1bcc044f4f2ea94e6d9438a069ed863af4308122f8477457e2e2c4e65aa","id":126493977,"location_subtype":"","month":"2025-02"},{"category":"drugs","location_type":"Force","location":{"latitude":"52.583288","street":{"id":1625901,"name":"On or near St Matthew Street"},"longitude":"-2.107075"},"context":"","outcome_status":{"category":"Local resolution","date":"2025-03"},"persistent_id":"4d113d1fe6cb12f0b2cd914096326d6f15be7a15b3ef347806772eda93c0d49d","id":126511543,"location_subtype":"","month":"2025-02"},{"category":"drugs","location_type":"Force","location":{"latitude":"52.570768","street":{"id":1625605,"name":"On or near Whittaker Street"},"longitude":"-2.113610"},"context":"","outcome_status":{"category":"Awaiting court outcome","date":"2025-09"},"persistent_id":"8ea5c589f0730a4b1a903a2f4a7641f5f80566c9b94e5effaebfddb513ee4542","id":126495180,"location_subtype":"","month":"2025-02"},{"category":"drugs","location_type":"Force","location":{"latitude":"52.570859","street":{"id":1624419,"name":"On or near Cross Street South"},"longitude":"-2.130505"},"context":"","outcome_status":{"category":"Offender given a caution","date":"2025-02"},"persistent_id":"4f81ec6c1b506c77d5ea67337b3ca1abfdbd49a602829d0df3bdfbb7e8526cad","id":126519035,"location_subtype":"","month":"2025-02"},{"category":"drugs","location_type":"Force","location":{"latitude":"52.576093","street":{"id":1625757,"name":"On or near Cable Street"},"longitude":"-2.110998"},"context":"","outcome_status":{"category":"Investigation complete; no suspect identified","date":"2025-02"},"persistent_id":"5c339405d0c9bba77423e39bb5500a759ed36a43713b9e52feed180e7ceb7911","id":126515516,"location_subtype":"","month":"2025-02"},{"category":"drugs","location_type":"Force","location":{"latitude":"52.584296","street":{"id":1624894,"name":"On or near Police Station"},"longitude":"-2.124597"},"context":"","outcome_status":{"category":"Unable to prosecute suspect","date":"2025-08"},"persistent_id":"e1cd582c84824455c25e00a4921b24ec560af2a96696e5e6504345db158c42d2","id":126493954,"location_subtype":"","month":"2025-02"},{"category":"drugs","location_type":"Force","location":{"latitude":"52.584296","street":{"id":1624894,"name":"On or near Police Station"},"longitude":"-2.124597"},"context":"","outcome_status":{"category":"Unable to prosecute suspect","date":"2025-05"},"persistent_id":"676034c7b5f181ecc670a06d5909546ee015555fcb0eed5b559954f13f9f87e3","id":126507378,"location_subtype":"","month":"2025-02"},{"category":"drugs","location_type":"Force","location":{"latitude":"52.584296","street":{"id":1624894,"name":"On or near Police Station"},"longitude":"-2.124597"},"context":"","outcome_status":{"category":"Investigation complete; no suspect identified","date":"2025-04"},"persistent_id":"138b9525bfc8750c03349fad0bf73f0025a7cf727dc73525049fb2a990e2b8d2","id":126499053,"location_subtype":"","month":"2025-02"},{"category":"drugs","location_type":"Force","location":{"latitude":"52.584607","street":{"id":1625226,"name":"On or near Parking Area"},"longitude":"-2.119506"},"context":"","outcome_status":{"category":"Investigation complete; no suspect identified","date":"2025-02"},"persistent_id":"3ebe3e4a614a0249e06dd146492706f442ec3581b8c8efa74976b88a73a494b8","id":126507580,"location_subtype":"","month":"2025-02"},{"category":"drugs","location_type":"Force","location":{"latitude":"52.582857","street":{"id":1625484,"name":"On or near York Street"},"longitude":"-2.116431"},"context":"","outcome_status":{"category":"Court result unavailable","date":"2025-08"},"persistent_id":"8a3cd466aec9fad90d8e8604f3ad88b54800fb5cba16bb138260de862a158adb","id":126520379,"location_subtype":"","month":"2025-02"},{"category":"drugs","location_type":"Force","location":{"latitude":"52.584296","street":{"id":1624894,"name":"On or near Police Station"},"longitude":"-2.124597"},"context":"","outcome_status":{"category":"Court result unavailable","date":"2025-08"},"persistent_id":"b588c47fc69c83f11b62118b7be6a72c3390eb77f13f181268cf213becef15af","id":126495991,"location_subtype":"","month":"2025-02"},{"category":"drugs","location_type":"Force","location":{"latitude":"52.586862","street":{"id":1624962,"name":"On or near Wolverhampton"},"longitude":"-2.120279"},"context":"","outcome_status":{"category":"Court result unavailable","date":"2025-09"},"persistent_id":"61fb8296fcfcd92a9b116c338d1c3d8a9ca7496b54093eb5d2d37c5b23ae87e6","id":126498898,"location_subtype":"","month":"2025-02"},{"category":"drugs","location_type":"Force","location":{"latitude":"52.584296","street":{"id":1624894,"name":"On or near Police Station"},"longitude":"-2.124597"},"context":"","outcome_status":{"category":"Court result unavailable","date":"2025-08"},"persistent_id":"cb42afe49ac2546245b29856fc0bd624a8e6fa8c12d25ac32a99aaa8af58abfc","id":126519139,"location_subtype":"","month":"2025-02"},{"category":"drugs","location_type":"Force","location":{"latitude":"52.580015","street":{"id":1624246,"name":"On or near Williamson Street"},"longitude":"-2.134428"},"context":"","outcome_status":{"category":"Local resolution","date":"2025-04"},"persistent_id":"0ee29c94d8fcbdf2ffbfa3b7f522dba0d3a40dc15daa737dca0809ed59f87af4","id":126498793,"location_subtype":"","month":"2025-02"},{"category":"drugs","location_type":"Force","location":{"latitude":"52.586862","street":{"id":1624962,"name":"On or near Wolverhampton"},"longitude":"-2.120279"},"context":"","outcome_status":{"category":"Local resolution","date":"2025-03"},"persistent_id":"2ff377703c2c1f95e95460817c316d0dc27a2a338867d2875e48be9dcd104b1c","id":126503404,"location_subtype":"","month":"2025-02"},{"category":"drugs","location_type":"Force","location":{"latitude":"52.584296","street":{"id":1624894,"name":"On or near Police Station"},"longitude":"-2.124597"},"context":"","outcome_status":{"category":"Local resolution","date":"2025-03"},"persistent_id":"d3d5065bde179bd1ad994aa06ad9c8f5ccf2e75198a238b3e8a7cdfe0b87988c","id":126498214,"location_subtype":"","month":"2025-02"},{"category":"drugs","location_type":"Force","location":{"latitude":"52.584296","street":{"id":1624894,"name":"On or near Police Station"},"longitude":"-2.124597"},"context":"","outcome_status":{"category":"Court result unavailable","date":"2025-08"},"persistent_id":"c45aaf5fc781162e822f9bf80d4642f180c52e4fef1746f1e07144d541fdf898","id":126503308,"location_subtype":"","month":"2025-02"},{"category":"other-theft","location_type":"Force","location":{"latitude":"52.582675","street":{"id":1624217,"name":"On or near Supermarket"},"longitude":"-2.135041"},"context":"","outcome_status":{"category":"Investigation complete; no suspect identified","date":"2025-02"},"persistent_id":"b80b630fb972fd0a42b3cc8b854c3ca16cda8f3943678e750f1e1a0d5f681094","id":126518546,"location_subtype":"","month":"2025-02"},{"category":"other-theft","location_type":"Force","location":{"latitude":"52.568303","street":{"id":1626028,"name":"On or near Myrtle Street"},"longitude":"-2.106508"},"context":"","outcome_status":{"category":"Investigation complete; no suspect identified","date":"2025-02"},"persistent_id":"d56f07b9897f6417d516346f0d8556d9bf45ff8c59be274410359d6ef5ef88fd","id":126500721,"location_subtype":"","month":"2025-02"},{"category":"other-theft","location_type":"Force","location":{"latitude":"52.585678","street":{"id":1624721,"name":"On or near King Street"},"longitude":"-2.126888"},"context":"","outcome_status":{"category":"Investigation complete; no suspect identified","date":"2025-02"},"persistent_id":"ba27b0bc286f83ba7d3ca9a45d90f99924b46a72dea2e56eb633a72424db9661","id":126495944,"location_subtype":"","month":"2025-02"},{"category":"other-theft","location_type":"Force","location":{"latitude":"52.565955","street":{"id":1625975,"name":"On or near Windsor Road"},"longitude":"-2.107535"},"context":"","outcome_status":{"category":"Investigation complete; no suspect identified","date":"2025-03"},"persistent_id":"b040aae17cdd19449de29587697ae0002cadda9d56662e384f42855a86125a89","id":126500247,"location_subtype":"","month":"2025-02"},{"category":"other-theft","location_type":"Force","location":{"latitude":"52.569462","street":{"id":1626010,"name":"On or near Rough Hills Road"},"longitude":"-2.107041"},"context":"","outcome_status":{"category":"Investigation complete; no suspect identified","date":"2025-03"},"persistent_id":"2b97c78059e4af0c75f814041eb82c8644ebc55fddefba0ddf939d9d8e494b20","id":126502627,"location_subtype":"","month":"2025-02"},{"category":"other-theft","location_type":"Force","location":{"latitude":"52.573051","street":{"id":1624915,"name":"On or near Curzon Street"},"longitude":"-2.123163"},"context":"","outcome_status":{"category":"Investigation complete; no suspect identified","date":"2025-02"},"persistent_id":"3e098f1e9c2b43acd7bafdd536626bfc89bb7d0210f640d40f510540708a1a39","id":126510611,"location_subtype":"","month":"2025-02"},{"category":"other-theft","location_type":"Force","location":{"latitude":"52.576093","street":{"id":1625757,"name":"On or near Cable Street"},"longitude":"-2.110998"},"context":"","outcome_status":{"category":"Investigation complete; no suspect identified","date":"2025-02"},"persistent_id":"e8f617cf67a515b5f83d261eaa774987de0fcaa1d82f94c3d9b66762366d84fc","id":126515461,"location_subtype":"","month":"2025-02"},{"category":"other-theft","location_type":"Force","location":{"latitude":"52.573071","street":{"id":1626269,"name":"On or near Briar Wood Close"},"longitude":"-2.102816"},"context":"","outcome_status":{"category":"Unable to prosecute suspect","date":"2025-02"},"persistent_id":"41bba157c99c27e7c31254e176f4b18b74418f26fe4541ab614a2ca58dd472f8","id":126506710,"location_subtype":"","month":"2025-02"},{"category":"other-theft","location_type":"Force","location":{"latitude":"52.573051","street":{"id":1624915,"name":"On or near Curzon Street"},"longitude":"-2.123163"},"context":"","outcome_status":{"category":"Investigation complete; no suspect identified","date":"2025-02"},"persistent_id":"52890c3745295c5074537faa8d4915850588867275d8418785b2b6a8a0ea5dc9","id":126503834,"location_subtype":"","month":"2025-02"},{"category":"other-theft","location_type":"Force","location":{"latitude":"52.576657","street":{"id":1625007,"name":"On or near The Square"},"longitude":"-2.122583"},"context":"","outcome_status":{"category":"Investigation complete; no suspect identified","date":"2025-02"},"persistent_id":"df4f7bda1b06236a42d0f05fe411a06e5736666cf2853dede802ec128331bfb0","id":126503286,"location_subtype":"","month":"2025-02"},{"category":"other-theft","location_type":"Force","location":{"latitude":"52.574106","street":{"id":1625071,"name":"On or near Lilleshall Crescent"},"longitude":"-2.120466"},"context":"","outcome_status":{"category":"Unable to prosecute suspect","date":"2025-02"},"persistent_id":"a94ddb1c1edceae19baa020c5154f154ae95e15dffba922dd7e9c3c96c8e2645","id":126506081,"location_subtype":"","month":"2025-02"},{"category":"other-theft","location_type":"Force","location":{"latitude":"52.584807","street":{"id":1624791,"name":"On or near Market Street"},"longitude":"-2.125528"},"context":"","outcome_status":{"category":"Investigation complete; no suspect identified","date":"2025-05"},"persistent_id":"3de23063b5c21a9a2a469347481c3201f37fa26f8e50acb8b5c903a7612aea5c","id":126495400,"location_subtype":"","month":"2025-02"},{"category":"other-theft","location_type":"Force","location":{"latitude":"52.579473","street":{"id":1625210,"name":"On or near Granville Close"},"longitude":"-2.120244"},"context":"","outcome_status":{"category":"Unable to prosecute suspect","date":"2025-02"},"persistent_id":"64c308c1fe0ec61a664261748ef8f0f986a228795a1ef23c4a460ed8283801ee","id":126510126,"location_subtype":"","month":"2025-02"},{"category":"other-theft","location_type":"Force","location":{"latitude":"52.573118","street":{"id":1626396,"name":"On or near Parking Area"},"longitude":"-2.099673"},"context":"","outcome_status":{"category":"Investigation complete; no suspect identified","date":"2025-04"},"persistent_id":"1c37e1a1317939a1ab50e7f182faa1780bd5c946d17b87621d8a24b6557df628","id":126495548,"location_subtype":"","month":"2025-02"},{"category":"other-theft","location_type":"Force","location":{"latitude":"52.587137","street":{"id":1624883,"name":"On or near Long Street"},"longitude":"-2.124575"},"context":"","outcome_status":{"category":"Status update unavailable","date":"2025-06"},"persistent_id":"3610707ed7ff851c5d9bb6bf40890e86588386e0f364be20511d209b30b706ff","id":126515045,"location_subtype":"","month":"2025-02"},{"category":"other-theft","location_type":"Force","location":{"latitude":"52.586263","street":{"id":1624802,"name":"On or near Wheeler's Fold"},"longitude":"-2.126167"},"context":"","outcome_status":{"category":"Unable to prosecute suspect","date":"2025-04"},"persistent_id":"b318c24152fd40353adcb4ee983b08eb647ccd038c5d75caaca226c17dd09f18","id":126497765,"location_subtype":"","month":"2025-02"},{"category":"other-theft","location_type":"Force","location":{"latitude":"52.567180","street":{"id":1626020,"name":"On or near Craven Street"},"longitude":"-2.105325"},"context":"","outcome_status":{"category":"Unable to prosecute suspect","date":"2025-05"},"persistent_id":"dcf1ebf05a51ea13797242c19bd2e0a069fba2a49b7efa872333db253966c4d8","id":126517195,"location_subtype":"","month":"2025-02"},{"category":"other-theft","location_type":"Force","location":{"latitude":"52.584434","street":{"id":1624497,"name":"On or near Victoria Street"},"longitude":"-2.129674"},"context":"","outcome_status":{"category":"Investigation complete; no suspect identified","date":"2025-02"},"persistent_id":"393884db034ab763c38e2f41288975df63c42753a678ad21ffbbbd8a203fc44a","id":126518511,"location_subtype":"","month":"2025-02"},{"category":"other-theft","location_type":"Force","location":{"latitude":"52.581496","street":{"id":1624600,"name":"On or near St John's Square"},"longitude":"-2.128263"},"context":"","outcome_status":{"category":"Investigation complete; no suspect identified","date":"2025-02"},"persistent_id":"9444f26162d2ac6df3713c74918b87fece77bb73e3c529563b87aa305660375c","id":126506534,"location_subtype":"","month":"2025-02"},{"category":"other-theft","location_type":"Force","location":{"latitude":"52.582736","street":{"id":1624831,"name":"On or near Shopping Area"},"longitude":"-2.125495"},"context":"","outcome_status":{"category":"Investigation complete; no suspect identified","date":"2025-02"},"persistent_id":"211a69dda6e838fe53909db67d836638b2d34416d12e9dbf934b02c3deac3838","id":126506006,"location_subtype":"","month":"2025-02"},{"category":"other-theft","location_type":"Force","location":{"latitude":"52.581129","street":{"id":1624781,"name":"On or near George Street"},"longitude":"-2.126875"},"context":"","outcome_status":{"category":"Investigation complete; no suspect identified","date":"2025-02"},"persistent_id":"2b77c4a8fdc86551628854fb7e163f730177b54db795cb9f85d78e4710cafde0","id":126505527,"location_subtype":"","month":"2025-02"},{"category":"other-theft","location_type":"Force","location":{"latitude":"52.570859","street":{"id":1624419,"name":"On or near Cross Street South"},"longitude":"-2.130505"},"context":"","outcome_status":{"category":"Investigation complete; no suspect identified","date":"2025-05"},"persistent_id":"021c692db5894cb861204c77b14c6a8236b701a04409a63fb55c86a4850f0771","id":126504790,"location_subtype":"","month":"2025-02"},{"category":"other-theft","location_type":"Force","location":{"latitude":"52.574567","street":{"id":1626467,"name":"On or near Holloway Street"},"longitude":"-2.097891"},"context":"","outcome_status":{"category":"Investigation complete; no suspect identified","date":"2025-04"},"persistent_id":"cc4880f3ed40b29466c5cd8dcc46276ae8a2fd22f1800b91efb75f92ef72133f","id":126506303,"location_subtype":"","month":"2025-02"},{"category":"other-theft","location_type":"Force","location":{"latitude":"52.568394","street":{"id":1624932,"name":"On or near A459"},"longitude":"-2.123917"},"context":"","outcome_status":{"category":"Investigation complete; no suspect identified","date":"2025-02"},"persistent_id":"aa461fb4b35e65ec823fb31071032255c3f9d814c8c151212dcb1bc339f63bb1","id":126503251,"location_subtype":"","month":"2025-02"},{"category":"other-theft","location_type":"Force","location":{"latitude":"52.577308","street":{"id":1624679,"name":"On or near Parking Area"},"longitude":"-2.126849"},"context":"","outcome_status":{"category":"Investigation complete; no suspect identified","date":"2025-02"},"persistent_id":"923fe23b589c57618cbfa5f844f11117d758abb12129c5288e8daea63f4f6dc8","id":126499326,"location_subtype":"","month":"2025-02"},{"category":"other-theft","location_type":"Force","location":{"latitude":"52.580315","street":{"id":1625066,"name":"On or near Bus/coach Station"},"longitude":"-2.121755"},"context":"","outcome_status":{"category":"Investigation complete; no suspect identified","date":"2025-03"},"persistent_id":"449a4489f1106a3bbd6e63723ba7ab76d2dd75c77f0488d19a8a842d449ad422","id":126497915,"location_subtype":"","month":"2025-02"},{"category":"other-theft","location_type":"Force","location":{"latitude":"52.585361","street":{"id":1624961,"name":"On or near Union Street"},"longitude":"-2.120010"},"context":"","outcome_status":{"category":"Unable to prosecute suspect","date":"2025-03"},"persistent_id":"b70cb628540679e4d6c7d1a55b1b8477badcab6c7e021fffab0bea10780fa1ee","id":126503778,"location_subtype":"","month":"2025-02"},{"category":"other-theft","location_type":"Force","location":{"latitude":"52.572942","street":{"id":1624404,"name":"On or near Sunbeam Street"},"longitude":"-2.132458"},"context":"","outcome_status":{"category":"Investigation complete; no suspect identified","date":"2025-03"},"persistent_id":"87f500836f232282425d4a7af3ba303893098af8e63ca221bb29d692b723fc38","id":126493421,"location_subtype":"","month":"2025-02"},{"category":"other-theft","location_type":"Force","location":{"latitude":"52.586862","street":{"id":1624962,"name":"On or near Wolverhampton"},"longitude":"-2.120279"},"context":"","outcome_status":{"category":"Court result unavailable","date":"2025-09"},"persistent_id":"3afe09f2a942b569bf31b4ef09579949e18b5956b36a0437edca5f58e4589a8d","id":126512982,"location_subtype":"","month":"2025-02"},{"category":"other-theft","location_type":"Force","location":{"latitude":"52.570523","street":{"id":1626027,"name":"On or near St Saviour's Close"},"longitude":"-2.106292"},"context":"","outcome_status":{"category":"Unable to prosecute suspect","date":"2025-02"},"persistent_id":"3724629d7d20a1368543db0dd0e67bedb80668764cbc190c70c463ad1eda74d8","id":126501849,"location_subtype":"","month":"2025-02"},{"category":"other-theft","location_type":"Force","location":{"latitude":"52.584807","street":{"id":1624791,"name":"On or near Market Street"},"longitude":"-2.125528"},"context":"","outcome_status":{"category":"Investigation complete; no suspect identified","date":"2025-03"},"persistent_id":"0c7ad8c0d82a750cb8075b2d9ea509ff7fffb8c4019df2ad583f3b62b73bd8bf","id":126507076,"location_subtype":"","month":"2025-02"},{"category":"other-theft","location_type":"Force","location":{"latitude":"52.570962","street":{"id":1624093,"name":"On or near Sports/recreation Area"},"longitude":"-2.136187"},"context":"","outcome_status":{"category":"Unable to prosecute suspect","date":"2025-02"},"persistent_id":"2ae08797a8cdf5e93b300ee40bd17db4203b3d474c17a9bb28ed21fc4f7bec19","id":126517146,"location_subtype":"","month":"2025-02"},{"category":"other-theft","location_type":"Force","location":{"latitude":"52.567657","street":{"id":1624973,"name":"On or near Poplar Street"},"longitude":"-2.123428"},"context":"","outcome_status":{"category":"Investigation complete; no suspect identified","date":"2025-02"},"persistent_id":"85507323baaa5c46c65d95fb94ab02eb6ea0c86a5cd1f8e23bb68fa35ab99014","id":126505105,"location_subtype":"","month":"2025-02"},{"category":"possession-of-weapons","location_type":"Force","location":{"latitude":"52.584296","street":{"id":1624894,"name":"On or near Police Station"},"longitude":"-2.124597"},"context":"","outcome_status":{"category":"Court result unavailable","date":"2025-08"},"persistent_id":"60a11c4aa47fcaff58719a1fd97e92daef0277afe1333f523c5074864be0854a","id":126506196,"location_subtype":"","month":"2025-02"},{"category":"possession-of-weapons","location_type":"Force","location":{"latitude":"52.585678","street":{"id":1624721,"name":"On or near King Street"},"longitude":"-2.126888"},"context":"","outcome_status":{"category":"Court result unavailable","date":"2025-08"},"persistent_id":"53b80dcf211c0bc0fa67eaf06f4f1e698830647f2c8ecffd98d427d48d614147","id":126495845,"location_subtype":"","month":"2025-02"},{"category":"possession-of-weapons","location_type":"Force","location":{"latitude":"52.586048","street":{"id":1624871,"name":"On or near Princess Street"},"longitude":"-2.125428"},"context":"","outcome_status":{"category":"Court result unavailable","date":"2026-01"},"persistent_id":"0cfd88d14b5105898d8ed94ee1b90579fc2d1fbc00498a05b016244bc0d1aa02","id":126508260,"location_subtype":"","month":"2025-02"},{"category":"possession-of-weapons","location_type":"Force","location":{"latitude":"52.563859","street":{"id":1625878,"name":"On or near Millport Road"},"longitude":"-2.109801"},"context":"","outcome_status":{"category":"Court result unavailable","date":"2025-08"},"persistent_id":"67885c62211daa6fc840db39669ff9c23d87d8970f3dd6bff07994939feb90f7","id":126497830,"location_subtype":"","month":"2025-02"},{"category":"possession-of-weapons","location_type":"Force","location":{"latitude":"52.563859","street":{"id":1625878,"name":"On or near Millport Road"},"longitude":"-2.109801"},"context":"","outcome_status":{"category":"Status update unavailable","date":"2025-06"},"persistent_id":"ee746d495340befdf831e7b7d40b4df895c4f31d46483b1bd55c9337ca19cdee","id":126497861,"location_subtype":"","month":"2025-02"},{"category":"possession-of-weapons","location_type":"Force","location":{"latitude":"52.585361","street":{"id":1624961,"name":"On or near Union Street"},"longitude":"-2.120010"},"context":"","outcome_status":{"category":"Court result unavailable","date":"2025-08"},"persistent_id":"0d028dc065400b1d332f1759f5361e1010d0ec239c11375ae6aedec17ce7621b","id":126501335,"location_subtype":"","month":"2025-02"},{"category":"possession-of-weapons","location_type":"Force","location":{"latitude":"52.569789","street":{"id":1624452,"name":"On or near Park Street South"},"longitude":"-2.130383"},"context":"","outcome_status":{"category":"Investigation complete; no suspect identified","date":"2025-03"},"persistent_id":"c2df57b5697b87aa52ad47d18113258c958b342d93226591ced7aa2db5618899","id":126493539,"location_subtype":"","month":"2025-02"},{"category":"public-order","location_type":"Force","location":{"latitude":"52.584296","street":{"id":1624894,"name":"On or near Police Station"},"longitude":"-2.124597"},"context":"","outcome_status":{"category":"Court result unavailable","date":"2025-12"},"persistent_id":"bb296d547610fa1bc178d003fcba600a254b454175a8fb6c2101306676fda9c3","id":126493529,"location_subtype":"","month":"2025-02"},{"category":"public-order","location_type":"Force","location":{"latitude":"52.585361","street":{"id":1624961,"name":"On or near Union Street"},"longitude":"-2.120010"},"context":"","outcome_status":{"category":"Unable to prosecute suspect","date":"2025-02"},"persistent_id":"6fddd57d1c9aa56753133c94e86955489bd6821d8437d7995be80f06d0da25d4","id":126495978,"location_subtype":"","month":"2025-02"},{"category":"public-order","location_type":"Force","location":{"latitude":"52.571463","street":{"id":1625777,"name":"On or near Trentham Rise"},"longitude":"-2.111340"},"context":"","outcome_status":{"category":"Unable to prosecute suspect","date":"2025-02"},"persistent_id":"274332a8a9c3bf7ad070655fbbc3f4777f4147fa79d1146635f9b4d95fc0d6d5","id":126507309,"location_subtype":"","month":"2025-02"},{"category":"public-order","location_type":"Force","location":{"latitude":"52.585678","street":{"id":1624721,"name":"On or near King Street"},"longitude":"-2.126888"},"context":"","outcome_status":{"category":"Status update unavailable","date":"2025-06"},"persistent_id":"e11fadfaff01023d5b39abd94838179fdfff489ff1c733ba8e9fa9f08e8e4da7","id":126496767,"location_subtype":"","month":"2025-02"},{"category":"public-order","location_type":"Force","location":{"latitude":"52.569269","street":{"id":1624993,"name":"On or near Sports/recreation Area"},"longitude":"-2.121907"},"context":"","outcome_status":{"category":"Unable to prosecute suspect","date":"2025-03"},"persistent_id":"6da1421c81ea18a3b581028ee54a3f613a26a0aa48132599e629efac2ea424c2","id":126499883,"location_subtype":"","month":"2025-02"},{"category":"public-order","location_type":"Force","location":{"latitude":"52.584296","street":{"id":1624894,"name":"On or near Police Station"},"longitude":"-2.124597"},"context":"","outcome_status":{"category":"Court result unavailable","date":"2025-08"},"persistent_id":"03c3173ab4c5c373ac5d0d9dd34d6594118886476d565b7c04d7b39e2b53ded7","id":126519485,"location_subtype":"","month":"2025-02"},{"category":"public-order","location_type":"Force","location":{"latitude":"52.586866","street":{"id":1624830,"name":"On or near Princes Square"},"longitude":"-2.125696"},"context":"","outcome_status":{"category":"Unable to prosecute suspect","date":"2025-02"},"persistent_id":"f15fe8d921c7b97913aee3947bb2a3ba16ae3b5d8c9bdf723e6430889beeb187","id":126510537,"location_subtype":"","month":"2025-02"},{"category":"public-order","location_type":"Force","location":{"latitude":"52.584620","street":{"id":1624926,"name":"On or near Tower Street"},"longitude":"-2.124125"},"context":"","outcome_status":{"category":"Unable to prosecute suspect","date":"2025-03"},"persistent_id":"602e1e4199d1482cdd64c3d06b836e2e9f5f8cf7c2578c7d1d635e952e97fba4","id":126508414,"location_subtype":"","month":"2025-02"},{"category":"public-order","location_type":"Force","location":{"latitude":"52.567736","street":{"id":1624260,"name":"On or near Goldthorn Hill"},"longitude":"-2.133003"},"context":"","outcome_status":{"category":"Investigation complete; no suspect identified","date":"2025-02"},"persistent_id":"37c21ea3e2eb37440d18ad8131491e4165b0d3451b513fd2c72ac943d3e53eb7","id":126515009,"location_subtype":"","month":"2025-02"},{"category":"public-order","location_type":"Force","location":{"latitude":"52.565700","street":{"id":1624131,"name":"On or near Charles Avenue"},"longitude":"-2.136921"},"context":"","outcome_status":{"category":"Unable to prosecute suspect","date":"2025-02"},"persistent_id":"1f111da824011989eb16d57b141ee1e1367fc821ad24d0408322338cc7e376e1","id":126501080,"location_subtype":"","month":"2025-02"},{"category":"public-order","location_type":"Force","location":{"latitude":"52.586740","street":{"id":1624857,"name":"On or near Lichfield Street"},"longitude":"-2.125637"},"context":"","outcome_status":{"category":"Court result unavailable","date":"2025-08"},"persistent_id":"ed4e662ccb300ca6cb9cc4787c2ccc735c1d696f091533b6814634be0cc7c3d4","id":126499947,"location_subtype":"","month":"2025-02"},{"category":"public-order","location_type":"Force","location":{"latitude":"52.583288","street":{"id":1625901,"name":"On or near St Matthew Street"},"longitude":"-2.107075"},"context":"","outcome_status":{"category":"Court result unavailable","date":"2025-08"},"persistent_id":"b697ea2811007716e0ef8327ca291cbe27e0d00b7150f62a117cc9dcd69c5a30","id":126510745,"location_subtype":"","month":"2025-02"},{"category":"public-order","location_type":"Force","location":{"latitude":"52.576544","street":{"id":1625322,"name":"On or near Mills Crescent"},"longitude":"-2.118436"},"context":"","outcome_status":{"category":"Action to be taken by another organisation","date":"2025-03"},"persistent_id":"4ad21d16d3a864c397e7f63c0ca88e2650a60e090e3ba953c5e258336a73735b","id":126498493,"location_subtype":"","month":"2025-02"},{"category":"public-order","location_type":"Force","location":{"latitude":"52.578724","street":{"id":1624880,"name":"On or near Howard Street"},"longitude":"-2.123179"},"context":"","outcome_status":{"category":"Unable to prosecute suspect","date":"2025-03"},"persistent_id":"24b259c8a0094af0c0d7976059a74f0a69d6e657b38e1dfdd42fdc24e31da7fa","id":126500275,"location_subtype":"","month":"2025-02"},{"category":"public-order","location_type":"Force","location":{"latitude":"52.583288","street":{"id":1625901,"name":"On or near St Matthew Street"},"longitude":"-2.107075"},"context":"","outcome_status":{"category":"Unable to prosecute suspect","date":"2025-02"},"persistent_id":"52cf36a84b0841fb051ee9a9ad9998b72a056002d84732e7cee2ccfd7b8cc1c9","id":126508707,"location_subtype":"","month":"2025-02"},{"category":"public-order","location_type":"Force","location":{"latitude":"52.584296","street":{"id":1624894,"name":"On or near Police Station"},"longitude":"-2.124597"},"context":"","outcome_status":{"category":"Unable to prosecute suspect","date":"2025-02"},"persistent_id":"eaf7faa6a104dcf5f98878a154fd5f42abc8ab184c7fa0035f799b709b3b7e3d","id":126518825,"location_subtype":"","month":"2025-02"},{"category":"public-order","location_type":"Force","location":{"latitude":"52.568303","street":{"id":1626028,"name":"On or near Myrtle Street"},"longitude":"-2.106508"},"context":"","outcome_status":{"category":"Unable to prosecute suspect","date":"2025-02"},"persistent_id":"b1fef3125d5a4885295355c1c749fa0fc4b37728775fc4c04d0a0a8d4dd66e18","id":126508732,"location_subtype":"","month":"2025-02"},{"category":"public-order","location_type":"Force","location":{"latitude":"52.585678","street":{"id":1624721,"name":"On or near King Street"},"longitude":"-2.126888"},"context":"","outcome_status":{"category":"Unable to prosecute suspect","date":"2025-04"},"persistent_id":"e586560e408f233dbb3bb112e624aa83f7b850d2f05432b39bc5f4b89be73e7e","id":126493966,"location_subtype":"","month":"2025-02"},{"category":"public-order","location_type":"Force","location":{"latitude":"52.586263","street":{"id":1624802,"name":"On or near Wheeler's Fold"},"longitude":"-2.126167"},"context":"","outcome_status":{"category":"Court result unavailable","date":"2025-08"},"persistent_id":"1672dd801fd102566078299f0d2856768509fbfab3dc5cc0d17e7a243b8c57a9","id":126499969,"location_subtype":"","month":"2025-02"},{"category":"robbery","location_type":"Force","location":{"latitude":"52.584296","street":{"id":1624894,"name":"On or near Police Station"},"longitude":"-2.124597"},"context":"","outcome_status":{"category":"Unable to prosecute suspect","date":"2025-03"},"persistent_id":"1c60ea527a5f9193e871b9efac7a293dccda50cfb7515d299426eba6ebfbbd8c","id":126509134,"location_subtype":"","month":"2025-02"},{"category":"robbery","location_type":"Force","location":{"latitude":"52.583969","street":{"id":1624618,"name":"On or near Parking Area"},"longitude":"-2.127843"},"context":"","outcome_status":{"category":"Unable to prosecute suspect","date":"2025-03"},"persistent_id":"c2466e4fd7201ea47b6ca80ee386e18c95fec8ab6f17355f54d88c92e78296bf","id":126498670,"location_subtype":"","month":"2025-02"},{"category":"robbery","location_type":"Force","location":{"latitude":"52.586404","street":{"id":1624493,"name":"On or near Cheapside"},"longitude":"-2.128927"},"context":"","outcome_status":{"category":"Unable to prosecute suspect","date":"2025-03"},"persistent_id":"7fb592582e77cfd94bc978e5912e8ed6263fe85a7957369b3f74ace91a9601d1","id":126516051,"location_subtype":"","month":"2025-02"},{"category":"robbery","location_type":"Force","location":{"latitude":"52.573787","street":{"id":1626607,"name":"On or near Bedford Street"},"longitude":"-2.095071"},"context":"","outcome_status":{"category":"Court result unavailable","date":"2025-10"},"persistent_id":"5eae585f0d91a23146a82a1e0833ddbdaff492adb8698a2e26c0becb7481ea78","id":126504273,"location_subtype":"","month":"2025-02"},{"category":"robbery","location_type":"Force","location":{"latitude":"52.581945","street":{"id":1626348,"name":"On or near Astbury Close"},"longitude":"-2.101051"},"context":"","outcome_status":{"category":"Unable to prosecute suspect","date":"2025-02"},"persistent_id":"3547aa60036e27503167722cff62766298849dbaab34664d1278f9fc4d61ca76","id":126510030,"location_subtype":"","month":"2025-02"},{"category":"robbery","location_type":"Force","location":{"latitude":"52.585361","street":{"id":1624961,"name":"On or near Union Street"},"longitude":"-2.120010"},"context":"","outcome_status":{"category":"Court result unavailable","date":"2025-10"},"persistent_id":"f6056ea8da6282416c6303aa2317579ce8f2c5147d33ccad90045ba1d92eacd9","id":126506859,"location_subtype":"","month":"2025-02"},{"category":"shoplifting","location_type":"Force","location":{"latitude":"52.580361","street":{"id":1624523,"name":"On or near Parking Area"},"longitude":"-2.130252"},"context":"","outcome_status":{"category":"Unable to prosecute suspect","date":"2025-03"},"persistent_id":"8e510d59237a53514a3052b1b87746dd186264ccd4c833bb24521e21084100bb","id":126519615,"location_subtype":"","month":"2025-02"},{"category":"shoplifting","location_type":"Force","location":{"latitude":"52.580361","street":{"id":1624523,"name":"On or near Parking Area"},"longitude":"-2.130252"},"context":"","outcome_status":{"category":"Unable to prosecute suspect","date":"2025-03"},"persistent_id":"2706e3a0937ad5d656efeb95365f7389a7f8e5b73e04be1a878d5e05c062b3c1","id":126517941,"location_subtype":"","month":"2025-02"},{"category":"shoplifting","location_type":"Force","location":{"latitude":"52.586862","street":{"id":1624962,"name":"On or near Wolverhampton"},"longitude":"-2.120279"},"context":"","outcome_status":{"category":"Unable to prosecute suspect","date":"2025-05"},"persistent_id":"23bc42e3bbd2e7ee82972ff09f6ac624c62a224506a43041f34ec39da56000cd","id":126504023,"location_subtype":"","month":"2025-02"},{"category":"shoplifting","location_type":"Force","location":{"latitude":"52.585678","street":{"id":1624721,"name":"On or near King Street"},"longitude":"-2.126888"},"context":"","outcome_status":{"category":"Court result unavailable","date":"2025-08"},"persistent_id":"b527960c525ba55c59da1264438d858f4d6699564ad5affc407fbba9aa3dc683","id":126495382,"location_subtype":"","month":"2025-02"},{"category":"shoplifting","location_type":"Force","location":{"latitude":"52.585678","street":{"id":1624721,"name":"On or near King Street"},"longitude":"-2.126888"},"context":"","outcome_status":{"category":"Court result unavailable","date":"2025-08"},"persistent_id":"73d3d81f4f1bbd475ff95de005f8627ffe8ebd8b62ed7d381937cda1dea5d2b2","id":126520119,"location_subtype":"","month":"2025-02"},{"category":"shoplifting","location_type":"Force","location":{"latitude":"52.577666","street":{"id":1625773,"name":"On or near Rolling Mills Drive"},"longitude":"-2.111326"},"context":"","outcome_status":{"category":"Investigation complete; no suspect identified","date":"2025-02"},"persistent_id":"0dd2c21ba28bfcb69a73bc4f38c2ce2266c3b2b9cf256314c7da69d3891b180a","id":126509716,"location_subtype":"","month":"2025-02"},{"category":"shoplifting","location_type":"Force","location":{"latitude":"52.586862","street":{"id":1624962,"name":"On or near Wolverhampton"},"longitude":"-2.120279"},"context":"","outcome_status":{"category":"Investigation complete; no suspect identified","date":"2025-02"},"persistent_id":"e1c8e2af8a15829f4763fbff373ef51fe6b2c097595e69e688bcc9489366a96c","id":126503900,"location_subtype":"","month":"2025-02"},{"category":"shoplifting","location_type":"Force","location":{"latitude":"52.584807","street":{"id":1624791,"name":"On or near Market Street"},"longitude":"-2.125528"},"context":"","outcome_status":{"category":"Local resolution","date":"2025-03"},"persistent_id":"a541d6e28f99c893192c70d5c1ca454b80b9b309c97e1e739b528ee321b868d2","id":126500540,"location_subtype":"","month":"2025-02"},{"category":"shoplifting","location_type":"Force","location":{"latitude":"52.577666","street":{"id":1625773,"name":"On or near Rolling Mills Drive"},"longitude":"-2.111326"},"context":"","outcome_status":{"category":"Investigation complete; no suspect identified","date":"2025-04"},"persistent_id":"74d582b3678b65fa646f67d8f407bc04defd38831ecb67f0647760c189d5ab4b","id":126507009,"location_subtype":"","month":"2025-02"},{"category":"shoplifting","location_type":"Force","location":{"latitude":"52.575880","street":{"id":1624199,"name":"On or near Supermarket"},"longitude":"-2.133913"},"context":"","outcome_status":{"category":"Unable to prosecute suspect","date":"2025-02"},"persistent_id":"0973789d0ab40acd4cff8f454c3adff220b8aba8e0b376d5be7095151a08f5cd","id":126517911,"location_subtype":"","month":"2025-02"},{"category":"shoplifting","location_type":"Force","location":{"latitude":"52.585678","street":{"id":1624721,"name":"On or near King Street"},"longitude":"-2.126888"},"context":"","outcome_status":{"category":"Court result unavailable","date":"2025-12"},"persistent_id":"376e43e5f733d838ef9708317335683d35b9f84c95e08023f92d50eb79c5f8de","id":126499970,"location_subtype":"","month":"2025-02"},{"category":"shoplifting","location_type":"Force","location":{"latitude":"52.586862","street":{"id":1624962,"name":"On or near Wolverhampton"},"longitude":"-2.120279"},"context":"","outcome_status":{"category":"Status update unavailable","date":"2025-06"},"persistent_id":"28e88ee1f234d6d3dd0a3855a9d55a425d27c765491f644bf89c02960593e913","id":126517110,"location_subtype":"","month":"2025-02"},{"category":"shoplifting","location_type":"Force","location":{"latitude":"52.585678","street":{"id":1624721,"name":"On or near King Street"},"longitude":"-2.126888"},"context":"","outcome_status":{"category":"Offender given a caution","date":"2025-03"},"persistent_id":"d00d0842c54c4441e1d4cf71b44805888fb43462fa4896c6a75ace2251b5e8b3","id":126499889,"location_subtype":"","month":"2025-02"},{"category":"shoplifting","location_type":"Force","location":{"latitude":"52.583969","street":{"id":1624618,"name":"On or near Parking Area"},"longitude":"-2.127843"},"context":"","outcome_status":{"category":"Unable to prosecute suspect","date":"2025-03"},"persistent_id":"08d5b3a54486809b8364542bfe68f89e86174a128467768b6644106fe2ce2b1b","id":126493646,"location_subtype":"","month":"2025-02"},{"category":"shoplifting","location_type":"Force","location":{"latitude":"52.584807","street":{"id":1624791,"name":"On or near Market Street"},"longitude":"-2.125528"},"context":"","outcome_status":{"category":"Unable to prosecute suspect","date":"2025-03"},"persistent_id":"a701358d4341baf31c6124129492390ba8e8124963b834351ecb855cd919726c","id":126508659,"location_subtype":"","month":"2025-02"},{"category":"shoplifting","location_type":"Force","location":{"latitude":"52.584807","street":{"id":1624791,"name":"On or near Market Street"},"longitude":"-2.125528"},"context":"","outcome_status":{"category":"Unable to prosecute suspect","date":"2025-04"},"persistent_id":"ee020e43e74002ca88d587372eade8859bf243ed5c34d62793eea71794156649","id":126515190,"location_subtype":"","month":"2025-02"},{"category":"shoplifting","location_type":"Force","location":{"latitude":"52.584807","street":{"id":1624791,"name":"On or near Market Street"},"longitude":"-2.125528"},"context":"","outcome_status":{"category":"Court result unavailable","date":"2025-09"},"persistent_id":"5a0540b36c22ab5074aed5fdc57a4bd46d624d975939d5184236293a286b5558","id":126513772,"location_subtype":"","month":"2025-02"},{"category":"shoplifting","location_type":"Force","location":{"latitude":"52.583969","street":{"id":1624618,"name":"On or near Parking Area"},"longitude":"-2.127843"},"context":"","outcome_status":{"category":"Investigation complete; no suspect identified","date":"2025-02"},"persistent_id":"189efaa176d96899fe2a61e30aeae8324d39c6760d4eca077c5c050c994862e2","id":126503028,"location_subtype":"","month":"2025-02"},{"category":"shoplifting","location_type":"Force","location":{"latitude":"52.583969","street":{"id":1624618,"name":"On or near Parking Area"},"longitude":"-2.127843"},"context":"","outcome_status":{"category":"Unable to prosecute suspect","date":"2025-03"},"persistent_id":"2632ad984e23ee0b1f472e2988de897fdc037dd03e806c23d2eb143b27ded769","id":126500989,"location_subtype":"","month":"2025-02"},{"category":"shoplifting","location_type":"Force","location":{"latitude":"52.583288","street":{"id":1625901,"name":"On or near St Matthew Street"},"longitude":"-2.107075"},"context":"","outcome_status":{"category":"Investigation complete; no suspect identified","date":"2025-02"},"persistent_id":"658aac6aa7a70ba994190cb4dcfbe56395ce93eafdaa32a283052ca4f023ee9a","id":126515597,"location_subtype":"","month":"2025-02"},{"category":"shoplifting","location_type":"Force","location":{"latitude":"52.561338","street":{"id":1625642,"name":"On or near Bevan Avenue"},"longitude":"-2.113866"},"context":"","outcome_status":{"category":"Awaiting court outcome","date":"2025-10"},"persistent_id":"c53bdc00d518c97a1d6d76a80d5bbdd9f3082e7b6986ebb2f80fe7a8af8facfc","id":126500064,"location_subtype":"","month":"2025-02"},{"category":"shoplifting","location_type":"Force","location":{"latitude":"52.583288","street":{"id":1625901,"name":"On or near St Matthew Street"},"longitude":"-2.107075"},"context":"","outcome_status":{"category":"Court result unavailable","date":"2025-08"},"persistent_id":"627a48b863b2351907991a777f73087019b4f01d97d6a3799cd7de73b7aa9f7e","id":126511534,"location_subtype":"","month":"2025-02"},{"category":"shoplifting","location_type":"Force","location":{"latitude":"52.583969","street":{"id":1624618,"name":"On or near Parking Area"},"longitude":"-2.127843"},"context":"","outcome_status":{"category":"Court result unavailable","date":"2025-08"},"persistent_id":"c35fc7ed6ac9059489c55c4944a893ce7263b7f23cf32127625557cc965f753a","id":126511568,"location_subtype":"","month":"2025-02"},{"category":"shoplifting","location_type":"Force","location":{"latitude":"52.583288","street":{"id":1625901,"name":"On or near St Matthew Street"},"longitude":"-2.107075"},"context":"","outcome_status":{"category":"Investigation complete; no suspect identified","date":"2025-03"},"persistent_id":"d40577dc6dd34cb2afc8b2657dee995b47880637bd33fae785d8b37e748b6b2e","id":126496473,"location_subtype":"","month":"2025-02"},{"category":"shoplifting","location_type":"Force","location":{"latitude":"52.583288","street":{"id":1625901,"name":"On or near St Matthew Street"},"longitude":"-2.107075"},"context":"","outcome_status":{"category":"Unable to prosecute suspect","date":"2025-03"},"persistent_id":"b852f2d891631df782c23211374007a269b04669c5d3f5a879144a2ee05fbd91","id":126515354,"location_subtype":"","month":"2025-02"},{"category":"shoplifting","location_type":"Force","location":{"latitude":"52.583288","street":{"id":1625901,"name":"On or near St Matthew Street"},"longitude":"-2.107075"},"context":"","outcome_status":{"category":"Court result unavailable","date":"2025-08"},"persistent_id":"775a58183498a5998208c626a014a79e088d2175523135c7fd1372efede3958f","id":126514955,"location_subtype":"","month":"2025-02"},{"category":"shoplifting","location_type":"Force","location":{"latitude":"52.583288","street":{"id":1625901,"name":"On or near St Matthew Street"},"longitude":"-2.107075"},"context":"","outcome_status":{"category":"Court result unavailable","date":"2025-08"},"persistent_id":"5be31088893b7fd793e6846c11f1eb4e20e5f03ccd5c21dedc0a37cffca51a75","id":126511499,"location_subtype":"","month":"2025-02"},{"category":"shoplifting","location_type":"Force","location":{"latitude":"52.577472","street":{"id":1624815,"name":"On or near Grove Street"},"longitude":"-2.125448"},"context":"","outcome_status":{"category":"Investigation complete; no suspect identified","date":"2025-03"},"persistent_id":"89706738a10a96bc319590e0a78eec7d2b4045927ef534f1c7ea6d5e7917e68a","id":126510725,"location_subtype":"","month":"2025-02"},{"category":"shoplifting","location_type":"Force","location":{"latitude":"52.584807","street":{"id":1624791,"name":"On or near Market Street"},"longitude":"-2.125528"},"context":"","outcome_status":{"category":"Unable to prosecute suspect","date":"2025-02"},"persistent_id":"b3ad3c7676a561ec8e97185e44ef19cbc47caa95e8cc56c1a481cbf893a8e08d","id":126499354,"location_subtype":"","month":"2025-02"},{"category":"shoplifting","location_type":"Force","location":{"latitude":"52.580361","street":{"id":1624523,"name":"On or near Parking Area"},"longitude":"-2.130252"},"context":"","outcome_status":{"category":"Investigation complete; no suspect identified","date":"2025-03"},"persistent_id":"23569df52ce5ba286a2ef8cd526c3063d29e62e615bbc584e508ec06585ec7b0","id":126499847,"location_subtype":"","month":"2025-02"},{"category":"shoplifting","location_type":"Force","location":{"latitude":"52.583288","street":{"id":1625901,"name":"On or near St Matthew Street"},"longitude":"-2.107075"},"context":"","outcome_status":{"category":"Investigation complete; no suspect identified","date":"2025-02"},"persistent_id":"e4e783023d11836a6fb209c9002f458bfc435ad102c457048b87bb51305c9e69","id":126510706,"location_subtype":"","month":"2025-02"},{"category":"shoplifting","location_type":"Force","location":{"latitude":"52.584807","street":{"id":1624791,"name":"On or near Market Street"},"longitude":"-2.125528"},"context":"","outcome_status":{"category":"Unable to prosecute suspect","date":"2025-04"},"persistent_id":"4eb9a900cf36bb9493339970a4ac1db558ec9d676459cc3de16171abeb42d080","id":126510124,"location_subtype":"","month":"2025-02"},{"category":"shoplifting","location_type":"Force","location":{"latitude":"52.584807","street":{"id":1624791,"name":"On or near Market Street"},"longitude":"-2.125528"},"context":"","outcome_status":{"category":"Court result unavailable","date":"2025-09"},"persistent_id":"77de912dca031d1dec631ab2580a44e386d4dcbf13ca685650c96edf797b3ef4","id":126510121,"location_subtype":"","month":"2025-02"},{"category":"shoplifting","location_type":"Force","location":{"latitude":"52.578724","street":{"id":1624880,"name":"On or near Howard Street"},"longitude":"-2.123179"},"context":"","outcome_status":{"category":"Court result unavailable","date":"2025-12"},"persistent_id":"1f1f372dbd072750f6a71a763121d4f1f4e4e274dd7632069c9125b80503de7c","id":126508945,"location_subtype":"","month":"2025-02"},{"category":"shoplifting","location_type":"Force","location":{"latitude":"52.584807","street":{"id":1624791,"name":"On or near Market Street"},"longitude":"-2.125528"},"context":"","outcome_status":{"category":"Unable to prosecute suspect","date":"2025-03"},"persistent_id":"cb38cf70ceb0c231b8221e6b6fbd9d68083e7311e4cf7fcfb8228964fa26a241","id":126508513,"location_subtype":"","month":"2025-02"},{"category":"shoplifting","location_type":"Force","location":{"latitude":"52.580361","street":{"id":1624523,"name":"On or near Parking Area"},"longitude":"-2.130252"},"context":"","outcome_status":{"category":"Investigation complete; no suspect identified","date":"2025-02"},"persistent_id":"a4238cf7510ff975ec9d4b9989a396f931bbc32c22ebf57bb6ac659052580ac4","id":126497145,"location_subtype":"","month":"2025-02"},{"category":"shoplifting","location_type":"Force","location":{"latitude":"52.583969","street":{"id":1624618,"name":"On or near Parking Area"},"longitude":"-2.127843"},"context":"","outcome_status":{"category":"Investigation complete; no suspect identified","date":"2025-03"},"persistent_id":"df973ac64120eef0cbd3b843670e202f22e0297fa9a3b7d3df5baf2c9d2798dc","id":126494571,"location_subtype":"","month":"2025-02"},{"category":"shoplifting","location_type":"Force","location":{"latitude":"52.580361","street":{"id":1624523,"name":"On or near Parking Area"},"longitude":"-2.130252"},"context":"","outcome_status":{"category":"Investigation complete; no suspect identified","date":"2025-02"},"persistent_id":"b953dd9b84e6f14233207a25f65db79353b346ba064b77a8b35649b1144f95d1","id":126507744,"location_subtype":"","month":"2025-02"},{"category":"shoplifting","location_type":"Force","location":{"latitude":"52.580361","street":{"id":1624523,"name":"On or near Parking Area"},"longitude":"-2.130252"},"context":"","outcome_status":{"category":"Unable to prosecute suspect","date":"2025-06"},"persistent_id":"80a8783b2355dbca52a5cdc390f74bf1d222a1565bded47c664986098de19bd5","id":126496439,"location_subtype":"","month":"2025-02"},{"category":"shoplifting","location_type":"Force","location":{"latitude":"52.583969","street":{"id":1624618,"name":"On or near Parking Area"},"longitude":"-2.127843"},"context":"","outcome_status":{"category":"Investigation complete; no suspect identified","date":"2025-02"},"persistent_id":"da0f2f65176712fe853c2e0c310d504c738b2586057036ed8d8cafe10904493c","id":126507403,"location_subtype":"","month":"2025-02"},{"category":"shoplifting","location_type":"Force","location":{"latitude":"52.585678","street":{"id":1624721,"name":"On or near King Street"},"longitude":"-2.126888"},"context":"","outcome_status":{"category":"Investigation complete; no suspect identified","date":"2025-03"},"persistent_id":"43e8711f32a3c1dafec095e786b9cf24685b95b89bfdf9988e01eac059307869","id":126493428,"location_subtype":"","month":"2025-02"},{"category":"shoplifting","location_type":"Force","location":{"latitude":"52.583969","street":{"id":1624618,"name":"On or near Parking Area"},"longitude":"-2.127843"},"context":"","outcome_status":{"category":"Unable to prosecute suspect","date":"2025-03"},"persistent_id":"38cdac3c81133f52551e8eb4677a76ccb322cf8ac53303d0763525555a4cf18e","id":126502236,"location_subtype":"","month":"2025-02"},{"category":"shoplifting","location_type":"Force","location":{"latitude":"52.584434","street":{"id":1624497,"name":"On or near Victoria Street"},"longitude":"-2.129674"},"context":"","outcome_status":{"category":"Court result unavailable","date":"2025-08"},"persistent_id":"2679fcaa301a78c217e14db291be4cd222bf1e17759f967d4a575171c1b69527","id":126506944,"location_subtype":"","month":"2025-02"},{"category":"shoplifting","location_type":"Force","location":{"latitude":"52.583969","street":{"id":1624618,"name":"On or near Parking Area"},"longitude":"-2.127843"},"context":"","outcome_status":{"category":"Unable to prosecute suspect","date":"2025-02"},"persistent_id":"31a1ca1b28fed8c3f0db6727ed204b3422e0b3d2bd9dbe08d0248a18613460e0","id":126506962,"location_subtype":"","month":"2025-02"},{"category":"shoplifting","location_type":"Force","location":{"latitude":"52.578322","street":{"id":1625374,"name":"On or near Sports/recreation Area"},"longitude":"-2.116611"},"context":"","outcome_status":{"category":"Investigation complete; no suspect identified","date":"2025-02"},"persistent_id":"c20b8a90512e6dbd598696cb031c2f816fe2cd3bf80125e03f113bbd946e6ce5","id":126494722,"location_subtype":"","month":"2025-02"},{"category":"shoplifting","location_type":"Force","location":{"latitude":"52.583969","street":{"id":1624618,"name":"On or near Parking Area"},"longitude":"-2.127843"},"context":"","outcome_status":{"category":"Investigation complete; no suspect identified","date":"2025-02"},"persistent_id":"9f914aebaae7d3ab3d1cb5fdd8e0fbb4b2fa57a2ac71492fe63102b5f75bc691","id":126506988,"location_subtype":"","month":"2025-02"},{"category":"shoplifting","location_type":"Force","location":{"latitude":"52.584434","street":{"id":1624497,"name":"On or near Victoria Street"},"longitude":"-2.129674"},"context":"","outcome_status":{"category":"Court result unavailable","date":"2025-09"},"persistent_id":"02a1078fff682190ba60f311c353a49d78e714a2a7f4ad8340f3611a5c02dafd","id":126507014,"location_subtype":"","month":"2025-02"},{"category":"shoplifting","location_type":"Force","location":{"latitude":"52.583288","street":{"id":1625901,"name":"On or near St Matthew Street"},"longitude":"-2.107075"},"context":"","outcome_status":{"category":"Court result unavailable","date":"2025-08"},"persistent_id":"348a48ff0eae3713e4900619b61b087fe75bcbee258687585405bebce2d78c33","id":126512010,"location_subtype":"","month":"2025-02"},{"category":"shoplifting","location_type":"Force","location":{"latitude":"52.583969","street":{"id":1624618,"name":"On or near Parking Area"},"longitude":"-2.127843"},"context":"","outcome_status":{"category":"Court result unavailable","date":"2025-10"},"persistent_id":"bf265cc157885791036468bc572ae2572378f804a5fcc1701c851a20fa12b585","id":126499119,"location_subtype":"","month":"2025-02"},{"category":"shoplifting","location_type":"Force","location":{"latitude":"52.580361","street":{"id":1624523,"name":"On or near Parking Area"},"longitude":"-2.130252"},"context":"","outcome_status":{"category":"Investigation complete; no suspect identified","date":"2025-03"},"persistent_id":"daf9342e926f831e3a079ab199c0cdc3168f17130ebddd33e249a0c4ec7495c3","id":126497800,"location_subtype":"","month":"2025-02"},{"category":"shoplifting","location_type":"Force","location":{"latitude":"52.585678","street":{"id":1624721,"name":"On or near King Street"},"longitude":"-2.126888"},"context":"","outcome_status":{"category":"Local resolution","date":"2025-03"},"persistent_id":"dcf807c9f1c196c2977f93189175a53ef294f02b7fb519f730b641fef6ad2069","id":126493454,"location_subtype":"","month":"2025-02"},{"category":"shoplifting","location_type":"Force","location":{"latitude":"52.584434","street":{"id":1624497,"name":"On or near Victoria Street"},"longitude":"-2.129674"},"context":"","outcome_status":{"category":"Unable to prosecute suspect","date":"2025-05"},"persistent_id":"24786ad0c38c1899aa778b9a5f34453d3c0f183825330e2a05c9c11aedd29f12","id":126504870,"location_subtype":"","month":"2025-02"},{"category":"shoplifting","location_type":"Force","location":{"latitude":"52.580361","street":{"id":1624523,"name":"On or near Parking Area"},"longitude":"-2.130252"},"context":"","outcome_status":{"category":"Investigation complete; no suspect identified","date":"2025-02"},"persistent_id":"737fcc5a7df80d6c2fd0ad92526346d82b78f478c006747cac88555267de4887","id":126504744,"location_subtype":"","month":"2025-02"},{"category":"shoplifting","location_type":"Force","location":{"latitude":"52.583288","street":{"id":1625901,"name":"On or near St Matthew Street"},"longitude":"-2.107075"},"context":"","outcome_status":{"category":"Court result unavailable","date":"2025-08"},"persistent_id":"01ab3c5faf6b4dd2125b2706f1c9d70cb00260e459dfda484c74b29ac4d9c8e7","id":126510768,"location_subtype":"","month":"2025-02"},{"category":"theft-from-the-person","location_type":"Force","location":{"latitude":"52.570574","street":{"id":1624869,"name":"On or near Shopping Area"},"longitude":"-2.125003"},"context":"","outcome_status":{"category":"Unable to prosecute suspect","date":"2025-02"},"persistent_id":"a359285aa70c490c7c359b6c30b15bcfa90f2c5093918f30aa8b2cfda758d6a0","id":126509415,"location_subtype":"","month":"2025-02"},{"category":"theft-from-the-person","location_type":"Force","location":{"latitude":"52.584807","street":{"id":1624791,"name":"On or near Market Street"},"longitude":"-2.125528"},"context":"","outcome_status":{"category":"Unable to prosecute suspect","date":"2025-03"},"persistent_id":"2e33c6ec12a5fad3d71c576dc3e92dce80b6c0d2edcc9b78c0531fa7bba9f534","id":126499915,"location_subtype":"","month":"2025-02"},{"category":"theft-from-the-person","location_type":"Force","location":{"latitude":"52.587584","street":{"id":1624957,"name":"On or near Nightclub"},"longitude":"-2.124011"},"context":"","outcome_status":{"category":"Investigation complete; no suspect identified","date":"2025-02"},"persistent_id":"48e3f58a9c782a015a64068cf2279454855bf588d66b813f974921ddc8d0df44","id":126514367,"location_subtype":"","month":"2025-02"},{"category":"theft-from-the-person","location_type":"Force","location":{"latitude":"52.580315","street":{"id":1625066,"name":"On or near Bus/coach Station"},"longitude":"-2.121755"},"context":"","outcome_status":{"category":"Unable to prosecute suspect","date":"2025-02"},"persistent_id":"a8fb3bb7c5897268a4467d3675f1ac3390f38de376b504ffc1b38ddf967733ba","id":126505810,"location_subtype":"","month":"2025-02"},{"category":"theft-from-the-person","location_type":"Force","location":{"latitude":"52.583969","street":{"id":1624618,"name":"On or near Parking Area"},"longitude":"-2.127843"},"context":"","outcome_status":{"category":"Unable to prosecute suspect","date":"2025-03"},"persistent_id":"e8ff1db009d106ed8a899459afef0d960e1c3cb05e1e9a2be699597052de6b58","id":126503809,"location_subtype":"","month":"2025-02"},{"category":"theft-from-the-person","location_type":"Force","location":{"latitude":"52.586862","street":{"id":1624962,"name":"On or near Wolverhampton"},"longitude":"-2.120279"},"context":"","outcome_status":{"category":"Investigation complete; no suspect identified","date":"2025-03"},"persistent_id":"1af2f03136406212b393c6794184d71584a61a9a071126811e1df17dd9e45eec","id":126510239,"location_subtype":"","month":"2025-02"},{"category":"theft-from-the-person","location_type":"Force","location":{"latitude":"52.577666","street":{"id":1625773,"name":"On or near Rolling Mills Drive"},"longitude":"-2.111326"},"context":"","outcome_status":{"category":"Investigation complete; no suspect identified","date":"2025-03"},"persistent_id":"bdf877fc4e5eb21390341b074bcb5e43291c39d5ff39747394c55f9c2c08ba46","id":126494979,"location_subtype":"","month":"2025-02"},{"category":"theft-from-the-person","location_type":"Force","location":{"latitude":"52.571772","street":{"id":1626517,"name":"On or near Junction Road"},"longitude":"-2.096556"},"context":"","outcome_status":{"category":"Unable to prosecute suspect","date":"2025-03"},"persistent_id":"a3eace2f464c1312a03c4798d4e2e23d0fcc138410d53d610d6abe2291331853","id":126493506,"location_subtype":"","month":"2025-02"},{"category":"theft-from-the-person","location_type":"Force","location":{"latitude":"52.584807","street":{"id":1624791,"name":"On or near Market Street"},"longitude":"-2.125528"},"context":"","outcome_status":{"category":"Unable to prosecute suspect","date":"2025-02"},"persistent_id":"a9b59060b634303397d5cee11ddb24c2a01c3946e9e03e4642b32edaf6278cab","id":126495678,"location_subtype":"","month":"2025-02"},{"category":"theft-from-the-person","location_type":"Force","location":{"latitude":"52.585361","street":{"id":1624961,"name":"On or near Union Street"},"longitude":"-2.120010"},"context":"","outcome_status":{"category":"Investigation complete; no suspect identified","date":"2025-02"},"persistent_id":"34b56957e828556d1eac624ccc4f3ed2e3cf28a26d7692f16aecf6c0f082487c","id":126503792,"location_subtype":"","month":"2025-02"},{"category":"vehicle-crime","location_type":"Force","location":{"latitude":"52.575065","street":{"id":1624983,"name":"On or near Brown Street"},"longitude":"-2.122593"},"context":"","outcome_status":{"category":"Investigation complete; no suspect identified","date":"2025-02"},"persistent_id":"c796ad9a1b2afc2301fd292704edde10b0680cf885192a4f5ad6dba11f76a0d5","id":126519943,"location_subtype":"","month":"2025-02"},{"category":"vehicle-crime","location_type":"Force","location":{"latitude":"52.565480","street":{"id":1624877,"name":"On or near Neville Avenue"},"longitude":"-2.124484"},"context":"","outcome_status":{"category":"Investigation complete; no suspect identified","date":"2025-05"},"persistent_id":"d247bdddf2757c0750518486136ddf47bc71884cb21ab981fc82733740e61cc3","id":126519790,"location_subtype":"","month":"2025-02"},{"category":"vehicle-crime","location_type":"Force","location":{"latitude":"52.581660","street":{"id":1624234,"name":"On or near Hallet Drive"},"longitude":"-2.134521"},"context":"","outcome_status":{"category":"Investigation complete; no suspect identified","date":"2025-02"},"persistent_id":"e85cb9ab2f26e645f64162f9b766868d2cd7d2d851c2db21dcf71e28afecada8","id":126511293,"location_subtype":"","month":"2025-02"},{"category":"vehicle-crime","location_type":"Force","location":{"latitude":"52.577412","street":{"id":1626158,"name":"On or near Sutherland Avenue"},"longitude":"-2.103505"},"context":"","outcome_status":{"category":"Investigation complete; no suspect identified","date":"2025-03"},"persistent_id":"9adcf0880d79110b8aedd9b35c765694d5347d0c29347af465ea9effcd3abbe1","id":126506167,"location_subtype":"","month":"2025-02"},{"category":"vehicle-crime","location_type":"Force","location":{"latitude":"52.568057","street":{"id":1626384,"name":"On or near Duxford Grove"},"longitude":"-2.099587"},"context":"","outcome_status":{"category":"Court result unavailable","date":"2025-08"},"persistent_id":"417cce082a09abdaf2cb0c6a18b4dc8ae44cb1d3db9e36d20cfae0caf38b4263","id":126520033,"location_subtype":"","month":"2025-02"},{"category":"vehicle-crime","location_type":"Force","location":{"latitude":"52.587831","street":{"id":1625288,"name":"On or near Conference/exhibition Centre"},"longitude":"-2.118450"},"context":"","outcome_status":{"category":"Investigation complete; no suspect identified","date":"2025-03"},"persistent_id":"9eb040a22901c0333f1004880525fe355a1dd9fdcc89cf3114df9a609afb77c2","id":126499197,"location_subtype":"","month":"2025-02"},{"category":"vehicle-crime","location_type":"Force","location":{"latitude":"52.561511","street":{"id":1625193,"name":"On or near Lewthorn Rise"},"longitude":"-2.120254"},"context":"","outcome_status":{"category":"Investigation complete; no suspect identified","date":"2025-02"},"persistent_id":"9bdd467870b1a8714ebad0dd0a42632b1bb717ff75812b963bf8fc09768c131a","id":126520101,"location_subtype":"","month":"2025-02"},{"category":"vehicle-crime","location_type":"Force","location":{"latitude":"52.582675","street":{"id":1624217,"name":"On or near Supermarket"},"longitude":"-2.135041"},"context":"","outcome_status":{"category":"Court result unavailable","date":"2025-08"},"persistent_id":"6296c5da7c586cda5e84badd19c6ca5c6edfc673f0b0caef2ec2ef320336495f","id":126518031,"location_subtype":"","month":"2025-02"},{"category":"vehicle-crime","location_type":"Force","location":{"latitude":"52.583527","street":{"id":1626275,"name":"On or near Parking Area"},"longitude":"-2.101792"},"context":"","outcome_status":{"category":"Investigation complete; no suspect identified","date":"2025-05"},"persistent_id":"f0e7c76a5aff7ebe9ad197fc54ef9d4ce6db4fe4815f77bad016b01820f30f4b","id":126500299,"location_subtype":"","month":"2025-02"},{"category":"vehicle-crime","location_type":"Force","location":{"latitude":"52.582736","street":{"id":1624831,"name":"On or near Shopping Area"},"longitude":"-2.125495"},"context":"","outcome_status":{"category":"Court result unavailable","date":"2025-08"},"persistent_id":"79c87cb14ecf76aaa663011ff7da5851190fedb5a4a9e52e6cdb217060133148","id":126517239,"location_subtype":"","month":"2025-02"},{"category":"vehicle-crime","location_type":"Force","location":{"latitude":"52.580361","street":{"id":1624523,"name":"On or near Parking Area"},"longitude":"-2.130252"},"context":"","outcome_status":{"category":"Court result unavailable","date":"2025-08"},"persistent_id":"ab6e9e2e520c2aa4cc0200e4b8970cad15a878d8a749a8f674b7cb598c11c8f3","id":126517135,"location_subtype":"","month":"2025-02"},{"category":"vehicle-crime","location_type":"Force","location":{"latitude":"52.562727","street":{"id":1624795,"name":"On or near Benson Avenue"},"longitude":"-2.126674"},"context":"","outcome_status":{"category":"Investigation complete; no suspect identified","date":"2025-02"},"persistent_id":"3a4436d35a8e538bf579cce868a42726d95ebede62e705f74ec7f3afd9f8ac59","id":126516938,"location_subtype":"","month":"2025-02"},{"category":"vehicle-crime","location_type":"Force","location":{"latitude":"52.581269","street":{"id":1624463,"name":"On or near Church Street"},"longitude":"-2.130713"},"context":"","outcome_status":{"category":"Investigation complete; no suspect identified","date":"2025-02"},"persistent_id":"9dff5ffd03caa11c0fccbce7c2b5beac8b4d3db393f6544c46239d2ef4f22433","id":126516316,"location_subtype":"","month":"2025-02"},{"category":"vehicle-crime","location_type":"Force","location":{"latitude":"52.582188","street":{"id":1624562,"name":"On or near Temple Street"},"longitude":"-2.128413"},"context":"","outcome_status":{"category":"Investigation complete; no suspect identified","date":"2025-04"},"persistent_id":"99144a1765fdac80774b686a787a0119540245e7d9e6fcb65db19fec0ebbc8a9","id":126499944,"location_subtype":"","month":"2025-02"},{"category":"vehicle-crime","location_type":"Force","location":{"latitude":"52.561338","street":{"id":1625642,"name":"On or near Bevan Avenue"},"longitude":"-2.113866"},"context":"","outcome_status":{"category":"Investigation complete; no suspect identified","date":"2025-02"},"persistent_id":"66808f117e67e09b8f504873dc1325af636fa50eb761da557318ef993a7bd2b5","id":126498458,"location_subtype":"","month":"2025-02"},{"category":"vehicle-crime","location_type":"Force","location":{"latitude":"52.565955","street":{"id":1625975,"name":"On or near Windsor Road"},"longitude":"-2.107535"},"context":"","outcome_status":{"category":"Investigation complete; no suspect identified","date":"2025-02"},"persistent_id":"17a1f683802228d9639f0b4e8807bba3eaa9986f7450db66e029c87abb9c70ab","id":126497870,"location_subtype":"","month":"2025-02"},{"category":"vehicle-crime","location_type":"Force","location":{"latitude":"52.567610","street":{"id":1626545,"name":"On or near Northolt Drive"},"longitude":"-2.096946"},"context":"","outcome_status":{"category":"Investigation complete; no suspect identified","date":"2025-03"},"persistent_id":"a8f54b3d212b6c7efe40a2b05217b8dcf566a23f48f0cd7d41f12836d875d074","id":126505267,"location_subtype":"","month":"2025-02"},{"category":"vehicle-crime","location_type":"Force","location":{"latitude":"52.577308","street":{"id":1624679,"name":"On or near Parking Area"},"longitude":"-2.126849"},"context":"","outcome_status":{"category":"Investigation complete; no suspect identified","date":"2025-02"},"persistent_id":"fdd1c431337584e56d57bf1199969bd29501345fef060a1661fe9e62890b253b","id":126500288,"location_subtype":"","month":"2025-02"},{"category":"vehicle-crime","location_type":"Force","location":{"latitude":"52.577375","street":{"id":1625578,"name":"On or near Parkyn Street"},"longitude":"-2.114808"},"context":"","outcome_status":{"category":"Investigation complete; no suspect identified","date":"2025-02"},"persistent_id":"51db20928ed364d847294dee1f4c4c3f022fef1e1bedc04cf2340496d5917668","id":126493384,"location_subtype":"","month":"2025-02"},{"category":"vehicle-crime","location_type":"Force","location":{"latitude":"52.562192","street":{"id":1624415,"name":"On or near Park Avenue"},"longitude":"-2.130803"},"context":"","outcome_status":{"category":"Investigation complete; no suspect identified","date":"2025-03"},"persistent_id":"4387f1e1183216aaa052be588b0b36eab61a7e35d92711d4c7a2f6803da0c291","id":126509582,"location_subtype":"","month":"2025-02"},{"category":"vehicle-crime","location_type":"Force","location":{"latitude":"52.586862","street":{"id":1624962,"name":"On or near Wolverhampton"},"longitude":"-2.120279"},"context":"","outcome_status":{"category":"Investigation complete; no suspect identified","date":"2025-02"},"persistent_id":"5d8630a110ae13196eae7cbe141ff29d3df834ce4a1972ae25d43de9a9b7ea12","id":126509441,"location_subtype":"","month":"2025-02"},{"category":"vehicle-crime","location_type":"Force","location":{"latitude":"52.565955","street":{"id":1625975,"name":"On or near Windsor Road"},"longitude":"-2.107535"},"context":"","outcome_status":{"category":"Investigation complete; no suspect identified","date":"2025-03"},"persistent_id":"c6641d16f95de4c81d069ea76061aa5902bc56862100c2cfefb682bda30b0375","id":126494684,"location_subtype":"","month":"2025-02"},{"category":"vehicle-crime","location_type":"Force","location":{"latitude":"52.582000","street":{"id":1625248,"name":"On or near Hospital Street"},"longitude":"-2.119587"},"context":"","outcome_status":{"category":"Investigation complete; no suspect identified","date":"2025-02"},"persistent_id":"1d9a2c12abe73d301885d34091a2281557c8804f42903cb9504d214b92845d2d","id":126508440,"location_subtype":"","month":"2025-02"},{"category":"vehicle-crime","location_type":"Force","location":{"latitude":"52.575880","street":{"id":1624199,"name":"On or near Supermarket"},"longitude":"-2.133913"},"context":"","outcome_status":{"category":"Investigation complete; no suspect identified","date":"2025-03"},"persistent_id":"d0d3f6f9b701f3dcd9c2846d77829103e212669dfa7d11ee8c760ecd56e55343","id":126505899,"location_subtype":"","month":"2025-02"},{"category":"vehicle-crime","location_type":"Force","location":{"latitude":"52.575383","street":{"id":1624675,"name":"On or near The Haven"},"longitude":"-2.128098"},"context":"","outcome_status":{"category":"Investigation complete; no suspect identified","date":"2025-02"},"persistent_id":"117bc91c08446ad78e4e96e28f0efd3fe9cf8e1f9e18c1ddc8307d6e191eee10","id":126515500,"location_subtype":"","month":"2025-02"},{"category":"vehicle-crime","location_type":"Force","location":{"latitude":"52.563859","street":{"id":1625878,"name":"On or near Millport Road"},"longitude":"-2.109801"},"context":"","outcome_status":{"category":"Investigation complete; no suspect identified","date":"2025-07"},"persistent_id":"c52baf538ddffb568616ad8f587628abee5c7fcad2cbbeb013b1da32fd5055b5","id":126509496,"location_subtype":"","month":"2025-02"},{"category":"vehicle-crime","location_type":"Force","location":{"latitude":"52.586862","street":{"id":1624962,"name":"On or near Wolverhampton"},"longitude":"-2.120279"},"context":"","outcome_status":{"category":"Investigation complete; no suspect identified","date":"2025-06"},"persistent_id":"9eb44f56ec0a9d7a9482153e1f664affb81eb05aac96ced852a677b623f66c29","id":126507916,"location_subtype":"","month":"2025-02"},{"category":"vehicle-crime","location_type":"Force","location":{"latitude":"52.581129","street":{"id":1624781,"name":"On or near George Street"},"longitude":"-2.126875"},"context":"","outcome_status":{"category":"Investigation complete; no suspect identified","date":"2025-02"},"persistent_id":"e40e39f6bb17c1c19c42519c12c8d4abb7017ab1d08ea173f9d95c6c933ef679","id":126506383,"location_subtype":"","month":"2025-02"},{"category":"vehicle-crime","location_type":"Force","location":{"latitude":"52.575880","street":{"id":1624199,"name":"On or near Supermarket"},"longitude":"-2.133913"},"context":"","outcome_status":{"category":"Investigation complete; no suspect identified","date":"2025-02"},"persistent_id":"dbd99f97976deb39eaa4f0f9b01a787edab5923dce1d47d72a783ada05d1b88e","id":126511547,"location_subtype":"","month":"2025-02"},{"category":"vehicle-crime","location_type":"Force","location":{"latitude":"52.565040","street":{"id":1625437,"name":"On or near The Grove"},"longitude":"-2.115690"},"context":"","outcome_status":{"category":"Investigation complete; no suspect identified","date":"2025-02"},"persistent_id":"46f05ff3ae39816513d02bc5d4f5b7520f762425ff63872443037869585719cc","id":126504531,"location_subtype":"","month":"2025-02"},{"category":"vehicle-crime","location_type":"Force","location":{"latitude":"52.586404","street":{"id":1624493,"name":"On or near Cheapside"},"longitude":"-2.128927"},"context":"","outcome_status":{"category":"Investigation complete; no suspect identified","date":"2025-02"},"persistent_id":"983d8784bad91c45bffe2b2076c272e565cd2a434722da5399f39ec797a7f0f3","id":126269936,"location_subtype":"","month":"2025-02"},